위도,경도,public_transport,highway,name,operator,source,source:date
37.85635,127.7548,platform,bus_stop,성우오스타A,춘천시,공공데이터포털,2019-11-27
37.85686,127.75944,platform,bus_stop,거두리주공A,춘천시,공공데이터포털,2019-11-27
37.86255,127.75865,platform,bus_stop,강원지방경찰청,춘천시,공공데이터포털,2019-11-27
37.86249,127.75844,platform,bus_stop,강원지방경찰청,춘천시,공공데이터포털,2019-11-27
37.91627,127.78235,platform,bus_stop,지내1리(옥광산입구),춘천시,공공데이터포털,2019-11-27
37.77665,127.64391,platform,bus_stop,창촌3리입구,춘천시,공공데이터포털,2019-11-27
37.67885,127.61356,platform,bus_stop,한덕리,춘천시,공공데이터포털,2019-11-27
37.67707,127.61177,platform,bus_stop,한덕리입구,춘천시,공공데이터포털,2019-11-27
37.67723,127.61166,platform,bus_stop,한덕리입구,춘천시,공공데이터포털,2019-11-27
37.68338,127.64644,platform,bus_stop,산수리,춘천시,공공데이터포털,2019-11-27
37.68636,127.64436,platform,bus_stop,산수리,춘천시,공공데이터포털,2019-11-27
37.74002,127.83198,platform,bus_stop,부사원리,춘천시,공공데이터포털,2019-11-27
37.84081,127.55183,platform,bus_stop,서천리입구,춘천시,공공데이터포털,2019-11-27
37.89606,127.68087,platform,bus_stop,방동2리입구(보건소),춘천시,공공데이터포털,2019-11-27
37.93028,127.68736,platform,bus_stop,월송1리,춘천시,공공데이터포털,2019-11-27
37.92309,127.68958,platform,bus_stop,월송2리,춘천시,공공데이터포털,2019-11-27
37.93602,127.7026,platform,bus_stop,신매1리,춘천시,공공데이터포털,2019-11-27
37.83739,127.67424,platform,bus_stop,삼악산,춘천시,공공데이터포털,2019-11-27
37.9112,127.70402,platform,bus_stop,과수원마을입구,춘천시,공공데이터포털,2019-11-27
37.86915,127.69225,platform,bus_stop,(구)싸이클경기장,춘천시,공공데이터포털,2019-11-27
37.7703,127.7131,platform,bus_stop,덕만리(혈동1리입구),춘천시,공공데이터포털,2019-11-27
37.90445,127.78102,platform,bus_stop,동면치안센터,춘천시,공공데이터포털,2019-11-27
37.77401,127.6729,platform,bus_stop,수동1리,춘천시,공공데이터포털,2019-11-27
37.84123,127.60993,platform,bus_stop,당림삼거리,춘천시,공공데이터포털,2019-11-27
37.80294,127.62148,platform,bus_stop,강촌리,춘천시,공공데이터포털,2019-11-27
37.77328,127.81121,platform,bus_stop,봉명2리,춘천시,공공데이터포털,2019-11-27
37.7538,127.79596,platform,bus_stop,동산면사무소,춘천시,공공데이터포털,2019-11-27
37.7538,127.79571,platform,bus_stop,동산면행복센터,춘천시,공공데이터포털,2019-11-27
37.7677,127.76588,platform,bus_stop,모래재,춘천시,공공데이터포털,2019-11-27
37.75617,127.81156,platform,bus_stop,조양1리,춘천시,공공데이터포털,2019-11-27
37.75149,127.82278,platform,bus_stop,부사원고개,춘천시,공공데이터포털,2019-11-27
37.74303,127.82926,platform,bus_stop,조양3리,춘천시,공공데이터포털,2019-11-27
37.76066,127.7728,platform,bus_stop,조양4리,춘천시,공공데이터포털,2019-11-27
37.78604,127.75697,platform,bus_stop,새술막,춘천시,공공데이터포털,2019-11-27
38.05092,127.60286,platform,bus_stop,오탄리종점,춘천시,공공데이터포털,2019-11-27
37.96603,127.67464,platform,bus_stop,고탄입구,춘천시,공공데이터포털,2019-11-27
37.97506,127.59891,platform,bus_stop,눈썰매장입구,춘천시,공공데이터포털,2019-11-27
37.97769,127.60207,platform,bus_stop,지암리(물레방아민박),춘천시,공공데이터포털,2019-11-27
37.97951,127.60433,platform,bus_stop,지암리(4),춘천시,공공데이터포털,2019-11-27
37.98287,127.61625,platform,bus_stop,지암리(3),춘천시,공공데이터포털,2019-11-27
37.97694,127.62895,platform,bus_stop,가족쉼터,춘천시,공공데이터포털,2019-11-27
37.98383,127.64462,platform,bus_stop,오월교입구,춘천시,공공데이터포털,2019-11-27
37.99288,127.72482,platform,bus_stop,고성2리선돌입구,춘천시,공공데이터포털,2019-11-27
37.99948,127.73634,platform,bus_stop,고성2리,춘천시,공공데이터포털,2019-11-27
37.99464,127.73537,platform,bus_stop,고성2리용화산,춘천시,공공데이터포털,2019-11-27
37.99201,127.73377,platform,bus_stop,고성2리매산교앞,춘천시,공공데이터포털,2019-11-27
37.99224,127.73042,platform,bus_stop,고성2리,춘천시,공공데이터포털,2019-11-27
37.98888,127.71363,platform,bus_stop,고탄리,춘천시,공공데이터포털,2019-11-27
37.98842,127.70197,platform,bus_stop,송암리,춘천시,공공데이터포털,2019-11-27
37.99546,127.68628,platform,bus_stop,송암리마을회관,춘천시,공공데이터포털,2019-11-27
38.00121,127.68969,platform,bus_stop,송암리(인삼밭),춘천시,공공데이터포털,2019-11-27
37.99573,127.68322,platform,bus_stop,송암리(은재된장),춘천시,공공데이터포털,2019-11-27
37.99685,127.67723,platform,bus_stop,송암리(밤나무),춘천시,공공데이터포털,2019-11-27
37.99581,127.67165,platform,bus_stop,인람리(1),춘천시,공공데이터포털,2019-11-27
37.99536,127.66544,platform,bus_stop,인람리(2),춘천시,공공데이터포털,2019-11-27
37.99584,127.68342,platform,bus_stop,송암리(은재된장),춘천시,공공데이터포털,2019-11-27
37.99707,127.67716,platform,bus_stop,송암리(밤나무),춘천시,공공데이터포털,2019-11-27
37.99542,127.67031,platform,bus_stop,인람리(1),춘천시,공공데이터포털,2019-11-27
37.99559,127.66544,platform,bus_stop,인람리(2),춘천시,공공데이터포털,2019-11-27
37.99102,127.65942,platform,bus_stop,인람리(하우스),춘천시,공공데이터포털,2019-11-27
37.993,127.69088,platform,bus_stop,송암삼거리,춘천시,공공데이터포털,2019-11-27
37.98012,127.69209,platform,bus_stop,해피초원목장,춘천시,공공데이터포털,2019-11-27
37.92801,127.7369,platform,bus_stop,올미,춘천시,공공데이터포털,2019-11-27
37.92778,127.73673,platform,bus_stop,올미,춘천시,공공데이터포털,2019-11-27
37.9368,127.72776,platform,bus_stop,국군병원사거리,춘천시,공공데이터포털,2019-11-27
37.95765,127.7235,platform,bus_stop,지내2리,춘천시,공공데이터포털,2019-11-27
37.95809,127.73023,platform,bus_stop,지내보건소,춘천시,공공데이터포털,2019-11-27
37.8614,127.79021,platform,bus_stop,거두리사거리,춘천시,공공데이터포털,2019-11-27
37.86138,127.79037,platform,bus_stop,거두리사거리,춘천시,공공데이터포털,2019-11-27
37.85401,127.78014,platform,bus_stop,신촌리종점,춘천시,공공데이터포털,2019-11-27
37.84893,127.7745,platform,bus_stop,고은리입구,춘천시,공공데이터포털,2019-11-27
37.83104,127.76854,platform,bus_stop,사암1리,춘천시,공공데이터포털,2019-11-27
37.98372,127.89632,platform,bus_stop,천리터,춘천시,공공데이터포털,2019-11-27
38.01343,127.88076,platform,bus_stop,추곡1리,춘천시,공공데이터포털,2019-11-27
38.03338,127.87707,platform,bus_stop,추곡(낚시터),춘천시,공공데이터포털,2019-11-27
38.03491,127.86861,platform,bus_stop,추곡터널,춘천시,공공데이터포털,2019-11-27
37.95108,127.7474,platform,bus_stop,발산1리,춘천시,공공데이터포털,2019-11-27
37.7412,127.57256,platform,bus_stop,가정1리마을회관,춘천시,공공데이터포털,2019-11-27
37.73993,127.57275,platform,bus_stop,가정중학교,춘천시,공공데이터포털,2019-11-27
37.75094,127.61982,platform,bus_stop,후동리,춘천시,공공데이터포털,2019-11-27
37.75752,127.62377,platform,bus_stop,후동리,춘천시,공공데이터포털,2019-11-27
37.76034,127.62658,platform,bus_stop,소주고개쉼터,춘천시,공공데이터포털,2019-11-27
37.73887,127.62456,platform,bus_stop,발산2리(치안센터),춘천시,공공데이터포털,2019-11-27
37.73445,127.57568,platform,bus_stop,가정진료소,춘천시,공공데이터포털,2019-11-27
37.73909,127.62473,platform,bus_stop,발산2리(치안센터),춘천시,공공데이터포털,2019-11-27
37.78784,127.76007,platform,bus_stop,새술막,춘천시,공공데이터포털,2019-11-27
37.7435,127.7102,platform,bus_stop,광판삼거리,춘천시,공공데이터포털,2019-11-27
37.75164,127.70918,platform,bus_stop,탑골,춘천시,공공데이터포털,2019-11-27
37.84328,127.73133,platform,bus_stop,정족1리입구,춘천시,공공데이터포털,2019-11-27
37.83633,127.73104,platform,bus_stop,정족1리,춘천시,공공데이터포털,2019-11-27
37.80906,127.70917,platform,bus_stop,증2리,춘천시,공공데이터포털,2019-11-27
37.81477,127.71089,platform,bus_stop,금병초교,춘천시,공공데이터포털,2019-11-27
37.8142,127.70898,platform,bus_stop,증1리,춘천시,공공데이터포털,2019-11-27
37.83629,127.7308,platform,bus_stop,정족1리,춘천시,공공데이터포털,2019-11-27
37.84324,127.73114,platform,bus_stop,정족1리입구,춘천시,공공데이터포털,2019-11-27
37.74593,127.7959,platform,bus_stop,조양2리,춘천시,공공데이터포털,2019-11-27
37.74588,127.79598,platform,bus_stop,조양2리,춘천시,공공데이터포털,2019-11-27
37.74042,127.79634,platform,bus_stop,조양2리,춘천시,공공데이터포털,2019-11-27
37.74009,127.79642,platform,bus_stop,조양2리,춘천시,공공데이터포털,2019-11-27
37.86378,127.84817,platform,bus_stop,(구)상걸초,춘천시,공공데이터포털,2019-11-27
37.86391,127.84825,platform,bus_stop,(구)상걸초,춘천시,공공데이터포털,2019-11-27
37.86617,127.83999,platform,bus_stop,상걸교,춘천시,공공데이터포털,2019-11-27
37.86635,127.84023,platform,bus_stop,상걸교,춘천시,공공데이터포털,2019-11-27
37.84277,127.56679,platform,bus_stop,안보리,춘천시,공공데이터포털,2019-11-27
37.80896,127.63595,platform,bus_stop,강촌1리삼거리,춘천시,공공데이터포털,2019-11-27
37.78478,127.65046,platform,bus_stop,창촌1리,춘천시,공공데이터포털,2019-11-27
37.78508,127.65043,platform,bus_stop,창촌1리,춘천시,공공데이터포털,2019-11-27
37.77738,127.62862,platform,bus_stop,창촌3리,춘천시,공공데이터포털,2019-11-27
37.7773,127.62855,platform,bus_stop,창촌3리,춘천시,공공데이터포털,2019-11-27
37.75472,127.62217,platform,bus_stop,후동1리,춘천시,공공데이터포털,2019-11-27
37.75472,127.62234,platform,bus_stop,후동1리,춘천시,공공데이터포털,2019-11-27
37.7259,127.53387,platform,bus_stop,박암리,춘천시,공공데이터포털,2019-11-27
37.72594,127.53405,platform,bus_stop,박암리,춘천시,공공데이터포털,2019-11-27
37.724,127.5458,platform,bus_stop,박암리,춘천시,공공데이터포털,2019-11-27
37.7239,127.5458,platform,bus_stop,박암리,춘천시,공공데이터포털,2019-11-27
37.76118,127.57495,platform,bus_stop,가정3리,춘천시,공공데이터포털,2019-11-27
37.76105,127.57503,platform,bus_stop,가정3리,춘천시,공공데이터포털,2019-11-27
37.73465,127.57588,platform,bus_stop,강원학생교육원,춘천시,공공데이터포털,2019-11-27
37.73592,127.69137,platform,bus_stop,우러니입구,춘천시,공공데이터포털,2019-11-27
37.73181,127.70472,platform,bus_stop,광판1리,춘천시,공공데이터포털,2019-11-27
37.73189,127.70461,platform,bus_stop,광판1리,춘천시,공공데이터포털,2019-11-27
37.73105,127.69658,platform,bus_stop,정보화마을,춘천시,공공데이터포털,2019-11-27
37.73114,127.69669,platform,bus_stop,정보화마을,춘천시,공공데이터포털,2019-11-27
37.73432,127.69318,platform,bus_stop,양지마을,춘천시,공공데이터포털,2019-11-27
37.77349,127.6765,platform,bus_stop,수동1리,춘천시,공공데이터포털,2019-11-27
37.7739,127.67274,platform,bus_stop,수동1리,춘천시,공공데이터포털,2019-11-27
37.79902,127.6912,platform,bus_stop,혈동2리,춘천시,공공데이터포털,2019-11-27
37.81721,127.69999,platform,bus_stop,팔미3리,춘천시,공공데이터포털,2019-11-27
37.81732,127.69992,platform,bus_stop,팔미3리,춘천시,공공데이터포털,2019-11-27
37.97955,127.90092,platform,bus_stop,오항리,춘천시,공공데이터포털,2019-11-27
37.98376,127.89647,platform,bus_stop,천리터,춘천시,공공데이터포털,2019-11-27
38.03518,127.86793,platform,bus_stop,추곡터널,춘천시,공공데이터포털,2019-11-27
37.81409,127.57308,platform,bus_stop,백양2리,춘천시,공공데이터포털,2019-11-27
37.814,127.57299,platform,bus_stop,백양2리,춘천시,공공데이터포털,2019-11-27
37.81619,127.56958,platform,bus_stop,백양2리,춘천시,공공데이터포털,2019-11-27
37.8165,127.56951,platform,bus_stop,백양2리,춘천시,공공데이터포털,2019-11-27
37.819,127.565,platform,bus_stop,백양1리,춘천시,공공데이터포털,2019-11-27
37.83402,127.59912,platform,bus_stop,당림리,춘천시,공공데이터포털,2019-11-27
37.85339,127.61666,platform,bus_stop,당림1리,춘천시,공공데이터포털,2019-11-27
37.85102,127.61598,platform,bus_stop,당림1리,춘천시,공공데이터포털,2019-11-27
37.85097,127.61607,platform,bus_stop,당림1리,춘천시,공공데이터포털,2019-11-27
37.90486,127.67173,platform,bus_stop,방동2리마을회관,춘천시,공공데이터포털,2019-11-27
37.89587,127.68021,platform,bus_stop,방동1리,춘천시,공공데이터포털,2019-11-27
37.92207,127.72189,platform,bus_stop,인형극장,춘천시,공공데이터포털,2019-11-27
38.00106,127.68982,platform,bus_stop,송암리,춘천시,공공데이터포털,2019-11-27
37.99246,127.73033,platform,bus_stop,고성2리,춘천시,공공데이터포털,2019-11-27
37.98016,127.69175,platform,bus_stop,해피초원목장,춘천시,공공데이터포털,2019-11-27
37.97477,127.598,platform,bus_stop,눈썰매장입구,춘천시,공공데이터포털,2019-11-27
37.97761,127.60217,platform,bus_stop,지암리,춘천시,공공데이터포털,2019-11-27
37.97932,127.60439,platform,bus_stop,지암리,춘천시,공공데이터포털,2019-11-27
37.98266,127.61635,platform,bus_stop,지암리,춘천시,공공데이터포털,2019-11-27
37.97671,127.62906,platform,bus_stop,지암리,춘천시,공공데이터포털,2019-11-27
37.97614,127.63234,platform,bus_stop,지암리,춘천시,공공데이터포털,2019-11-27
38.01951,127.637,platform,bus_stop,신포리,춘천시,공공데이터포털,2019-11-27
38.01945,127.63713,platform,bus_stop,신포리,춘천시,공공데이터포털,2019-11-27
38.00358,127.63427,platform,bus_stop,원평리,춘천시,공공데이터포털,2019-11-27
37.96624,127.67465,platform,bus_stop,고탄입구,춘천시,공공데이터포털,2019-11-27
37.96041,127.68148,platform,bus_stop,용산2리,춘천시,공공데이터포털,2019-11-27
37.96037,127.68184,platform,bus_stop,용산2리,춘천시,공공데이터포털,2019-11-27
37.9465,127.7074,platform,bus_stop,용산3리종점,춘천시,공공데이터포털,2019-11-27
37.93913,127.7142,platform,bus_stop,용산1리,춘천시,공공데이터포털,2019-11-27
37.9393,127.71428,platform,bus_stop,용산1리,춘천시,공공데이터포털,2019-11-27
37.95574,127.72506,platform,bus_stop,지내2리응달말,춘천시,공공데이터포털,2019-11-27
37.93699,127.7277,platform,bus_stop,국군병원,춘천시,공공데이터포털,2019-11-27
37.9109,127.72266,platform,bus_stop,사농현대A,춘천시,공공데이터포털,2019-11-27
37.88877,127.72016,platform,bus_stop,성신양회,춘천시,공공데이터포털,2019-11-27
37.87954,127.71419,platform,bus_stop,근화동노인회관,춘천시,공공데이터포털,2019-11-27
37.8598,127.735,platform,bus_stop,휴먼시아2차아파트,춘천시,공공데이터포털,2019-11-27
37.861,127.7323,platform,bus_stop,미래컨벤션웨딩홀,춘천시,공공데이터포털,2019-11-27
37.83238,127.76319,platform,bus_stop,학곡리,춘천시,공공데이터포털,2019-11-27
37.83234,127.76307,platform,bus_stop,원창고개입구,춘천시,공공데이터포털,2019-11-27
37.85052,127.74897,platform,bus_stop,스무숲입구,춘천시,공공데이터포털,2019-11-27
37.851,127.7438,platform,bus_stop,투탑시티,춘천시,공공데이터포털,2019-11-27
37.84985,127.74413,platform,bus_stop,퇴계2우체국,춘천시,공공데이터포털,2019-11-27
37.85983,127.7311,platform,bus_stop,퇴계우성A,춘천시,공공데이터포털,2019-11-27
37.85505,127.74831,platform,bus_stop,로데오거리,춘천시,공공데이터포털,2019-11-27
37.82784,127.72621,platform,bus_stop,증3리,춘천시,공공데이터포털,2019-11-27
37.80909,127.70908,platform,bus_stop,증2리,춘천시,공공데이터포털,2019-11-27
37.7952,127.7126,platform,bus_stop,증리,춘천시,공공데이터포털,2019-11-27
37.7811,127.7154,platform,bus_stop,혈동리,춘천시,공공데이터포털,2019-11-27
37.7758,127.714,platform,bus_stop,혈동리,춘천시,공공데이터포털,2019-11-27
37.75676,127.70779,platform,bus_stop,광판2리,춘천시,공공데이터포털,2019-11-27
37.74988,127.70863,platform,bus_stop,탑골,춘천시,공공데이터포털,2019-11-27
37.74663,127.7185,platform,bus_stop,군자리,춘천시,공공데이터포털,2019-11-27
37.74724,127.71961,platform,bus_stop,군자리,춘천시,공공데이터포털,2019-11-27
37.75409,127.7379,platform,bus_stop,군자3리,춘천시,공공데이터포털,2019-11-27
37.75565,127.74009,platform,bus_stop,군자3리,춘천시,공공데이터포털,2019-11-27
37.75565,127.74044,platform,bus_stop,군자3리,춘천시,공공데이터포털,2019-11-27
37.75847,127.74794,platform,bus_stop,군자3리,춘천시,공공데이터포털,2019-11-27
37.75142,127.82263,platform,bus_stop,부사원고개,춘천시,공공데이터포털,2019-11-27
37.74318,127.8295,platform,bus_stop,조양3리,춘천시,공공데이터포털,2019-11-27
37.75336,127.79383,platform,bus_stop,봉명리조양교,춘천시,공공데이터포털,2019-11-27
37.78754,127.75197,platform,bus_stop,전인고등학교,춘천시,공공데이터포털,2019-11-27
37.78799,127.76004,platform,bus_stop,새술막,춘천시,공공데이터포털,2019-11-27
37.87617,127.77542,platform,bus_stop,대형약국,춘천시,공공데이터포털,2019-11-27
37.8761,127.77513,platform,bus_stop,대형약국,춘천시,공공데이터포털,2019-11-27
37.88724,127.75365,platform,bus_stop,산림조합강원본부,춘천시,공공데이터포털,2019-11-27
37.88699,127.75322,platform,bus_stop,산림조합강원본부,춘천시,공공데이터포털,2019-11-27
37.95911,127.74599,platform,bus_stop,발산3리,춘천시,공공데이터포털,2019-11-27
37.95331,127.7463,platform,bus_stop,금광터,춘천시,공공데이터포털,2019-11-27
37.94753,127.75073,platform,bus_stop,운전면허시험장,춘천시,공공데이터포털,2019-11-27
37.93833,127.80195,platform,bus_stop,소양강댐주차장,춘천시,공공데이터포털,2019-11-27
37.91202,127.73946,platform,bus_stop,폴리텍2캠퍼스,춘천시,공공데이터포털,2019-11-27
37.91746,127.7982,platform,bus_stop,월곡리,춘천시,공공데이터포털,2019-11-27
37.90376,127.78678,platform,bus_stop,감정리,춘천시,공공데이터포털,2019-11-27
37.87707,127.72308,platform,bus_stop,중앙시장환승센터,춘천시,공공데이터포털,2019-11-27
37.87244,127.75268,platform,bus_stop,후평3동우체국,춘천시,공공데이터포털,2019-11-27
37.87243,127.75247,platform,bus_stop,부안주유소,춘천시,공공데이터포털,2019-11-27
37.87733,127.74838,platform,bus_stop,후평중학교,춘천시,공공데이터포털,2019-11-27
37.87554,127.75105,platform,bus_stop,후평주공7단지,춘천시,공공데이터포털,2019-11-27
37.87572,127.75116,platform,bus_stop,후평주공7단지,춘천시,공공데이터포털,2019-11-27
37.87433,127.74887,platform,bus_stop,후평주공6단지,춘천시,공공데이터포털,2019-11-27
37.87422,127.74837,platform,bus_stop,후평주공6단지,춘천시,공공데이터포털,2019-11-27
37.87346,127.74691,platform,bus_stop,후평주공5단지,춘천시,공공데이터포털,2019-11-27
37.89293,127.74863,platform,bus_stop,후평동종점,춘천시,공공데이터포털,2019-11-27
37.89376,127.74874,platform,bus_stop,후평동종점,춘천시,공공데이터포털,2019-11-27
37.87492,127.75763,platform,bus_stop,후평주공4단지후문,춘천시,공공데이터포털,2019-11-27
37.87495,127.75778,platform,bus_stop,후평주공4단지 후문,춘천시,공공데이터포털,2019-11-27
37.87624,127.75696,platform,bus_stop,후평주공4단지,춘천시,공공데이터포털,2019-11-27
37.87624,127.75709,platform,bus_stop,대우A,춘천시,공공데이터포털,2019-11-27
37.87624,127.75371,platform,bus_stop,후평3동행복센터,춘천시,공공데이터포털,2019-11-27
37.87646,127.7548,platform,bus_stop,후평3동행복센터,춘천시,공공데이터포털,2019-11-27
37.7462,127.6221,platform,bus_stop,후동리,춘천시,공공데이터포털,2019-11-27
37.74805,127.62018,platform,bus_stop,후동리,춘천시,공공데이터포털,2019-11-27
37.75749,127.62402,platform,bus_stop,후동리,춘천시,공공데이터포털,2019-11-27
37.7603,127.62681,platform,bus_stop,소주고개,춘천시,공공데이터포털,2019-11-27
37.74793,127.62009,platform,bus_stop,후동리,춘천시,공공데이터포털,2019-11-27
37.74616,127.62196,platform,bus_stop,후동리,춘천시,공공데이터포털,2019-11-27
37.74274,127.63426,platform,bus_stop,후동2리입구,춘천시,공공데이터포털,2019-11-27
37.74264,127.63433,platform,bus_stop,후동2리입구,춘천시,공공데이터포털,2019-11-27
37.74684,127.63075,platform,bus_stop,후동2리,춘천시,공공데이터포털,2019-11-27
37.75097,127.61969,platform,bus_stop,후동,춘천시,공공데이터포털,2019-11-27
37.87541,127.73832,platform,bus_stop,중부지구대,춘천시,공공데이터포털,2019-11-27
37.87579,127.73787,platform,bus_stop,중부지구대,춘천시,공공데이터포털,2019-11-27
37.73018,127.59631,platform,bus_stop,발산1리,춘천시,공공데이터포털,2019-11-27
37.73002,127.59612,platform,bus_stop,황골,춘천시,공공데이터포털,2019-11-27
37.92214,127.72494,platform,bus_stop,화목원,춘천시,공공데이터포털,2019-11-27
37.92221,127.72328,platform,bus_stop,화목원,춘천시,공공데이터포털,2019-11-27
37.74512,127.64028,platform,bus_stop,화광사,춘천시,공공데이터포털,2019-11-27
37.74504,127.64052,platform,bus_stop,화광사,춘천시,공공데이터포털,2019-11-27
37.86541,127.75526,platform,bus_stop,호반체육관,춘천시,공공데이터포털,2019-11-27
37.86557,127.75522,platform,bus_stop,우석중학교,춘천시,공공데이터포털,2019-11-27
37.89005,127.71945,platform,bus_stop,호반A,춘천시,공공데이터포털,2019-11-27
37.89015,127.71969,platform,bus_stop,호반A,춘천시,공공데이터포털,2019-11-27
37.89231,127.72339,platform,bus_stop,호반동행복센터,춘천시,공공데이터포털,2019-11-27
37.88765,127.75091,platform,bus_stop,춘천도매물류마트,춘천시,공공데이터포털,2019-11-27
37.78532,127.68748,platform,bus_stop,혈동2리종점,춘천시,공공데이터포털,2019-11-27
37.78785,127.68504,platform,bus_stop,혈동2리마을회관,춘천시,공공데이터포털,2019-11-27
37.7879,127.68514,platform,bus_stop,혈동2리마을회관,춘천시,공공데이터포털,2019-11-27
37.79391,127.68656,platform,bus_stop,혈동2리,춘천시,공공데이터포털,2019-11-27
37.79427,127.68679,platform,bus_stop,혈동2리,춘천시,공공데이터포털,2019-11-27
37.77153,127.69994,platform,bus_stop,혈동1리종점,춘천시,공공데이터포털,2019-11-27
37.7707,127.7138,platform,bus_stop,혈동1리입구,춘천시,공공데이터포털,2019-11-27
37.7705,127.7139,platform,bus_stop,혈동1리입구,춘천시,공공데이터포털,2019-11-27
37.8889,127.68737,platform,bus_stop,현암리,춘천시,공공데이터포털,2019-11-27
37.885,127.68361,platform,bus_stop,현암리,춘천시,공공데이터포털,2019-11-27
37.87683,127.6775,platform,bus_stop,현암리,춘천시,공공데이터포털,2019-11-27
37.87687,127.67768,platform,bus_stop,현암리,춘천시,공공데이터포털,2019-11-27
37.88496,127.68375,platform,bus_stop,현암리,춘천시,공공데이터포털,2019-11-27
37.88887,127.68755,platform,bus_stop,현암리,춘천시,공공데이터포털,2019-11-27
37.90355,127.73827,platform,bus_stop,강원도재활병원,춘천시,공공데이터포털,2019-11-27
37.88107,127.75184,platform,bus_stop,후평현대3차,춘천시,공공데이터포털,2019-11-27
37.88109,127.75223,platform,bus_stop,후평현대3차,춘천시,공공데이터포털,2019-11-27
37.847,127.76646,platform,bus_stop,신촌2리,춘천시,공공데이터포털,2019-11-27
37.84713,127.7664,platform,bus_stop,신촌2리,춘천시,공공데이터포털,2019-11-27
37.8815,127.73466,platform,bus_stop,향교,춘천시,공공데이터포털,2019-11-27
37.88177,127.73514,platform,bus_stop,향교,춘천시,공공데이터포털,2019-11-27
37.74212,127.67823,platform,bus_stop,행촌리,춘천시,공공데이터포털,2019-11-27
37.74214,127.67871,platform,bus_stop,행촌리,춘천시,공공데이터포털,2019-11-27
37.8707,127.72469,platform,bus_stop,디아펠리즈,춘천시,공공데이터포털,2019-11-27
37.9269,127.75572,platform,bus_stop,율문2리,춘천시,공공데이터포털,2019-11-27
37.92709,127.75584,platform,bus_stop,율문2리,춘천시,공공데이터포털,2019-11-27
37.92929,127.76167,platform,bus_stop,항공대정문,춘천시,공공데이터포털,2019-11-27
37.92947,127.76178,platform,bus_stop,항공대정문,춘천시,공공데이터포털,2019-11-27
37.79398,127.77217,platform,bus_stop,할렐루야기도원,춘천시,공공데이터포털,2019-11-27
37.79465,127.77274,platform,bus_stop,할렐루야기도원,춘천시,공공데이터포털,2019-11-27
37.84698,127.75552,platform,bus_stop,장애인종합복지관,춘천시,공공데이터포털,2019-11-27
37.84742,127.7553,platform,bus_stop,장애인종합복지관,춘천시,공공데이터포털,2019-11-27
37.88316,127.73725,platform,bus_stop,한림대학교,춘천시,공공데이터포털,2019-11-27
37.86925,127.72922,platform,bus_stop,한국토지주택공사,춘천시,공공데이터포털,2019-11-27
37.8835,127.74863,platform,bus_stop,후평환승센터,춘천시,공공데이터포털,2019-11-27
37.88354,127.74892,platform,bus_stop,후평환승센터,춘천시,공공데이터포털,2019-11-27
37.88225,127.72859,platform,bus_stop,한국은행,춘천시,공공데이터포털,2019-11-27
37.9403,127.72778,platform,bus_stop,한계울마을,춘천시,공공데이터포털,2019-11-27
37.94024,127.72757,platform,bus_stop,한계울마을,춘천시,공공데이터포털,2019-11-27
37.83486,127.7603,platform,bus_stop,학곡리종점,춘천시,공공데이터포털,2019-11-27
37.83501,127.76041,platform,bus_stop,학곡리종점,춘천시,공공데이터포털,2019-11-27
37.91395,127.75496,platform,bus_stop,하일종점,춘천시,공공데이터포털,2019-11-27
37.90158,127.75166,platform,bus_stop,하일입구,춘천시,공공데이터포털,2019-11-27
37.90152,127.75162,platform,bus_stop,하일입구,춘천시,공공데이터포털,2019-11-27
37.85607,127.73888,platform,bus_stop,무릉공원,춘천시,공공데이터포털,2019-11-27
37.85607,127.73919,platform,bus_stop,무릉공원,춘천시,공공데이터포털,2019-11-27
37.86456,127.70712,platform,bus_stop,하사관주택,춘천시,공공데이터포털,2019-11-27
37.86503,127.70695,platform,bus_stop,하사관주택,춘천시,공공데이터포털,2019-11-27
37.92992,127.76536,platform,bus_stop,율문3리,춘천시,공공데이터포털,2019-11-27
37.88061,127.74948,platform,bus_stop,포스코더샵A,춘천시,공공데이터포털,2019-11-27
37.8817,127.74675,platform,bus_stop,포스코후문,춘천시,공공데이터포털,2019-11-27
37.88157,127.74696,platform,bus_stop,포스코후문,춘천시,공공데이터포털,2019-11-27
37.88162,127.7485,platform,bus_stop,포스코더샵A,춘천시,공공데이터포털,2019-11-27
37.82162,127.70383,platform,bus_stop,팔미쉼터,춘천시,공공데이터포털,2019-11-27
37.81379,127.69825,platform,bus_stop,팔미3리,춘천시,공공데이터포털,2019-11-27
37.80964,127.69635,platform,bus_stop,팔미3리,춘천시,공공데이터포털,2019-11-27
37.81387,127.69817,platform,bus_stop,팔미리,춘천시,공공데이터포털,2019-11-27
37.82161,127.70436,platform,bus_stop,팔미1리,춘천시,공공데이터포털,2019-11-27
37.85149,127.74443,platform,bus_stop,원예농협남부지점,춘천시,공공데이터포털,2019-11-27
37.85054,127.74413,platform,bus_stop,투탑시티,춘천시,공공데이터포털,2019-11-27
37.85858,127.72502,platform,bus_stop,퇴계현대1차,춘천시,공공데이터포털,2019-11-27
37.85792,127.72643,platform,bus_stop,퇴계현대1차,춘천시,공공데이터포털,2019-11-27
37.85945,127.72313,platform,bus_stop,한진한성,춘천시,공공데이터포털,2019-11-27
37.851,127.734,platform,bus_stop,퇴계한주아파트입구,춘천시,공공데이터포털,2019-11-27
37.8509,127.73544,platform,bus_stop,가족보건원,춘천시,공공데이터포털,2019-11-27
37.84919,127.73898,platform,bus_stop,퇴계한주A,춘천시,공공데이터포털,2019-11-27
37.8512,127.7346,platform,bus_stop,퇴계한주아파트,춘천시,공공데이터포털,2019-11-27
37.84767,127.74083,platform,bus_stop,퇴계주공9차,춘천시,공공데이터포털,2019-11-27
37.84784,127.74092,platform,bus_stop,퇴계주공7단지,춘천시,공공데이터포털,2019-11-27
37.85115,127.74079,platform,bus_stop,퇴계주공6차A,춘천시,공공데이터포털,2019-11-27
37.85142,127.74157,platform,bus_stop,퇴계주공6차,춘천시,공공데이터포털,2019-11-27
37.85122,127.74101,platform,bus_stop,퇴계주공6차,춘천시,공공데이터포털,2019-11-27
37.85436,127.74057,platform,bus_stop,퇴계주공5차A,춘천시,공공데이터포털,2019-11-27
37.85361,127.74545,platform,bus_stop,퇴계주공4차,춘천시,공공데이터포털,2019-11-27
37.85472,127.74608,platform,bus_stop,퇴계주공4차,춘천시,공공데이터포털,2019-11-27
37.85578,127.74472,platform,bus_stop,퇴계주공3.4차,춘천시,공공데이터포털,2019-11-27
37.85567,127.74437,platform,bus_stop,퇴계주공3.4차,춘천시,공공데이터포털,2019-11-27
37.85841,127.7371,platform,bus_stop,퇴계주공2차,춘천시,공공데이터포털,2019-11-27
37.85871,127.73698,platform,bus_stop,퇴계주공1차,춘천시,공공데이터포털,2019-11-27
37.85962,127.72326,platform,bus_stop,퇴계우체국,춘천시,공공데이터포털,2019-11-27
37.85998,127.73021,platform,bus_stop,퇴계우성A,춘천시,공공데이터포털,2019-11-27
37.8593,127.72763,platform,bus_stop,퇴계동입구,춘천시,공공데이터포털,2019-11-27
37.85931,127.72743,platform,bus_stop,남부초교,춘천시,공공데이터포털,2019-11-27
37.8474,127.73264,platform,bus_stop,퇴계농공단지입구,춘천시,공공데이터포털,2019-11-27
37.84712,127.73233,platform,bus_stop,퇴계농공단지,춘천시,공공데이터포털,2019-11-27
37.84907,127.73881,platform,bus_stop,퇴계금호A,춘천시,공공데이터포털,2019-11-27
37.88427,127.74738,platform,bus_stop,토우시장,춘천시,공공데이터포털,2019-11-27
37.88312,127.74767,platform,bus_stop,토우시장,춘천시,공공데이터포털,2019-11-27
37.88759,127.6852,platform,bus_stop,태봉,춘천시,공공데이터포털,2019-11-27
37.9464,127.69972,platform,bus_stop,탑말,춘천시,공공데이터포털,2019-11-27
37.94627,127.69971,platform,bus_stop,탑말,춘천시,공공데이터포털,2019-11-27
37.8805,127.74408,platform,bus_stop,크로바A,춘천시,공공데이터포털,2019-11-27
37.88071,127.74503,platform,bus_stop,크로바A,춘천시,공공데이터포털,2019-11-27
37.83625,127.71367,platform,bus_stop,칠전동고개,춘천시,공공데이터포털,2019-11-27
37.83657,127.71404,platform,bus_stop,칠전동고개,춘천시,공공데이터포털,2019-11-27
37.84246,127.71413,platform,bus_stop,칠전동,춘천시,공공데이터포털,2019-11-27
37.84142,127.71448,platform,bus_stop,칠전동사거리,춘천시,공공데이터포털,2019-11-27
37.84417,127.7118,platform,bus_stop,칠전대우A,춘천시,공공데이터포털,2019-11-27
37.84436,127.71177,platform,bus_stop,칠전대우A,춘천시,공공데이터포털,2019-11-27
37.91615,127.73935,platform,bus_stop,충렬탑입구,춘천시,공공데이터포털,2019-11-27
37.91622,127.73914,platform,bus_stop,충렬탑입구,춘천시,공공데이터포털,2019-11-27
37.94934,127.75413,platform,bus_stop,월드온천,춘천시,공공데이터포털,2019-11-27
37.94951,127.75408,platform,bus_stop,월드온천,춘천시,공공데이터포털,2019-11-27
37.87608,127.72096,platform,bus_stop,춘천초등학교,춘천시,공공데이터포털,2019-11-27
37.87621,127.72084,platform,bus_stop,춘천시보건소,춘천시,공공데이터포털,2019-11-27
37.87404,127.71703,platform,bus_stop,엘타워/미소지움,춘천시,공공데이터포털,2019-11-27
37.87398,127.7181,platform,bus_stop,춘천중학교정문,춘천시,공공데이터포털,2019-11-27
37.87487,127.71718,platform,bus_stop,춘천중학교,춘천시,공공데이터포털,2019-11-27
37.87527,127.71769,platform,bus_stop,춘천중학교,춘천시,공공데이터포털,2019-11-27
37.8401,127.75865,platform,bus_stop,학곡2리,춘천시,공공데이터포털,2019-11-27
37.84021,127.75882,platform,bus_stop,학곡2리,춘천시,공공데이터포털,2019-11-27
37.87507,127.72986,platform,bus_stop,현진에버빌3차,춘천시,공공데이터포털,2019-11-27
37.885,127.7177,platform,bus_stop,춘천역환승센터,춘천시,공공데이터포털,2019-11-27
37.88164,127.73258,platform,bus_stop,춘천시청별관,춘천시,공공데이터포털,2019-11-27
37.88147,127.73294,platform,bus_stop,춘천시청별관,춘천시,공공데이터포털,2019-11-27
37.92758,127.75166,platform,bus_stop,춘천한샘후문,춘천시,공공데이터포털,2019-11-27
37.92827,127.75154,platform,bus_stop,춘천한샘후문,춘천시,공공데이터포털,2019-11-27
37.92539,127.75205,platform,bus_stop,춘천한샘고등학교,춘천시,공공데이터포털,2019-11-27
37.92521,127.7511,platform,bus_stop,춘천한샘고등학교,춘천시,공공데이터포털,2019-11-27
37.86465,127.75281,platform,bus_stop,박물관후문,춘천시,공공데이터포털,2019-11-27
37.86477,127.75269,platform,bus_stop,박물관입구,춘천시,공공데이터포털,2019-11-27
37.86365,127.75129,platform,bus_stop,춘천박물관,춘천시,공공데이터포털,2019-11-27
37.86354,127.75089,platform,bus_stop,박물관앞,춘천시,공공데이터포털,2019-11-27
37.97423,127.66654,platform,bus_stop,춘천댐종점,춘천시,공공데이터포털,2019-11-27
37.97401,127.66642,platform,bus_stop,춘천댐종점,춘천시,공공데이터포털,2019-11-27
37.96806,127.67119,platform,bus_stop,춘천댐,춘천시,공공데이터포털,2019-11-27
37.88365,127.72328,platform,bus_stop,춘천농협,춘천시,공공데이터포털,2019-11-27
37.88446,127.72337,platform,bus_stop,춘천농협,춘천시,공공데이터포털,2019-11-27
37.90775,127.72374,platform,bus_stop,소양고등학교,춘천시,공공데이터포털,2019-11-27
37.90781,127.72351,platform,bus_stop,소양고등학교,춘천시,공공데이터포털,2019-11-27
37.8905,127.74616,platform,bus_stop,기계공고,춘천시,공공데이터포털,2019-11-27
37.89249,127.74868,platform,bus_stop,후평1동,춘천시,공공데이터포털,2019-11-27
37.89111,127.74893,platform,bus_stop,춘천기계공고,춘천시,공공데이터포털,2019-11-27
37.89145,127.74908,platform,bus_stop,기계공고,춘천시,공공데이터포털,2019-11-27
37.93503,127.72541,platform,bus_stop,신동삼거리,춘천시,공공데이터포털,2019-11-27
37.93483,127.72444,platform,bus_stop,신동삼거리,춘천시,공공데이터포털,2019-11-27
37.84889,127.7555,platform,bus_stop,춘천교도소입구,춘천시,공공데이터포털,2019-11-27
37.849,127.75555,platform,bus_stop,춘천교도소입구,춘천시,공공데이터포털,2019-11-27
37.84883,127.75828,platform,bus_stop,춘천교도소,춘천시,공공데이터포털,2019-11-27
37.85823,127.7464,platform,bus_stop,교육대학교,춘천시,공공데이터포털,2019-11-27
37.85718,127.7471,platform,bus_stop,교육대학교,춘천시,공공데이터포털,2019-11-27
37.94462,127.78427,platform,bus_stop,천전1리,춘천시,공공데이터포털,2019-11-27
37.94422,127.78422,platform,bus_stop,천전1리,춘천시,공공데이터포털,2019-11-27
37.86961,127.72427,platform,bus_stop,춘천경찰서,춘천시,공공데이터포털,2019-11-27
38.02421,127.88316,platform,bus_stop,추곡초교,춘천시,공공데이터포털,2019-11-27
38.02428,127.88333,platform,bus_stop,추곡초교,춘천시,공공데이터포털,2019-11-27
38.03586,127.88815,platform,bus_stop,추곡약수터,춘천시,공공데이터포털,2019-11-27
37.74728,127.65345,platform,bus_stop,추곡리2반,춘천시,공공데이터포털,2019-11-27
37.74752,127.6535,platform,bus_stop,추곡리2반,춘천시,공공데이터포털,2019-11-27
38.0274,127.88297,platform,bus_stop,추곡리,춘천시,공공데이터포털,2019-11-27
38.02754,127.88309,platform,bus_stop,추곡리,춘천시,공공데이터포털,2019-11-27
37.74995,127.65293,platform,bus_stop,추곡리,춘천시,공공데이터포털,2019-11-27
37.74964,127.65319,platform,bus_stop,추곡1리,춘천시,공공데이터포털,2019-11-27
37.74478,127.6504,platform,bus_stop,추곡리,춘천시,공공데이터포털,2019-11-27
37.74485,127.65049,platform,bus_stop,추곡3거리,춘천시,공공데이터포털,2019-11-27
38.02006,127.88114,platform,bus_stop,추곡1리1반,춘천시,공공데이터포털,2019-11-27
38.01953,127.88109,platform,bus_stop,추곡1리,춘천시,공공데이터포털,2019-11-27
38.0135,127.88095,platform,bus_stop,추곡1리,춘천시,공공데이터포털,2019-11-27
38.03353,127.87726,platform,bus_stop,추곡,춘천시,공공데이터포털,2019-11-27
37.98161,127.69447,platform,bus_stop,초원낚시터,춘천시,공공데이터포털,2019-11-27
37.98155,127.694,platform,bus_stop,고탄낚시터,춘천시,공공데이터포털,2019-11-27
37.88122,127.71365,platform,bus_stop,청와A,춘천시,공공데이터포털,2019-11-27
37.87338,127.75833,platform,bus_stop,청실A,춘천시,공공데이터포털,2019-11-27
37.87322,127.75856,platform,bus_stop,청실A,춘천시,공공데이터포털,2019-11-27
37.99323,127.88139,platform,bus_stop,청소년야영장,춘천시,공공데이터포털,2019-11-27
37.99337,127.88144,platform,bus_stop,청소년야영장,춘천시,공공데이터포털,2019-11-27
37.92216,127.72023,platform,bus_stop,인형극장,춘천시,공공데이터포털,2019-11-27
37.92206,127.72031,platform,bus_stop,인형극장,춘천시,공공데이터포털,2019-11-27
37.92246,127.72125,platform,bus_stop,청소년수련원,춘천시,공공데이터포털,2019-11-27
37.9225,127.72098,platform,bus_stop,청소년수련원,춘천시,공공데이터포털,2019-11-27
37.87004,127.75432,platform,bus_stop,청구/동아A,춘천시,공공데이터포털,2019-11-27
37.87026,127.75433,platform,bus_stop,동아/청구A,춘천시,공공데이터포털,2019-11-27
37.93015,127.78167,platform,bus_stop,천전삼거리,춘천시,공공데이터포털,2019-11-27
37.92981,127.78535,platform,bus_stop,상천초등학교,춘천시,공공데이터포털,2019-11-27
37.9298,127.78031,platform,bus_stop,천전3리,춘천시,공공데이터포털,2019-11-27
37.92991,127.78027,platform,bus_stop,천전3리,춘천시,공공데이터포털,2019-11-27
37.93044,127.77356,platform,bus_stop,춘천국유림관리소,춘천시,공공데이터포털,2019-11-27
37.93054,127.77392,platform,bus_stop,춘천국유림관리소,춘천시,공공데이터포털,2019-11-27
37.93712,127.77524,platform,bus_stop,천전1리,춘천시,공공데이터포털,2019-11-27
37.93712,127.77538,platform,bus_stop,천전1리,춘천시,공공데이터포털,2019-11-27
37.75704,127.77995,platform,bus_stop,천일주유소,춘천시,공공데이터포털,2019-11-27
37.80833,127.63656,platform,bus_stop,강촌1리회관,춘천시,공공데이터포털,2019-11-27
37.80813,127.63647,platform,bus_stop,창촌중학교,춘천시,공공데이터포털,2019-11-27
37.78336,127.64638,platform,bus_stop,창촌2리마을회관,춘천시,공공데이터포털,2019-11-27
37.78419,127.6466,platform,bus_stop,창촌2리마을회관,춘천시,공공데이터포털,2019-11-27
37.7767,127.62608,platform,bus_stop,창촌3리종점,춘천시,공공데이터포털,2019-11-27
37.77659,127.64404,platform,bus_stop,창촌3리입구,춘천시,공공데이터포털,2019-11-27
37.77647,127.64375,platform,bus_stop,창촌3리입구,춘천시,공공데이터포털,2019-11-27
37.896,127.67269,platform,bus_stop,방동1리,춘천시,공공데이터포털,2019-11-27
37.89701,127.67023,platform,bus_stop,방동1리,춘천시,공공데이터포털,2019-11-27
37.89848,127.66765,platform,bus_stop,방동1리,춘천시,공공데이터포털,2019-11-27
37.89841,127.66762,platform,bus_stop,방동1리,춘천시,공공데이터포털,2019-11-27
37.89697,127.67012,platform,bus_stop,방동1리,춘천시,공공데이터포털,2019-11-27
37.8959,127.67276,platform,bus_stop,방동1리,춘천시,공공데이터포털,2019-11-27
37.89567,127.67526,platform,bus_stop,방동1리,춘천시,공공데이터포털,2019-11-27
37.8028,127.6377,platform,bus_stop,방곡리,춘천시,공공데이터포털,2019-11-27
37.80283,127.63755,platform,bus_stop,방곡리,춘천시,공공데이터포털,2019-11-27
37.79139,127.63587,platform,bus_stop,방곡2리회관,춘천시,공공데이터포털,2019-11-27
37.79127,127.63585,platform,bus_stop,방곡2리회관,춘천시,공공데이터포털,2019-11-27
37.78825,127.62927,platform,bus_stop,방곡2리종점,춘천시,공공데이터포털,2019-11-27
37.79489,127.64248,platform,bus_stop,방곡1리,춘천시,공공데이터포털,2019-11-27
37.79771,127.63958,platform,bus_stop,방곡1리,춘천시,공공데이터포털,2019-11-27
37.80042,127.63871,platform,bus_stop,방곡1리,춘천시,공공데이터포털,2019-11-27
37.80055,127.63856,platform,bus_stop,방곡1리,춘천시,공공데이터포털,2019-11-27
37.79751,127.63981,platform,bus_stop,방곡1리,춘천시,공공데이터포털,2019-11-27
37.79493,127.64222,platform,bus_stop,방곡1리,춘천시,공공데이터포털,2019-11-27
37.73898,127.62421,platform,bus_stop,발산치안센터,춘천시,공공데이터포털,2019-11-27
37.73904,127.62433,platform,bus_stop,발산2리,춘천시,공공데이터포털,2019-11-27
37.96278,127.76653,platform,bus_stop,발산리종점,춘천시,공공데이터포털,2019-11-27
37.9557,127.76118,platform,bus_stop,발산2리,춘천시,공공데이터포털,2019-11-27
37.9576,127.76292,platform,bus_stop,발산2리,춘천시,공공데이터포털,2019-11-27
37.96058,127.76571,platform,bus_stop,발산2리,춘천시,공공데이터포털,2019-11-27
37.96049,127.76571,platform,bus_stop,발산2리,춘천시,공공데이터포털,2019-11-27
37.96167,127.7623,platform,bus_stop,발산2리,춘천시,공공데이터포털,2019-11-27
37.73884,127.63121,platform,bus_stop,발산2리,춘천시,공공데이터포털,2019-11-27
37.73875,127.63129,platform,bus_stop,발산2리,춘천시,공공데이터포털,2019-11-27
37.95991,127.75559,platform,bus_stop,발산1리,춘천시,공공데이터포털,2019-11-27
37.95119,127.74721,platform,bus_stop,발산1리,춘천시,공공데이터포털,2019-11-27
37.73516,127.61089,platform,bus_stop,발산1리,춘천시,공공데이터포털,2019-11-27
37.73504,127.61095,platform,bus_stop,발산1리,춘천시,공공데이터포털,2019-11-27
37.74352,127.62399,platform,bus_stop,발산,춘천시,공공데이터포털,2019-11-27
37.74359,127.62411,platform,bus_stop,발산,춘천시,공공데이터포털,2019-11-27
37.74579,127.71021,platform,bus_stop,광판2리,춘천시,공공데이터포털,2019-11-27
37.74516,127.71003,platform,bus_stop,반이동,춘천시,공공데이터포털,2019-11-27
37.74014,127.57307,platform,bus_stop,가정중학교,춘천시,공공데이터포털,2019-11-27
37.7413,127.57241,platform,bus_stop,가정1리회관앞,춘천시,공공데이터포털,2019-11-27
37.7253,127.5439,platform,bus_stop,박암리,춘천시,공공데이터포털,2019-11-27
37.72373,127.53776,platform,bus_stop,박암리,춘천시,공공데이터포털,2019-11-27
37.72324,127.5387,platform,bus_stop,박암리,춘천시,공공데이터포털,2019-11-27
37.7252,127.544,platform,bus_stop,박암리,춘천시,공공데이터포털,2019-11-27
37.76994,127.70221,platform,bus_stop,밀알재활원,춘천시,공공데이터포털,2019-11-27
37.76988,127.70226,platform,bus_stop,밀알재활원,춘천시,공공데이터포털,2019-11-27
37.87352,127.73406,platform,bus_stop,동부새마을금고,춘천시,공공데이터포털,2019-11-27
37.87333,127.73415,platform,bus_stop,미려골,춘천시,공공데이터포털,2019-11-27
37.88933,127.75169,platform,bus_stop,문화주택,춘천시,공공데이터포털,2019-11-27
37.873,127.7269,platform,bus_stop,문화예술회관,춘천시,공공데이터포털,2019-11-27
37.87294,127.72712,platform,bus_stop,문화예술회관,춘천시,공공데이터포털,2019-11-27
37.77005,127.76382,platform,bus_stop,논골입구,춘천시,공공데이터포털,2019-11-27
37.76754,127.76566,platform,bus_stop,모래재,춘천시,공공데이터포털,2019-11-27
37.89998,127.73468,platform,bus_stop,명진학교,춘천시,공공데이터포털,2019-11-27
37.88325,127.62953,platform,bus_stop,덕두2리종점,춘천시,공공데이터포털,2019-11-27
37.87912,127.72627,platform,bus_stop,명동입구,춘천시,공공데이터포털,2019-11-27
37.85446,127.71029,platform,bus_stop,멸공훈련장,춘천시,공공데이터포털,2019-11-27
37.85453,127.71015,platform,bus_stop,멸공훈련장,춘천시,공공데이터포털,2019-11-27
37.946,127.75178,platform,bus_stop,면허시험장입구,춘천시,공공데이터포털,2019-11-27
37.9455,127.75158,platform,bus_stop,면허시험장입구,춘천시,공공데이터포털,2019-11-27
37.87969,127.76523,platform,bus_stop,만천2리,춘천시,공공데이터포털,2019-11-27
37.87964,127.76572,platform,bus_stop,만천2리,춘천시,공공데이터포털,2019-11-27
37.88526,127.74947,platform,bus_stop,동광오거리,춘천시,공공데이터포털,2019-11-27
37.8847,127.74947,platform,bus_stop,동광오거리,춘천시,공공데이터포털,2019-11-27
37.87603,127.78548,platform,bus_stop,만천리종점,춘천시,공공데이터포털,2019-11-27
37.8817,127.761,platform,bus_stop,동면만천농협,춘천시,공공데이터포털,2019-11-27
37.88192,127.76073,platform,bus_stop,동면만천농협,춘천시,공공데이터포털,2019-11-27
37.875,127.7782,platform,bus_stop,만천3리마을회관,춘천시,공공데이터포털,2019-11-27
37.87508,127.77847,platform,bus_stop,만천3리마을회관,춘천시,공공데이터포털,2019-11-27
37.88269,127.75814,platform,bus_stop,만천초교,춘천시,공공데이터포털,2019-11-27
37.87743,127.77062,platform,bus_stop,만천3리,춘천시,공공데이터포털,2019-11-27
37.87781,127.77045,platform,bus_stop,만천3리,춘천시,공공데이터포털,2019-11-27
37.88264,127.75862,platform,bus_stop,만천초교,춘천시,공공데이터포털,2019-11-27
37.8852,127.75593,platform,bus_stop,양지교,춘천시,공공데이터포털,2019-11-27
37.88547,127.75561,platform,bus_stop,양지교,춘천시,공공데이터포털,2019-11-27
38.00279,127.62754,platform,bus_stop,마평,춘천시,공공데이터포털,2019-11-27
37.86527,127.69218,platform,bus_stop,마삼래,춘천시,공공데이터포털,2019-11-27
37.86569,127.69244,platform,bus_stop,마삼래,춘천시,공공데이터포털,2019-11-27
37.8538,127.71512,platform,bus_stop,가압펌프장,춘천시,공공데이터포털,2019-11-27
37.8551,127.71454,platform,bus_stop,가압펌프장,춘천시,공공데이터포털,2019-11-27
37.89953,127.73082,platform,bus_stop,삼성동부A,춘천시,공공데이터포털,2019-11-27
37.89971,127.73087,platform,bus_stop,롯데인벤스,춘천시,공공데이터포털,2019-11-27
37.85713,127.75938,platform,bus_stop,호반베르디움,춘천시,공공데이터포털,2019-11-27
37.85561,127.75154,platform,bus_stop,거두리부영A,춘천시,공공데이터포털,2019-11-27
37.85424,127.75054,platform,bus_stop,로데오거리,춘천시,공공데이터포털,2019-11-27
37.85032,127.74713,platform,bus_stop,뜨란채A,춘천시,공공데이터포털,2019-11-27
37.82486,127.66078,platform,bus_stop,삼악산,춘천시,공공데이터포털,2019-11-27
37.82491,127.66043,platform,bus_stop,삼악산,춘천시,공공데이터포털,2019-11-27
37.90202,127.72821,platform,bus_stop,두미르A,춘천시,공공데이터포털,2019-11-27
37.90265,127.72739,platform,bus_stop,두미르A,춘천시,공공데이터포털,2019-11-27
37.93018,127.78872,platform,bus_stop,춘천동원학교,춘천시,공공데이터포털,2019-11-27
37.93026,127.78854,platform,bus_stop,춘천동원학교,춘천시,공공데이터포털,2019-11-27
37.75205,127.7915,platform,bus_stop,동산중학교,춘천시,공공데이터포털,2019-11-27
37.75226,127.79126,platform,bus_stop,동산중학교,춘천시,공공데이터포털,2019-11-27
37.73766,127.79605,platform,bus_stop,조양2리,춘천시,공공데이터포털,2019-11-27
37.7376,127.79613,platform,bus_stop,조양2리,춘천시,공공데이터포털,2019-11-27
37.88921,127.74211,platform,bus_stop,동산A,춘천시,공공데이터포털,2019-11-27
37.88913,127.7425,platform,bus_stop,소방서,춘천시,공공데이터포털,2019-11-27
37.75394,127.79589,platform,bus_stop,동산면행복센터,춘천시,공공데이터포털,2019-11-27
37.7541,127.79587,platform,bus_stop,동산면행복센터,춘천시,공공데이터포털,2019-11-27
37.87632,127.73345,platform,bus_stop,동부시장,춘천시,공공데이터포털,2019-11-27
37.87659,127.73428,platform,bus_stop,동부시장,춘천시,공공데이터포털,2019-11-27
37.86179,127.74215,platform,bus_stop,동보A,춘천시,공공데이터포털,2019-11-27
37.88372,127.74108,platform,bus_stop,동보빌리지,춘천시,공공데이터포털,2019-11-27
37.88364,127.74134,platform,bus_stop,동보빌리지,춘천시,공공데이터포털,2019-11-27
37.90403,127.78037,platform,bus_stop,동면치안센터,춘천시,공공데이터포털,2019-11-27
37.90414,127.78038,platform,bus_stop,동면치안센터,춘천시,공공데이터포털,2019-11-27
37.91375,127.78244,platform,bus_stop,동면지내리,춘천시,공공데이터포털,2019-11-27
37.91363,127.78227,platform,bus_stop,동면지내리,춘천시,공공데이터포털,2019-11-27
37.89365,127.7584,platform,bus_stop,노루목저수지,춘천시,공공데이터포털,2019-11-27
37.89373,127.75823,platform,bus_stop,노루묵저수지,춘천시,공공데이터포털,2019-11-27
37.91007,127.78151,platform,bus_stop,동면행정복지센터,춘천시,공공데이터포털,2019-11-27
37.90997,127.78136,platform,bus_stop,동면행정복지센터,춘천시,공공데이터포털,2019-11-27
37.91202,127.78201,platform,bus_stop,동면복지회관,춘천시,공공데이터포털,2019-11-27
37.85041,127.76599,platform,bus_stop,동내초교,춘천시,공공데이터포털,2019-11-27
37.85042,127.76572,platform,bus_stop,동내초교,춘천시,공공데이터포털,2019-11-27
37.848,127.76159,platform,bus_stop,동내면행복센터,춘천시,공공데이터포털,2019-11-27
37.84812,127.76141,platform,bus_stop,동내면행복센터,춘천시,공공데이터포털,2019-11-27
37.88988,127.75171,platform,bus_stop,동광주유소,춘천시,공공데이터포털,2019-11-27
37.89051,127.74485,platform,bus_stop,도민일보,춘천시,공공데이터포털,2019-11-27
37.89022,127.74304,platform,bus_stop,도민일보,춘천시,공공데이터포털,2019-11-27
37.82722,127.67006,platform,bus_stop,덕두원3리,춘천시,공공데이터포털,2019-11-27
37.86006,127.6593,platform,bus_stop,덕두원2리,춘천시,공공데이터포털,2019-11-27
37.86336,127.65741,platform,bus_stop,덕두원2리,춘천시,공공데이터포털,2019-11-27
37.86587,127.65556,platform,bus_stop,덕두원2리,춘천시,공공데이터포털,2019-11-27
37.8687,127.65301,platform,bus_stop,덕두원2리,춘천시,공공데이터포털,2019-11-27
37.86996,127.65026,platform,bus_stop,덕두원2리,춘천시,공공데이터포털,2019-11-27
37.87119,127.64749,platform,bus_stop,덕두원2리,춘천시,공공데이터포털,2019-11-27
37.87263,127.64431,platform,bus_stop,덕두원2리,춘천시,공공데이터포털,2019-11-27
37.87676,127.6394,platform,bus_stop,덕두원2리,춘천시,공공데이터포털,2019-11-27
37.878,127.63767,platform,bus_stop,덕두원2리,춘천시,공공데이터포털,2019-11-27
37.88061,127.63296,platform,bus_stop,덕두원2리,춘천시,공공데이터포털,2019-11-27
37.88041,127.63309,platform,bus_stop,덕두원2리,춘천시,공공데이터포털,2019-11-27
37.87818,127.63765,platform,bus_stop,덕두원2리,춘천시,공공데이터포털,2019-11-27
37.87668,127.63923,platform,bus_stop,덕두원2리,춘천시,공공데이터포털,2019-11-27
37.8726,127.6442,platform,bus_stop,덕두원2리,춘천시,공공데이터포털,2019-11-27
37.87114,127.64734,platform,bus_stop,덕두원2리,춘천시,공공데이터포털,2019-11-27
37.87009,127.65021,platform,bus_stop,덕두원2리,춘천시,공공데이터포털,2019-11-27
37.86856,127.65311,platform,bus_stop,덕두원2리,춘천시,공공데이터포털,2019-11-27
37.86598,127.65555,platform,bus_stop,덕두원2리,춘천시,공공데이터포털,2019-11-27
37.86348,127.65725,platform,bus_stop,덕두원2리,춘천시,공공데이터포털,2019-11-27
37.86017,127.65914,platform,bus_stop,덕두원2리,춘천시,공공데이터포털,2019-11-27
37.85264,127.66902,platform,bus_stop,덕두원1리,춘천시,공공데이터포털,2019-11-27
37.85454,127.66653,platform,bus_stop,덕두원1리,춘천시,공공데이터포털,2019-11-27
37.85376,127.66176,platform,bus_stop,덕두원1리,춘천시,공공데이터포털,2019-11-27
37.85363,127.66185,platform,bus_stop,덕두원1리,춘천시,공공데이터포털,2019-11-27
37.85449,127.66647,platform,bus_stop,덕두원1리,춘천시,공공데이터포털,2019-11-27
37.85259,127.66893,platform,bus_stop,덕두원1리,춘천시,공공데이터포털,2019-11-27
37.84727,127.67146,platform,bus_stop,덕두원1리,춘천시,공공데이터포털,2019-11-27
37.84735,127.67156,platform,bus_stop,덕두원1리,춘천시,공공데이터포털,2019-11-27
37.84511,127.68556,platform,bus_stop,대원사,춘천시,공공데이터포털,2019-11-27
37.84521,127.68555,platform,bus_stop,대원사,춘천시,공공데이터포털,2019-11-27
37.84817,127.74366,platform,bus_stop,대룡중학교,춘천시,공공데이터포털,2019-11-27
37.83218,127.78173,platform,bus_stop,대룡산종점,춘천시,공공데이터포털,2019-11-27
37.83228,127.78171,platform,bus_stop,대룡산종점,춘천시,공공데이터포털,2019-11-27
37.84125,127.76428,platform,bus_stop,사암리,춘천시,공공데이터포털,2019-11-27
37.84089,127.76457,platform,bus_stop,대룡산쉼터,춘천시,공공데이터포털,2019-11-27
37.83839,127.60862,platform,bus_stop,당림초교,춘천시,공공데이터포털,2019-11-27
37.83832,127.60852,platform,bus_stop,당림1리,춘천시,공공데이터포털,2019-11-27
37.85847,127.60177,platform,bus_stop,당림5반종점,춘천시,공공데이터포털,2019-11-27
37.86233,127.61864,platform,bus_stop,당림3반종점,춘천시,공공데이터포털,2019-11-27
37.84129,127.6098,platform,bus_stop,당림3거리,춘천시,공공데이터포털,2019-11-27
37.84116,127.6097,platform,bus_stop,당림3거리,춘천시,공공데이터포털,2019-11-27
37.83079,127.61541,platform,bus_stop,당림2리,춘천시,공공데이터포털,2019-11-27
37.83037,127.61526,platform,bus_stop,당림2리,춘천시,공공데이터포털,2019-11-27
37.84874,127.614,platform,bus_stop,당림1리,춘천시,공공데이터포털,2019-11-27
37.84865,127.61403,platform,bus_stop,당림1리,춘천시,공공데이터포털,2019-11-27
37.83523,127.60273,platform,bus_stop,당림1리,춘천시,공공데이터포털,2019-11-27
37.90056,127.73559,platform,bus_stop,농업기술원,춘천시,공공데이터포털,2019-11-27
37.90923,127.73965,platform,bus_stop,농촌공사춘천지소,춘천시,공공데이터포털,2019-11-27
37.90973,127.73935,platform,bus_stop,농촌공사춘천지소,춘천시,공공데이터포털,2019-11-27
37.90313,127.73772,platform,bus_stop,도재활병원삼거리,춘천시,공공데이터포털,2019-11-27
37.77692,127.76481,platform,bus_stop,논골입구,춘천시,공공데이터포털,2019-11-27
37.77687,127.76462,platform,bus_stop,논골입구,춘천시,공공데이터포털,2019-11-27
37.86393,127.731,platform,bus_stop,국민연금공단,춘천시,공공데이터포털,2019-11-27
37.86385,127.73122,platform,bus_stop,국민연금공단,춘천시,공공데이터포털,2019-11-27
37.86041,127.72187,platform,bus_stop,남춘천초교,춘천시,공공데이터포털,2019-11-27
37.86059,127.72139,platform,bus_stop,남춘천중학교,춘천시,공공데이터포털,2019-11-27
37.8623,127.7295,platform,bus_stop,(구)남춘천역,춘천시,공공데이터포털,2019-11-27
37.8619,127.7295,platform,bus_stop,(구)남춘천역,춘천시,공공데이터포털,2019-11-27
37.79149,127.64606,platform,bus_stop,남산면행복센터,춘천시,공공데이터포털,2019-11-27
37.79138,127.64599,platform,bus_stop,남산면행복센터,춘천시,공공데이터포털,2019-11-27
37.87063,127.726,platform,bus_stop,남부시장,춘천시,공공데이터포털,2019-11-27
37.87011,127.72748,platform,bus_stop,남부시장,춘천시,공공데이터포털,2019-11-27
37.73167,127.6011,platform,bus_stop,남면행정복지센터,춘천시,공공데이터포털,2019-11-27
37.73124,127.60058,platform,bus_stop,발산1리,춘천시,공공데이터포털,2019-11-27
37.81936,127.71677,platform,bus_stop,김유정문학촌,춘천시,공공데이터포털,2019-11-27
37.81942,127.7167,platform,bus_stop,김유정문학촌,춘천시,공공데이터포털,2019-11-27
37.89559,127.68604,platform,bus_stop,금산3리,춘천시,공공데이터포털,2019-11-27
37.8955,127.68621,platform,bus_stop,금산3리,춘천시,공공데이터포털,2019-11-27
37.90197,127.69688,platform,bus_stop,금산2리,춘천시,공공데이터포털,2019-11-27
37.90201,127.69716,platform,bus_stop,금산2리,춘천시,공공데이터포털,2019-11-27
37.89627,127.69073,platform,bus_stop,금산3리,춘천시,공공데이터포털,2019-11-27
37.89604,127.6906,platform,bus_stop,강원정보문화진흥원,춘천시,공공데이터포털,2019-11-27
37.91126,127.70376,platform,bus_stop,과수원마을입구,춘천시,공공데이터포털,2019-11-27
37.81467,127.71089,platform,bus_stop,금병초교,춘천시,공공데이터포털,2019-11-27
37.88816,127.72462,platform,bus_stop,근화초교,춘천시,공공데이터포털,2019-11-27
37.8833,127.71447,platform,bus_stop,춘천역육교앞,춘천시,공공데이터포털,2019-11-27
37.87522,127.71487,platform,bus_stop,근화사거리,춘천시,공공데이터포털,2019-11-27
37.88146,127.71345,platform,bus_stop,청와A,춘천시,공공데이터포털,2019-11-27
37.86683,127.7563,platform,bus_stop,그랜드A,춘천시,공공데이터포털,2019-11-27
37.75663,127.74291,platform,bus_stop,군자공원묘지,춘천시,공공데이터포털,2019-11-27
37.75206,127.73297,platform,bus_stop,군자3리,춘천시,공공데이터포털,2019-11-27
37.75196,127.73296,platform,bus_stop,군자3리,춘천시,공공데이터포털,2019-11-27
37.75439,127.73849,platform,bus_stop,군자3리,춘천시,공공데이터포털,2019-11-27
37.7565,127.74292,platform,bus_stop,군자공원묘지,춘천시,공공데이터포털,2019-11-27
37.74859,127.72208,platform,bus_stop,군자1리,춘천시,공공데이터포털,2019-11-27
37.74853,127.72219,platform,bus_stop,군자1리,춘천시,공공데이터포털,2019-11-27
37.77074,127.76431,platform,bus_stop,국립춘천병원,춘천시,공공데이터포털,2019-11-27
37.77084,127.76413,platform,bus_stop,국립춘천병원,춘천시,공공데이터포털,2019-11-27
37.79722,127.61643,platform,bus_stop,구곡폭포종점,춘천시,공공데이터포털,2019-11-27
37.81012,127.63638,platform,bus_stop,구곡폭포입구,춘천시,공공데이터포털,2019-11-27
37.80991,127.63626,platform,bus_stop,구곡폭포입구,춘천시,공공데이터포털,2019-11-27
37.8778,127.73812,platform,bus_stop,교동초교입구,춘천시,공공데이터포털,2019-11-27
37.87737,127.73766,platform,bus_stop,교동초교입구,춘천시,공공데이터포털,2019-11-27
37.73037,127.70113,platform,bus_stop,광판초교,춘천시,공공데이터포털,2019-11-27
37.73011,127.70079,platform,bus_stop,광판초교,춘천시,공공데이터포털,2019-11-27
37.72606,127.69867,platform,bus_stop,광판중학교입구,춘천시,공공데이터포털,2019-11-27
37.72607,127.69877,platform,bus_stop,광판중학교입구,춘천시,공공데이터포털,2019-11-27
37.72263,127.69957,platform,bus_stop,광판중학교,춘천시,공공데이터포털,2019-11-27
37.7226,127.69945,platform,bus_stop,광판중학교,춘천시,공공데이터포털,2019-11-27
37.74434,127.71288,platform,bus_stop,광판2리,춘천시,공공데이터포털,2019-11-27
37.74294,127.71022,platform,bus_stop,광판2리,춘천시,공공데이터포털,2019-11-27
37.73997,127.70906,platform,bus_stop,광판2리,춘천시,공공데이터포털,2019-11-27
37.74427,127.71305,platform,bus_stop,광판2리,춘천시,공공데이터포털,2019-11-27
37.74003,127.70895,platform,bus_stop,광판2리,춘천시,공공데이터포털,2019-11-27
37.73276,127.70654,platform,bus_stop,광판1리,춘천시,공공데이터포털,2019-11-27
37.73299,127.70678,platform,bus_stop,광판,춘천시,공공데이터포털,2019-11-27
38.01469,127.62701,platform,bus_stop,신포리,춘천시,공공데이터포털,2019-11-27
37.72331,127.51239,platform,bus_stop,관천리종점,춘천시,공공데이터포털,2019-11-27
37.72944,127.52201,platform,bus_stop,관천리,춘천시,공공데이터포털,2019-11-27
37.72932,127.5221,platform,bus_stop,관천리,춘천시,공공데이터포털,2019-11-27
37.87404,127.74135,platform,bus_stop,춘천청소년수련관,춘천시,공공데이터포털,2019-11-27
37.87437,127.74098,platform,bus_stop,춘천청소년수련관,춘천시,공공데이터포털,2019-11-27
37.8583,127.734,platform,bus_stop,과선교,춘천시,공공데이터포털,2019-11-27
37.8569,127.7362,platform,bus_stop,과선교,춘천시,공공데이터포털,2019-11-27
37.8574,127.7351,platform,bus_stop,과선교,춘천시,공공데이터포털,2019-11-27
37.8583,127.7341,platform,bus_stop,과선교,춘천시,공공데이터포털,2019-11-27
37.87421,127.71474,platform,bus_stop,공지천사거리,춘천시,공공데이터포털,2019-11-27
37.87431,127.7146,platform,bus_stop,공지사거리,춘천시,공공데이터포털,2019-11-27
37.88508,127.74676,platform,bus_stop,신성교회,춘천시,공공데이터포털,2019-11-27
37.88621,127.74578,platform,bus_stop,농협후석로지점,춘천시,공공데이터포털,2019-11-27
37.85901,127.85333,platform,bus_stop,곡골,춘천시,공공데이터포털,2019-11-27
37.85901,127.8531,platform,bus_stop,곡골,춘천시,공공데이터포털,2019-11-27
37.96446,127.67705,platform,bus_stop,고탄입구,춘천시,공공데이터포털,2019-11-27
37.96437,127.67634,platform,bus_stop,고탄입구,춘천시,공공데이터포털,2019-11-27
37.98815,127.70443,platform,bus_stop,구고탄농협,춘천시,공공데이터포털,2019-11-27
37.9912,127.7206,platform,bus_stop,고탄,춘천시,공공데이터포털,2019-11-27
37.99096,127.7202,platform,bus_stop,고탄,춘천시,공공데이터포털,2019-11-27
37.98817,127.70512,platform,bus_stop,고탄,춘천시,공공데이터포털,2019-11-27
37.84043,127.73428,platform,bus_stop,고창말,춘천시,공공데이터포털,2019-11-27
37.84044,127.73442,platform,bus_stop,고창말,춘천시,공공데이터포털,2019-11-27
37.84553,127.78867,platform,bus_stop,고은리종점,춘천시,공공데이터포털,2019-11-27
37.84982,127.77281,platform,bus_stop,고은리입구,춘천시,공공데이터포털,2019-11-27
37.84905,127.7745,platform,bus_stop,고은리입구,춘천시,공공데이터포털,2019-11-27
37.84579,127.78508,platform,bus_stop,고은리,춘천시,공공데이터포털,2019-11-27
37.84585,127.78513,platform,bus_stop,고은리,춘천시,공공데이터포털,2019-11-27
37.84856,127.77766,platform,bus_stop,고은2리,춘천시,공공데이터포털,2019-11-27
37.84863,127.77768,platform,bus_stop,고은2리,춘천시,공공데이터포털,2019-11-27
37.8466,127.78208,platform,bus_stop,고은1리,춘천시,공공데이터포털,2019-11-27
37.84667,127.78205,platform,bus_stop,고은1리,춘천시,공공데이터포털,2019-11-27
37.99267,127.72459,platform,bus_stop,고성2리선돌입구,춘천시,공공데이터포털,2019-11-27
37.99944,127.73653,platform,bus_stop,고성2리,춘천시,공공데이터포털,2019-11-27
37.99471,127.73516,platform,bus_stop,고성2리용화산입구,춘천시,공공데이터포털,2019-11-27
37.99216,127.73335,platform,bus_stop,고성2리매산교앞,춘천시,공공데이터포털,2019-11-27
37.98897,127.71325,platform,bus_stop,고탄리(성탄교앞),춘천시,공공데이터포털,2019-11-27
37.83593,127.58463,platform,bus_stop,안보1리,춘천시,공공데이터포털,2019-11-27
37.83576,127.58439,platform,bus_stop,안보1리,춘천시,공공데이터포털,2019-11-27
37.84269,127.55039,platform,bus_stop,경강역,춘천시,공공데이터포털,2019-11-27
37.84259,127.55039,platform,bus_stop,경강역,춘천시,공공데이터포털,2019-11-27
37.85597,127.75209,platform,bus_stop,거두리부영A,춘천시,공공데이터포털,2019-11-27
37.85614,127.75486,platform,bus_stop,성우오스타A,춘천시,공공데이터포털,2019-11-27
37.8613,127.76251,platform,bus_stop,거두1리마을회관,춘천시,공공데이터포털,2019-11-27
37.8612,127.76257,platform,bus_stop,거두1리마을회관,춘천시,공공데이터포털,2019-11-27
37.86109,127.78736,platform,bus_stop,거두2리마을회관,춘천시,공공데이터포털,2019-11-27
37.8604,127.78333,platform,bus_stop,거두2리,춘천시,공공데이터포털,2019-11-27
37.86041,127.77795,platform,bus_stop,거두2리,춘천시,공공데이터포털,2019-11-27
37.86028,127.77811,platform,bus_stop,거두2리,춘천시,공공데이터포털,2019-11-27
37.86037,127.78344,platform,bus_stop,거두2리,춘천시,공공데이터포털,2019-11-27
37.86198,127.76712,platform,bus_stop,거두1리,춘천시,공공데이터포털,2019-11-27
37.86204,127.76727,platform,bus_stop,거두1리,춘천시,공공데이터포털,2019-11-27
37.83781,127.57602,platform,bus_stop,탑동마을,춘천시,공공데이터포털,2019-11-27
37.81838,127.63423,platform,bus_stop,강촌입구,춘천시,공공데이터포털,2019-11-27
37.8186,127.6343,platform,bus_stop,강촌입구,춘천시,공공데이터포털,2019-11-27
37.82031,127.6308,platform,bus_stop,강촌입구,춘천시,공공데이터포털,2019-11-27
37.81361,127.63361,platform,bus_stop,강촌유원지,춘천시,공공데이터포털,2019-11-27
37.81345,127.6336,platform,bus_stop,강촌유원지,춘천시,공공데이터포털,2019-11-27
37.8156,127.6327,platform,bus_stop,(구)강촌역,춘천시,공공데이터포털,2019-11-27
37.8154,127.6326,platform,bus_stop,(구)강촌역,춘천시,공공데이터포털,2019-11-27
37.8066,127.63165,platform,bus_stop,강촌리,춘천시,공공데이터포털,2019-11-27
37.79905,127.6188,platform,bus_stop,강촌리,춘천시,공공데이터포털,2019-11-27
37.80284,127.62137,platform,bus_stop,강촌리,춘천시,공공데이터포털,2019-11-27
37.80666,127.63184,platform,bus_stop,강촌리,춘천시,공공데이터포털,2019-11-27
37.82571,127.62263,platform,bus_stop,강촌검문소,춘천시,공공데이터포털,2019-11-27
37.82565,127.6222,platform,bus_stop,강촌검문소,춘천시,공공데이터포털,2019-11-27
37.80521,127.62947,platform,bus_stop,강촌1리4반,춘천시,공공데이터포털,2019-11-27
37.80516,127.62958,platform,bus_stop,강촌1리4반,춘천시,공공데이터포털,2019-11-27
37.91229,127.73925,platform,bus_stop,폴리텍2캠퍼스,춘천시,공공데이터포털,2019-11-27
37.85951,127.76004,platform,bus_stop,거두1리,춘천시,공공데이터포털,2019-11-27
37.85953,127.75984,platform,bus_stop,거두1리,춘천시,공공데이터포털,2019-11-27
37.88255,127.72851,platform,bus_stop,강원일보,춘천시,공공데이터포털,2019-11-27
37.87276,127.74417,platform,bus_stop,강원대후문,춘천시,공공데이터포털,2019-11-27
37.87289,127.74425,platform,bus_stop,강원대후문,춘천시,공공데이터포털,2019-11-27
37.87476,127.74313,platform,bus_stop,강원대학병원,춘천시,공공데이터포털,2019-11-27
37.87471,127.74292,platform,bus_stop,강원대학병원,춘천시,공공데이터포털,2019-11-27
37.86416,127.73627,platform,bus_stop,춘천사회혁신센터,춘천시,공공데이터포털,2019-11-27
37.86554,127.73507,platform,bus_stop,병무청앞,춘천시,공공데이터포털,2019-11-27
37.89171,127.75348,platform,bus_stop,동면농협장학지점,춘천시,공공데이터포털,2019-11-27
37.89177,127.75317,platform,bus_stop,동면농협장학지점,춘천시,공공데이터포털,2019-11-27
37.89509,127.75584,platform,bus_stop,강원중학교,춘천시,공공데이터포털,2019-11-27
37.8951,127.75593,platform,bus_stop,강원고교,춘천시,공공데이터포털,2019-11-27
37.90538,127.70055,platform,bus_stop,애니고등학교,춘천시,공공데이터포털,2019-11-27
37.90526,127.70064,platform,bus_stop,애니고등학교,춘천시,공공데이터포털,2019-11-27
37.86586,127.72006,platform,bus_stop,춘천우체국,춘천시,공공데이터포털,2019-11-27
37.90126,127.79139,platform,bus_stop,감정2리마을회관,춘천시,공공데이터포털,2019-11-27
37.90167,127.80645,platform,bus_stop,감정2리3반,춘천시,공공데이터포털,2019-11-27
37.90233,127.79235,platform,bus_stop,감정2리,춘천시,공공데이터포털,2019-11-27
37.90243,127.79245,platform,bus_stop,감정2리,춘천시,공공데이터포털,2019-11-27
37.89637,127.78992,platform,bus_stop,감정1리마을회관,춘천시,공공데이터포털,2019-11-27
37.7373,127.5748,platform,bus_stop,가정중학교,춘천시,공공데이터포털,2019-11-27
37.73722,127.57466,platform,bus_stop,가정진료소,춘천시,공공데이터포털,2019-11-27
37.76332,127.57733,platform,bus_stop,가정리종점,춘천시,공공데이터포털,2019-11-27
37.76066,127.5676,platform,bus_stop,가정3리,춘천시,공공데이터포털,2019-11-27
37.76075,127.56749,platform,bus_stop,가정3리,춘천시,공공데이터포털,2019-11-27
37.74812,127.57312,platform,bus_stop,가정2리,춘천시,공공데이터포털,2019-11-27
37.75332,127.57185,platform,bus_stop,가정2리,춘천시,공공데이터포털,2019-11-27
37.75324,127.57176,platform,bus_stop,가정2리,춘천시,공공데이터포털,2019-11-27
37.748,127.5732,platform,bus_stop,가정2리,춘천시,공공데이터포털,2019-11-27
37.7319,127.57926,platform,bus_stop,가정1리,춘천시,공공데이터포털,2019-11-27
37.73177,127.57901,platform,bus_stop,가정1리,춘천시,공공데이터포털,2019-11-27
37.7368,127.61976,platform,bus_stop,가재골,춘천시,공공데이터포털,2019-11-27
37.73675,127.61987,platform,bus_stop,가재골,춘천시,공공데이터포털,2019-11-27
37.87559,127.73537,platform,bus_stop,팔호광장,춘천시,공공데이터포털,2019-11-27
37.87525,127.73498,platform,bus_stop,팔호광장,춘천시,공공데이터포털,2019-11-27
37.85241,127.71502,platform,bus_stop,88공원,춘천시,공공데이터포털,2019-11-27
37.94124,127.71221,platform,bus_stop,(구)102보충대,춘천시,공공데이터포털,2019-11-27
37.94078,127.7124,platform,bus_stop,(구)102보충대,춘천시,공공데이터포털,2019-11-27
37.87927,127.75044,platform,bus_stop,신한은행후평동지점,춘천시,공공데이터포털,2019-11-27
37.87954,127.75001,platform,bus_stop,충인교회,춘천시,공공데이터포털,2019-11-27
37.87824,127.73954,platform,bus_stop,(구)보훈청,춘천시,공공데이터포털,2019-11-27
37.77616,127.63149,platform,bus_stop,창촌3리약수터,춘천시,공공데이터포털,2019-11-27
37.77609,127.6314,platform,bus_stop,창촌3리약수터,춘천시,공공데이터포털,2019-11-27
37.7715,127.64103,platform,bus_stop,창촌3리,춘천시,공공데이터포털,2019-11-27
37.77154,127.64081,platform,bus_stop,창촌3리,춘천시,공공데이터포털,2019-11-27
37.78727,127.6482,platform,bus_stop,창촌3거리,춘천시,공공데이터포털,2019-11-27
37.78712,127.64813,platform,bus_stop,창촌3거리,춘천시,공공데이터포털,2019-11-27
37.78957,127.64702,platform,bus_stop,창촌1리,춘천시,공공데이터포털,2019-11-27
37.78945,127.64689,platform,bus_stop,창촌1리,춘천시,공공데이터포털,2019-11-27
37.86895,127.75254,platform,bus_stop,청구/진흥A,춘천시,공공데이터포털,2019-11-27
37.8691,127.75274,platform,bus_stop,청구/진흥A,춘천시,공공데이터포털,2019-11-27
38.04482,127.64553,platform,bus_stop,현지사,춘천시,공공데이터포털,2019-11-27
38.0452,127.64509,platform,bus_stop,현지사,춘천시,공공데이터포털,2019-11-27
38.03368,127.64075,platform,bus_stop,지촌3리,춘천시,공공데이터포털,2019-11-27
38.03365,127.64059,platform,bus_stop,지촌3리,춘천시,공공데이터포털,2019-11-27
38.05061,127.64283,platform,bus_stop,지촌2리,춘천시,공공데이터포털,2019-11-27
38.05049,127.64272,platform,bus_stop,지촌2리,춘천시,공공데이터포털,2019-11-27
37.87721,127.75193,platform,bus_stop,우미린후문,춘천시,공공데이터포털,2019-11-27
37.87803,127.7511,platform,bus_stop,한국국토정보공사,춘천시,공공데이터포털,2019-11-27
37.98085,127.60766,platform,bus_stop,지암초교,춘천시,공공데이터포털,2019-11-27
37.98079,127.60775,platform,bus_stop,지암초교,춘천시,공공데이터포털,2019-11-27
37.98174,127.609,platform,bus_stop,지암산천마을,춘천시,공공데이터포털,2019-11-27
37.98194,127.60916,platform,bus_stop,지암산천마을,춘천시,공공데이터포털,2019-11-27
37.97533,127.59526,platform,bus_stop,지암리종점,춘천시,공공데이터포털,2019-11-27
37.97935,127.62237,platform,bus_stop,지암리,춘천시,공공데이터포털,2019-11-27
37.97705,127.63584,platform,bus_stop,지암리,춘천시,공공데이터포털,2019-11-27
37.97718,127.63574,platform,bus_stop,지암리,춘천시,공공데이터포털,2019-11-27
37.97928,127.6222,platform,bus_stop,지암리,춘천시,공공데이터포털,2019-11-27
37.95017,127.7308,platform,bus_stop,지내리,춘천시,공공데이터포털,2019-11-27
37.9501,127.73064,platform,bus_stop,지내리,춘천시,공공데이터포털,2019-11-27
37.94821,127.7308,platform,bus_stop,지내3리,춘천시,공공데이터포털,2019-11-27
37.94822,127.73063,platform,bus_stop,지내3리,춘천시,공공데이터포털,2019-11-27
37.9598,127.72107,platform,bus_stop,지내2리마을회관,춘천시,공공데이터포털,2019-11-27
37.95769,127.72318,platform,bus_stop,지내2리,춘천시,공공데이터포털,2019-11-27
37.9172,127.78467,platform,bus_stop,지내2리,춘천시,공공데이터포털,2019-11-27
37.91725,127.78461,platform,bus_stop,지내2리,춘천시,공공데이터포털,2019-11-27
37.9671,127.73283,platform,bus_stop,지내1리종점,춘천시,공공데이터포털,2019-11-27
37.96167,127.73038,platform,bus_stop,지내1리마을회관,춘천시,공공데이터포털,2019-11-27
37.96199,127.73034,platform,bus_stop,지내1리마을회관,춘천시,공공데이터포털,2019-11-27
37.95776,127.73072,platform,bus_stop,지내보건소,춘천시,공공데이터포털,2019-11-27
37.95788,127.73036,platform,bus_stop,지내보건소,춘천시,공공데이터포털,2019-11-27
37.91172,127.78176,platform,bus_stop,지내1리,춘천시,공공데이터포털,2019-11-27
37.82799,127.72608,platform,bus_stop,증3리,춘천시,공공데이터포털,2019-11-27
37.82637,127.72411,platform,bus_stop,증3리,춘천시,공공데이터포털,2019-11-27
37.82607,127.72408,platform,bus_stop,증3리,춘천시,공공데이터포털,2019-11-27
37.831,127.72726,platform,bus_stop,증3리,춘천시,공공데이터포털,2019-11-27
37.81127,127.70964,platform,bus_stop,증2리,춘천시,공공데이터포털,2019-11-27
37.80756,127.70987,platform,bus_stop,증2리,춘천시,공공데이터포털,2019-11-27
37.8053,127.71193,platform,bus_stop,증2리,춘천시,공공데이터포털,2019-11-27
37.8026,127.70994,platform,bus_stop,증2리,춘천시,공공데이터포털,2019-11-27
37.80254,127.71,platform,bus_stop,증2리,춘천시,공공데이터포털,2019-11-27
37.80301,127.7115,platform,bus_stop,증2리,춘천시,공공데이터포털,2019-11-27
37.80539,127.71204,platform,bus_stop,증2리,춘천시,공공데이터포털,2019-11-27
37.80759,127.70999,platform,bus_stop,증2리,춘천시,공공데이터포털,2019-11-27
37.81137,127.70976,platform,bus_stop,증2리,춘천시,공공데이터포털,2019-11-27
37.81427,127.70917,platform,bus_stop,증1리,춘천시,공공데이터포털,2019-11-27
37.85456,127.73726,platform,bus_stop,중앙하이츠1차,춘천시,공공데이터포털,2019-11-27
37.8558,127.735,platform,bus_stop,중앙하이츠,춘천시,공공데이터포털,2019-11-27
37.8559,127.735,platform,bus_stop,중앙하이츠,춘천시,공공데이터포털,2019-11-27
37.85445,127.73673,platform,bus_stop,중앙하이츠1차,춘천시,공공데이터포털,2019-11-27
37.87749,127.7242,platform,bus_stop,중앙시장환승센터,춘천시,공공데이터포털,2019-11-27
37.87835,127.72499,platform,bus_stop,중앙시장/중앙초교,춘천시,공공데이터포털,2019-11-27
37.8785,127.72548,platform,bus_stop,중앙시장,춘천시,공공데이터포털,2019-11-27
37.87193,127.69696,platform,bus_stop,중도선착장,춘천시,공공데이터포털,2019-11-27
37.87178,127.69724,platform,bus_stop,중도선착장,춘천시,공공데이터포털,2019-11-27
37.8881,127.7172,platform,bus_stop,중도배터,춘천시,공공데이터포털,2019-11-27
37.87749,127.74849,platform,bus_stop,일성트루엘A,춘천시,공공데이터포털,2019-11-27
37.86824,127.7228,platform,bus_stop,KBS방송국,춘천시,공공데이터포털,2019-11-27
37.86765,127.72272,platform,bus_stop,KBS방송국,춘천시,공공데이터포털,2019-11-27
37.75984,127.77329,platform,bus_stop,조양4리,춘천시,공공데이터포털,2019-11-27
37.75584,127.78372,platform,bus_stop,조양4리,춘천시,공공데이터포털,2019-11-27
37.75576,127.78467,platform,bus_stop,조양4리,춘천시,공공데이터포털,2019-11-27
37.75766,127.77867,platform,bus_stop,신세계주유소,춘천시,공공데이터포털,2019-11-27
37.74393,127.83153,platform,bus_stop,조양3리,춘천시,공공데이터포털,2019-11-27
37.75602,127.81144,platform,bus_stop,조양1리,춘천시,공공데이터포털,2019-11-27
37.87307,127.71386,platform,bus_stop,조각공원,춘천시,공공데이터포털,2019-11-27
37.83387,127.7293,platform,bus_stop,정족2리입구,춘천시,공공데이터포털,2019-11-27
37.83375,127.72904,platform,bus_stop,정족2리입구,춘천시,공공데이터포털,2019-11-27
37.83393,127.72937,platform,bus_stop,정족2리입구,춘천시,공공데이터포털,2019-11-27
37.8337,127.72879,platform,bus_stop,정족2리입구,춘천시,공공데이터포털,2019-11-27
37.83161,127.73444,platform,bus_stop,정족2리,춘천시,공공데이터포털,2019-11-27
37.83153,127.73447,platform,bus_stop,정족2리,춘천시,공공데이터포털,2019-11-27
37.84281,127.7315,platform,bus_stop,정족1리입구,춘천시,공공데이터포털,2019-11-27
37.8429,127.7314,platform,bus_stop,정족1리입구,춘천시,공공데이터포털,2019-11-27
37.83221,127.67396,platform,bus_stop,사천왕사,춘천시,공공데이터포털,2019-11-27
37.83233,127.67384,platform,bus_stop,사천왕사,춘천시,공공데이터포털,2019-11-27
37.8889,127.74927,platform,bus_stop,정부합동청사,춘천시,공공데이터포털,2019-11-27
37.88843,127.74957,platform,bus_stop,정부합동청사,춘천시,공공데이터포털,2019-11-27
37.86151,127.70706,platform,bus_stop,정법사,춘천시,공공데이터포털,2019-11-27
37.86142,127.70694,platform,bus_stop,정법사,춘천시,공공데이터포털,2019-11-27
37.78923,127.73145,platform,bus_stop,재취골,춘천시,공공데이터포털,2019-11-27
37.77614,127.63417,platform,bus_stop,기와집골,춘천시,공공데이터포털,2019-11-27
37.77607,127.63417,platform,bus_stop,기와집골,춘천시,공공데이터포털,2019-11-27
37.89842,127.76813,platform,bus_stop,장학1리,춘천시,공공데이터포털,2019-11-27
37.89851,127.76799,platform,bus_stop,장학1리,춘천시,공공데이터포털,2019-11-27
37.88563,127.71608,platform,bus_stop,춘천역육교앞,춘천시,공공데이터포털,2019-11-27
37.85834,127.7076,platform,bus_stop,호반요양병원,춘천시,공공데이터포털,2019-11-27
37.85767,127.70753,platform,bus_stop,호반요양병원,춘천시,공공데이터포털,2019-11-27
37.88109,127.72659,platform,bus_stop,인성병원,춘천시,공공데이터포털,2019-11-27
37.88108,127.72618,platform,bus_stop,소양로우체국,춘천시,공공데이터포털,2019-11-27
37.98567,127.65946,platform,bus_stop,인람종점,춘천시,공공데이터포털,2019-11-27
37.99086,127.65958,platform,bus_stop,인람리,춘천시,공공데이터포털,2019-11-27
37.85032,127.66999,platform,bus_stop,의암치안센터,춘천시,공공데이터포털,2019-11-27
37.85037,127.67014,platform,bus_stop,의암치안센터,춘천시,공공데이터포털,2019-11-27
37.84544,127.69323,platform,bus_stop,송암스포츠타운입구,춘천시,공공데이터포털,2019-11-27
37.84577,127.69232,platform,bus_stop,송암스포츠타운입구,춘천시,공공데이터포털,2019-11-27
37.83186,127.67943,platform,bus_stop,의암리본마을,춘천시,공공데이터포털,2019-11-27
37.83181,127.67937,platform,bus_stop,의암리본마을,춘천시,공공데이터포털,2019-11-27
37.74352,127.57221,platform,bus_stop,의암류인석유적지,춘천시,공공데이터포털,2019-11-27
37.74341,127.5721,platform,bus_stop,의암류인석유적지,춘천시,공공데이터포털,2019-11-27
37.83792,127.67719,platform,bus_stop,의암댐,춘천시,공공데이터포털,2019-11-27
37.83776,127.6771,platform,bus_stop,의암댐,춘천시,공공데이터포털,2019-11-27
37.82721,127.6696,platform,bus_stop,의암교차로,춘천시,공공데이터포털,2019-11-27
37.82685,127.68265,platform,bus_stop,의암,춘천시,공공데이터포털,2019-11-27
37.8267,127.68273,platform,bus_stop,의암,춘천시,공공데이터포털,2019-11-27
37.86153,127.72053,platform,bus_stop,열린공원,춘천시,공공데이터포털,2019-11-27
37.86195,127.71969,platform,bus_stop,은행나무공원,춘천시,공공데이터포털,2019-11-27
37.93048,127.7514,platform,bus_stop,강원테크노파크,춘천시,공공데이터포털,2019-11-27
37.92984,127.76643,platform,bus_stop,율문3리,춘천시,공공데이터포털,2019-11-27
37.93053,127.75169,platform,bus_stop,강원테크노파크,춘천시,공공데이터포털,2019-11-27
37.92571,127.74383,platform,bus_stop,율문1리,춘천시,공공데이터포털,2019-11-27
37.92584,127.74357,platform,bus_stop,율문1리,춘천시,공공데이터포털,2019-11-27
37.93033,127.77003,platform,bus_stop,천전2리,춘천시,공공데이터포털,2019-11-27
37.93046,127.76937,platform,bus_stop,천전2리,춘천시,공공데이터포털,2019-11-27
37.91618,127.72157,platform,bus_stop,육림랜드,춘천시,공공데이터포털,2019-11-27
37.91756,127.72119,platform,bus_stop,육림공원,춘천시,공공데이터포털,2019-11-27
37.87721,127.73044,platform,bus_stop,육림고개,춘천시,공공데이터포털,2019-11-27
37.87717,127.73071,platform,bus_stop,육림고개,춘천시,공공데이터포털,2019-11-27
37.95238,127.77673,platform,bus_stop,유포2리종점,춘천시,공공데이터포털,2019-11-27
37.94932,127.77656,platform,bus_stop,유포리,춘천시,공공데이터포털,2019-11-27
37.94913,127.77662,platform,bus_stop,유포리회관,춘천시,공공데이터포털,2019-11-27
37.93604,127.7517,platform,bus_stop,유포3리입구,춘천시,공공데이터포털,2019-11-27
37.93507,127.7515,platform,bus_stop,유포3리입구,춘천시,공공데이터포털,2019-11-27
37.86189,127.73105,platform,bus_stop,유승한내들,춘천시,공공데이터포털,2019-11-27
37.86192,127.73137,platform,bus_stop,유승한내들,춘천시,공공데이터포털,2019-11-27
37.93267,127.79306,platform,bus_stop,윗샘밭종점,춘천시,공공데이터포털,2019-11-27
37.93244,127.79216,platform,bus_stop,윗샘밭종점,춘천시,공공데이터포털,2019-11-27
37.92441,127.72122,platform,bus_stop,위도입구,춘천시,공공데이터포털,2019-11-27
37.92494,127.721,platform,bus_stop,위도입구,춘천시,공공데이터포털,2019-11-27
37.91704,127.67551,platform,bus_stop,월송3리종점,춘천시,공공데이터포털,2019-11-27
37.91827,127.69654,platform,bus_stop,월송2리입구,춘천시,공공데이터포털,2019-11-27
37.92294,127.68949,platform,bus_stop,월송2리,춘천시,공공데이터포털,2019-11-27
37.93014,127.68734,platform,bus_stop,월송1리,춘천시,공공데이터포털,2019-11-27
37.92262,127.80815,platform,bus_stop,월곡리종점,춘천시,공공데이터포털,2019-11-27
37.91858,127.80165,platform,bus_stop,월곡리,춘천시,공공데이터포털,2019-11-27
37.91855,127.80155,platform,bus_stop,월곡리,춘천시,공공데이터포털,2019-11-27
38.00363,127.63442,platform,bus_stop,원평리,춘천시,공공데이터포털,2019-11-27
38.00193,127.6275,platform,bus_stop,샛강쉼터,춘천시,공공데이터포털,2019-11-27
38.00274,127.63334,platform,bus_stop,원평마을,춘천시,공공데이터포털,2019-11-27
37.99525,127.6444,platform,bus_stop,원평계곡,춘천시,공공데이터포털,2019-11-27
37.99489,127.64426,platform,bus_stop,원평계곡,춘천시,공공데이터포털,2019-11-27
37.82565,127.75999,platform,bus_stop,학곡리,춘천시,공공데이터포털,2019-11-27
37.82608,127.76041,platform,bus_stop,원창리입구,춘천시,공공데이터포털,2019-11-27
37.81006,127.76878,platform,bus_stop,원창고개,춘천시,공공데이터포털,2019-11-27
37.81594,127.75922,platform,bus_stop,원창고개,춘천시,공공데이터포털,2019-11-27
37.80995,127.76861,platform,bus_stop,원창고개,춘천시,공공데이터포털,2019-11-27
37.81573,127.75921,platform,bus_stop,원창고개,춘천시,공공데이터포털,2019-11-27
37.7795,127.76445,platform,bus_stop,원창5리,춘천시,공공데이터포털,2019-11-27
37.78081,127.76449,platform,bus_stop,원창5리,춘천시,공공데이터포털,2019-11-27
37.80956,127.77007,platform,bus_stop,원창4리,춘천시,공공데이터포털,2019-11-27
37.78941,127.76418,platform,bus_stop,원창3리,춘천시,공공데이터포털,2019-11-27
37.78935,127.76394,platform,bus_stop,원창3리,춘천시,공공데이터포털,2019-11-27
37.80338,127.7736,platform,bus_stop,원창2리,춘천시,공공데이터포털,2019-11-27
37.79736,127.7737,platform,bus_stop,폴리텍대학,춘천시,공공데이터포털,2019-11-27
37.79759,127.77401,platform,bus_stop,폴리텍대학,춘천시,공공데이터포털,2019-11-27
37.80374,127.77365,platform,bus_stop,원창2리,춘천시,공공데이터포털,2019-11-27
37.78843,127.74999,platform,bus_stop,원창1리,춘천시,공공데이터포털,2019-11-27
37.78833,127.74998,platform,bus_stop,원창1리,춘천시,공공데이터포털,2019-11-27
37.76643,127.7823,platform,bus_stop,봉명리,춘천시,공공데이터포털,2019-11-27
37.76659,127.76703,platform,bus_stop,원무골,춘천시,공공데이터포털,2019-11-27
37.95099,127.69392,platform,bus_stop,웃골1리,춘천시,공공데이터포털,2019-11-27
37.95044,127.69454,platform,bus_stop,웃골1리,춘천시,공공데이터포털,2019-11-27
37.86594,127.75,platform,bus_stop,강원대학교동문,춘천시,공공데이터포털,2019-11-27
37.86621,127.75061,platform,bus_stop,우석초교입구,춘천시,공공데이터포털,2019-11-27
37.865,127.75018,platform,bus_stop,우석초교,춘천시,공공데이터포털,2019-11-27
37.86474,127.751,platform,bus_stop,우석초교,춘천시,공공데이터포털,2019-11-27
37.86696,127.75605,platform,bus_stop,그랜드A,춘천시,공공데이터포털,2019-11-27
37.96817,127.67122,platform,bus_stop,용산치안센터,춘천시,공공데이터포털,2019-11-27
37.94622,127.70724,platform,bus_stop,용산리종점,춘천시,공공데이터포털,2019-11-27
37.94581,127.70734,platform,bus_stop,용산3리,춘천시,공공데이터포털,2019-11-27
37.95014,127.70055,platform,bus_stop,용산2리취수장,춘천시,공공데이터포털,2019-11-27
37.94955,127.70098,platform,bus_stop,용산2리취수장,춘천시,공공데이터포털,2019-11-27
37.96252,127.67893,platform,bus_stop,한강수력본부,춘천시,공공데이터포털,2019-11-27
37.96261,127.67859,platform,bus_stop,한강수력본부,춘천시,공공데이터포털,2019-11-27
37.94838,127.71715,platform,bus_stop,용산1리종점,춘천시,공공데이터포털,2019-11-27
37.94281,127.71089,platform,bus_stop,용산1리,춘천시,공공데이터포털,2019-11-27
37.94273,127.71066,platform,bus_stop,용산1리,춘천시,공공데이터포털,2019-11-27
37.73122,127.56047,platform,bus_stop,왕터연수원,춘천시,공공데이터포털,2019-11-27
37.7312,127.56059,platform,bus_stop,왕터연수원,춘천시,공공데이터포털,2019-11-27
37.92627,127.7374,platform,bus_stop,올미종점,춘천시,공공데이터포털,2019-11-27
37.92219,127.73655,platform,bus_stop,올미입구,춘천시,공공데이터포털,2019-11-27
37.92233,127.7365,platform,bus_stop,올미입구,춘천시,공공데이터포털,2019-11-27
37.92136,127.73852,platform,bus_stop,올미,춘천시,공공데이터포털,2019-11-27
37.92141,127.73839,platform,bus_stop,올미,춘천시,공공데이터포털,2019-11-27
37.86578,127.72134,platform,bus_stop,온의사거리,춘천시,공공데이터포털,2019-11-27
37.86734,127.71739,platform,bus_stop,풍물시장,춘천시,공공데이터포털,2019-11-27
37.86657,127.71821,platform,bus_stop,럭키A,춘천시,공공데이터포털,2019-11-27
37.87329,127.72014,platform,bus_stop,미소지움/방송대,춘천시,공공데이터포털,2019-11-27
37.87326,127.72116,platform,bus_stop,방송통신대입구,춘천시,공공데이터포털,2019-11-27
37.86888,127.71614,platform,bus_stop,온의금호1차,춘천시,공공데이터포털,2019-11-27
37.86872,127.71582,platform,bus_stop,온의금호1차,춘천시,공공데이터포털,2019-11-27
37.91645,127.78278,platform,bus_stop,옥광산입구,춘천시,공공데이터포털,2019-11-27
37.91617,127.78225,platform,bus_stop,지내1리(옥광산입구),춘천시,공공데이터포털,2019-11-27
37.97759,127.90448,platform,bus_stop,오항리종점,춘천시,공공데이터포털,2019-11-27
38.05261,127.58176,platform,bus_stop,오탄리종점,춘천시,공공데이터포털,2019-11-27
38.0429,127.62175,platform,bus_stop,오탄리,춘천시,공공데이터포털,2019-11-27
38.04268,127.62197,platform,bus_stop,오탄1리,춘천시,공공데이터포털,2019-11-27
38.04171,127.601,platform,bus_stop,오탄3리종점,춘천시,공공데이터포털,2019-11-27
38.05404,127.59509,platform,bus_stop,오탄2리,춘천시,공공데이터포털,2019-11-27
38.05417,127.59534,platform,bus_stop,오탄2리,춘천시,공공데이터포털,2019-11-27
38.04708,127.61601,platform,bus_stop,오탄1리,춘천시,공공데이터포털,2019-11-27
38.04686,127.61601,platform,bus_stop,오탄1리,춘천시,공공데이터포털,2019-11-27
37.9407,127.7848,platform,bus_stop,오음리입구,춘천시,공공데이터포털,2019-11-27
37.9408,127.7847,platform,bus_stop,오음리입구,춘천시,공공데이터포털,2019-11-27
37.98006,127.64191,platform,bus_stop,오월유원지,춘천시,공공데이터포털,2019-11-27
37.98015,127.64218,platform,bus_stop,오월유원지,춘천시,공공데이터포털,2019-11-27
37.9663,127.62519,platform,bus_stop,오월리종점,춘천시,공공데이터포털,2019-11-27
37.97863,127.65544,platform,bus_stop,오월리입구,춘천시,공공데이터포털,2019-11-27
37.97853,127.65542,platform,bus_stop,오월리입구,춘천시,공공데이터포털,2019-11-27
37.98354,127.64466,platform,bus_stop,오월교입구,춘천시,공공데이터포털,2019-11-27
37.78736,127.71552,platform,bus_stop,오봉마을,춘천시,공공데이터포털,2019-11-27
37.78688,127.71489,platform,bus_stop,오봉마을,춘천시,공공데이터포털,2019-11-27
37.95077,127.75615,platform,bus_stop,오동초등학교앞,춘천시,공공데이터포털,2019-11-27
37.95059,127.75563,platform,bus_stop,오동초등학교,춘천시,공공데이터포털,2019-11-27
37.85613,127.74853,platform,bus_stop,여성가족연구원,춘천시,공공데이터포털,2019-11-27
37.85577,127.74872,platform,bus_stop,여성가족연구원,춘천시,공공데이터포털,2019-11-27
37.85124,127.743,platform,bus_stop,퇴계주공6단지,춘천시,공공데이터포털,2019-11-27
37.85034,127.74735,platform,bus_stop,현진에버빌1차,춘천시,공공데이터포털,2019-11-27
37.87179,127.70108,platform,bus_stop,상상마당입구,춘천시,공공데이터포털,2019-11-27
37.87141,127.70168,platform,bus_stop,상상마당입구,춘천시,공공데이터포털,2019-11-27
38.00189,127.73779,platform,bus_stop,양통종점,춘천시,공공데이터포털,2019-11-27
37.86831,127.73052,platform,bus_stop,양우A,춘천시,공공데이터포털,2019-11-27
37.86796,127.73154,platform,bus_stop,양우A,춘천시,공공데이터포털,2019-11-27
37.76675,127.63429,platform,bus_stop,창촌3리(양단이),춘천시,공공데이터포털,2019-11-27
37.7664,127.63364,platform,bus_stop,창촌3리(양단이),춘천시,공공데이터포털,2019-11-27
37.87212,127.72306,platform,bus_stop,모아엘가A,춘천시,공공데이터포털,2019-11-27
37.87205,127.72362,platform,bus_stop,모아엘가A,춘천시,공공데이터포털,2019-11-27
37.87971,127.72668,platform,bus_stop,명동입구,춘천시,공공데이터포털,2019-11-27
37.8739,127.728,platform,bus_stop,약사리고개입구,춘천시,공공데이터포털,2019-11-27
37.8739,127.728,platform,bus_stop,약사리고개입구,춘천시,공공데이터포털,2019-11-27
37.89184,127.68983,platform,bus_stop,현암리,춘천시,공공데이터포털,2019-11-27
37.89259,127.68997,platform,bus_stop,애니메이션박물관,춘천시,공공데이터포털,2019-11-27
37.84978,127.57659,platform,bus_stop,안보2리종점,춘천시,공공데이터포털,2019-11-27
37.84289,127.56777,platform,bus_stop,안보2리입구,춘천시,공공데이터포털,2019-11-27
37.84263,127.56753,platform,bus_stop,안보2리입구,춘천시,공공데이터포털,2019-11-27
37.83785,127.57698,platform,bus_stop,탑동마을,춘천시,공공데이터포털,2019-11-27
37.95009,127.76327,platform,bus_stop,아침못종점,춘천시,공공데이터포털,2019-11-27
37.79753,127.68775,platform,bus_stop,환경사업소,춘천시,공공데이터포털,2019-11-27
37.79703,127.68779,platform,bus_stop,혈동2리,춘천시,공공데이터포털,2019-11-27
38.02611,127.63991,platform,bus_stop,신포중학교,춘천시,공공데이터포털,2019-11-27
38.01657,127.63411,platform,bus_stop,신포리,춘천시,공공데이터포털,2019-11-27
38.01666,127.63403,platform,bus_stop,신포리,춘천시,공공데이터포털,2019-11-27
38.02516,127.64,platform,bus_stop,신포1리,춘천시,공공데이터포털,2019-11-27
37.85409,127.77998,platform,bus_stop,신촌1리,춘천시,공공데이터포털,2019-11-27
37.84892,127.75825,platform,bus_stop,신촌3리,춘천시,공공데이터포털,2019-11-27
37.85009,127.77069,platform,bus_stop,신촌1리,춘천시,공공데이터포털,2019-11-27
37.8538,127.77616,platform,bus_stop,신촌1리,춘천시,공공데이터포털,2019-11-27
37.85369,127.77606,platform,bus_stop,신촌1리,춘천시,공공데이터포털,2019-11-27
37.85016,127.77063,platform,bus_stop,신촌1리,춘천시,공공데이터포털,2019-11-27
37.8614,127.67345,platform,bus_stop,신연강,춘천시,공공데이터포털,2019-11-27
37.86173,127.67363,platform,bus_stop,신연강,춘천시,공공데이터포털,2019-11-27
37.93879,127.72759,platform,bus_stop,한계울마을입구,춘천시,공공데이터포털,2019-11-27
37.9389,127.72743,platform,bus_stop,한계울마을입구,춘천시,공공데이터포털,2019-11-27
37.92515,127.74677,platform,bus_stop,신북읍행복센터,춘천시,공공데이터포털,2019-11-27
37.92523,127.7469,platform,bus_stop,신북읍행복센터,춘천시,공공데이터포털,2019-11-27
37.92197,127.71147,platform,bus_stop,신매대교,춘천시,공공데이터포털,2019-11-27
37.92209,127.71137,platform,bus_stop,신매대교,춘천시,공공데이터포털,2019-11-27
37.91819,127.71156,platform,bus_stop,신매3리,춘천시,공공데이터포털,2019-11-27
37.91602,127.71089,platform,bus_stop,신매3리,춘천시,공공데이터포털,2019-11-27
37.91592,127.71104,platform,bus_stop,신매3리,춘천시,공공데이터포털,2019-11-27
37.91828,127.71172,platform,bus_stop,신매3리,춘천시,공공데이터포털,2019-11-27
37.93588,127.7027,platform,bus_stop,신매1리,춘천시,공공데이터포털,2019-11-27
37.93584,127.70284,platform,bus_stop,신매1리,춘천시,공공데이터포털,2019-11-27
37.92976,127.722,platform,bus_stop,신동초교,춘천시,공공데이터포털,2019-11-27
37.92992,127.72175,platform,bus_stop,신동초교,춘천시,공공데이터포털,2019-11-27
37.93196,127.72232,platform,bus_stop,신동삼거리,춘천시,공공데이터포털,2019-11-27
37.93187,127.72203,platform,bus_stop,신동초등학교,춘천시,공공데이터포털,2019-11-27
37.92701,127.72165,platform,bus_stop,신동,춘천시,공공데이터포털,2019-11-27
37.92777,127.72141,platform,bus_stop,신동보급대,춘천시,공공데이터포털,2019-11-27
37.93733,127.7157,platform,bus_stop,신동배터,춘천시,공공데이터포털,2019-11-27
37.93666,127.7162,platform,bus_stop,신동배터,춘천시,공공데이터포털,2019-11-27
37.8172,127.71479,platform,bus_stop,김유정역,춘천시,공공데이터포털,2019-11-27
37.81716,127.71504,platform,bus_stop,김유정역,춘천시,공공데이터포털,2019-11-27
37.79923,127.70886,platform,bus_stop,삼포유원지입구,춘천시,공공데이터포털,2019-11-27
37.87874,127.72912,platform,bus_stop,명동입구,춘천시,공공데이터포털,2019-11-27
37.87961,127.72865,platform,bus_stop,명동입구,춘천시,공공데이터포털,2019-11-27
37.86291,127.71768,platform,bus_stop,시외버스터미널,춘천시,공공데이터포털,2019-11-27
37.86376,127.71724,platform,bus_stop,시외버스터미널,춘천시,공공데이터포털,2019-11-27
37.86368,127.71989,platform,bus_stop,시외버스터미널,춘천시,공공데이터포털,2019-11-27
37.86411,127.71976,platform,bus_stop,시외버스터미널,춘천시,공공데이터포털,2019-11-27
37.87137,127.70841,platform,bus_stop,시립청소년도서관,춘천시,공공데이터포털,2019-11-27
37.87196,127.70822,platform,bus_stop,공지천분수대,춘천시,공공데이터포털,2019-11-27
37.87086,127.69305,platform,bus_stop,(구)승마장,춘천시,공공데이터포털,2019-11-27
37.87067,127.69318,platform,bus_stop,(구)승마장,춘천시,공공데이터포털,2019-11-27
37.8506,127.75,platform,bus_stop,시립요양원입구,춘천시,공공데이터포털,2019-11-27
37.98607,127.8925,platform,bus_stop,수청골입구,춘천시,공공데이터포털,2019-11-27
37.98615,127.89261,platform,bus_stop,수청교,춘천시,공공데이터포털,2019-11-27
37.77473,127.66838,platform,bus_stop,수동리,춘천시,공공데이터포털,2019-11-27
37.77471,127.66827,platform,bus_stop,수동리,춘천시,공공데이터포털,2019-11-27
37.76644,127.64343,platform,bus_stop,수동2리,춘천시,공공데이터포털,2019-11-27
37.76662,127.64336,platform,bus_stop,수동2리,춘천시,공공데이터포털,2019-11-27
37.77346,127.67902,platform,bus_stop,수동1리종점,춘천시,공공데이터포털,2019-11-27
37.78118,127.65406,platform,bus_stop,수동1리입구,춘천시,공공데이터포털,2019-11-27
37.78132,127.65402,platform,bus_stop,수동1리입구,춘천시,공공데이터포털,2019-11-27
37.77695,127.66157,platform,bus_stop,수동1리,춘천시,공공데이터포털,2019-11-27
37.777,127.66151,platform,bus_stop,수동1리,춘천시,공공데이터포털,2019-11-27
37.98831,127.70326,platform,bus_stop,송암삼거리,춘천시,공공데이터포털,2019-11-27
37.98852,127.70185,platform,bus_stop,송암리,춘천시,공공데이터포털,2019-11-27
37.99547,127.68649,platform,bus_stop,송암리,춘천시,공공데이터포털,2019-11-27
37.99289,127.69071,platform,bus_stop,송암리,춘천시,공공데이터포털,2019-11-27
37.85203,127.68957,platform,bus_stop,송암동,춘천시,공공데이터포털,2019-11-27
37.85043,127.69075,platform,bus_stop,송암동,춘천시,공공데이터포털,2019-11-27
38.00345,127.69205,platform,bus_stop,송암3반,춘천시,공공데이터포털,2019-11-27
37.82576,127.66532,platform,bus_stop,삼악산주차장입구,춘천시,공공데이터포털,2019-11-27
37.92527,127.77057,platform,bus_stop,솔밭종점,춘천시,공공데이터포털,2019-11-27
37.90534,127.73941,platform,bus_stop,소양초교,춘천시,공공데이터포털,2019-11-27
37.90587,127.73938,platform,bus_stop,소양초교,춘천시,공공데이터포털,2019-11-27
37.9061,127.72463,platform,bus_stop,소양중학교,춘천시,공공데이터포털,2019-11-27
37.90513,127.72499,platform,bus_stop,소양중학교,춘천시,공공데이터포털,2019-11-27
37.90225,127.77733,platform,bus_stop,소양정수장,춘천시,공공데이터포털,2019-11-27
37.90238,127.77725,platform,bus_stop,소양정수장,춘천시,공공데이터포털,2019-11-27
37.88914,127.72506,platform,bus_stop,소양로2가,춘천시,공공데이터포털,2019-11-27
37.89235,127.72546,platform,bus_stop,소양로1가치안센터,춘천시,공공데이터포털,2019-11-27
37.89146,127.72572,platform,bus_stop,소양로1가,춘천시,공공데이터포털,2019-11-27
37.93821,127.80166,platform,bus_stop,소양강댐주차장,춘천시,공공데이터포털,2019-11-27
37.94757,127.81268,platform,bus_stop,소양강댐정상,춘천시,공공데이터포털,2019-11-27
37.93362,127.79541,platform,bus_stop,소양강댐사택,춘천시,공공데이터포털,2019-11-27
37.93365,127.7952,platform,bus_stop,소양강댐사택,춘천시,공공데이터포털,2019-11-27
37.89959,127.72858,platform,bus_stop,소양2교,춘천시,공공데이터포털,2019-11-27
37.89996,127.72835,platform,bus_stop,사우사거리,춘천시,공공데이터포털,2019-11-27
37.88067,127.75488,platform,bus_stop,초록지붕8차,춘천시,공공데이터포털,2019-11-27
37.88077,127.7547,platform,bus_stop,초록지붕6차,춘천시,공공데이터포털,2019-11-27
37.88484,127.74415,platform,bus_stop,세경3차,춘천시,공공데이터포털,2019-11-27
37.88451,127.7437,platform,bus_stop,세경3차,춘천시,공공데이터포털,2019-11-27
37.84813,127.74339,platform,bus_stop,성원초등학교,춘천시,공공데이터포털,2019-11-27
37.8835,127.73831,platform,bus_stop,한림대학교,춘천시,공공데이터포털,2019-11-27
37.85273,127.74132,platform,bus_stop,퇴계주공5차A,춘천시,공공데이터포털,2019-11-27
37.8528,127.74154,platform,bus_stop,현진에버빌2차,춘천시,공공데이터포털,2019-11-27
37.80992,127.67905,platform,bus_stop,설미종점,춘천시,공공데이터포털,2019-11-27
37.85657,127.742,platform,bus_stop,봄내초교,춘천시,공공데이터포털,2019-11-27
37.85642,127.74174,platform,bus_stop,봄내초등학교,춘천시,공공데이터포털,2019-11-27
37.85451,127.74099,platform,bus_stop,퇴계현대3차,춘천시,공공데이터포털,2019-11-27
37.86148,127.7453,platform,bus_stop,남부지구대,춘천시,공공데이터포털,2019-11-27
37.86155,127.74509,platform,bus_stop,남부지구대,춘천시,공공데이터포털,2019-11-27
37.86281,127.73904,platform,bus_stop,석사A,춘천시,공공데이터포털,2019-11-27
37.86289,127.73933,platform,bus_stop,석사A,춘천시,공공데이터포털,2019-11-27
37.85308,127.75104,platform,bus_stop,석사삼익A,춘천시,공공데이터포털,2019-11-27
37.85324,127.75117,platform,bus_stop,초록지붕A,춘천시,공공데이터포털,2019-11-27
37.85952,127.74511,platform,bus_stop,석사사거리,춘천시,공공데이터포털,2019-11-27
37.8691,127.75608,platform,bus_stop,석사부영A,춘천시,공공데이터포털,2019-11-27
37.85922,127.74244,platform,bus_stop,석사동행복센터,춘천시,공공데이터포털,2019-11-27
37.85921,127.74273,platform,bus_stop,석사동행복센터,춘천시,공공데이터포털,2019-11-27
37.86908,127.75638,platform,bus_stop,석사대우A,춘천시,공공데이터포털,2019-11-27
37.851,127.7527,platform,bus_stop,석사극동A,춘천시,공공데이터포털,2019-11-27
37.85118,127.75278,platform,bus_stop,석사극동A,춘천시,공공데이터포털,2019-11-27
37.85961,127.74483,platform,bus_stop,석사교회,춘천시,공공데이터포털,2019-11-27
37.86115,127.74326,platform,bus_stop,석사4거리,춘천시,공공데이터포털,2019-11-27
37.87048,127.75677,platform,bus_stop,석사2지구A,춘천시,공공데이터포털,2019-11-27
37.87027,127.75697,platform,bus_stop,석사2지구A,춘천시,공공데이터포털,2019-11-27
37.93592,127.69664,platform,bus_stop,석갓,춘천시,공공데이터포털,2019-11-27
37.93586,127.69652,platform,bus_stop,석갓,춘천시,공공데이터포털,2019-11-27
37.93234,127.70239,platform,bus_stop,서춘천농협,춘천시,공공데이터포털,2019-11-27
37.93239,127.70252,platform,bus_stop,서춘천농협,춘천시,공공데이터포털,2019-11-27
37.84082,127.55202,platform,bus_stop,서천리,춘천시,공공데이터포털,2019-11-27
37.83801,127.53288,platform,bus_stop,서천2리,춘천시,공공데이터포털,2019-11-27
37.83858,127.55257,platform,bus_stop,서천1리,춘천시,공공데이터포털,2019-11-27
37.83862,127.55271,platform,bus_stop,서천1리,춘천시,공공데이터포털,2019-11-27
37.92833,127.70632,platform,bus_stop,서상초교,춘천시,공공데이터포털,2019-11-27
37.92814,127.70633,platform,bus_stop,서상초교,춘천시,공공데이터포털,2019-11-27
37.93433,127.65798,platform,bus_stop,서상2리종점,춘천시,공공데이터포털,2019-11-27
37.94223,127.70362,platform,bus_stop,서상1리종점,춘천시,공공데이터포털,2019-11-27
37.94212,127.70357,platform,bus_stop,서상1리종점,춘천시,공공데이터포털,2019-11-27
37.88581,127.72404,platform,bus_stop,서부시장,춘천시,공공데이터포털,2019-11-27
37.92395,127.70928,platform,bus_stop,서면치안센터,춘천시,공공데이터포털,2019-11-27
37.92377,127.70919,platform,bus_stop,서면치안센터,춘천시,공공데이터포털,2019-11-27
37.89811,127.69369,platform,bus_stop,서면행정복지센터,춘천시,공공데이터포털,2019-11-27
37.89834,127.69402,platform,bus_stop,서면행정복지센터,춘천시,공공데이터포털,2019-11-27
37.83437,127.60027,platform,bus_stop,샬롬(산후조리원),춘천시,공공데이터포털,2019-11-27
37.78622,127.75687,platform,bus_stop,새술막,춘천시,공공데이터포털,2019-11-27
37.78588,127.75773,platform,bus_stop,새술막,춘천시,공공데이터포털,2019-11-27
37.84639,127.61061,platform,bus_stop,새말교,춘천시,공공데이터포털,2019-11-27
37.84628,127.61065,platform,bus_stop,당림1리,춘천시,공공데이터포털,2019-11-27
37.87146,127.7326,platform,bus_stop,새마을고개,춘천시,공공데이터포털,2019-11-27
37.87107,127.73241,platform,bus_stop,새마을고개,춘천시,공공데이터포털,2019-11-27
37.79883,127.73112,platform,bus_stop,증4리종점,춘천시,공공데이터포털,2019-11-27
37.92989,127.7849,platform,bus_stop,상천초등학교,춘천시,공공데이터포털,2019-11-27
37.84097,127.67416,platform,bus_stop,상원사,춘천시,공공데이터포털,2019-11-27
37.84109,127.67431,platform,bus_stop,상원사,춘천시,공공데이터포털,2019-11-27
37.85075,127.86239,platform,bus_stop,상걸리종점,춘천시,공공데이터포털,2019-11-27
37.86211,127.8498,platform,bus_stop,상걸리보건진료소,춘천시,공공데이터포털,2019-11-27
37.86208,127.85015,platform,bus_stop,상걸리보건진료소,춘천시,공공데이터포털,2019-11-27
37.86614,127.84409,platform,bus_stop,상걸1리,춘천시,공공데이터포털,2019-11-27
37.86629,127.84392,platform,bus_stop,상걸1리,춘천시,공공데이터포털,2019-11-27
37.79897,127.70854,platform,bus_stop,삼포유원지입구,춘천시,공공데이터포털,2019-11-27
37.79899,127.7086,platform,bus_stop,삼포유원지입구,춘천시,공공데이터포털,2019-11-27
37.79779,127.715,platform,bus_stop,삼포유원지,춘천시,공공데이터포털,2019-11-27
37.79774,127.71497,platform,bus_stop,삼포유원지,춘천시,공공데이터포털,2019-11-27
37.86906,127.70704,platform,bus_stop,삼천동사거리,춘천시,공공데이터포털,2019-11-27
37.86941,127.707,platform,bus_stop,삼천동사거리,춘천시,공공데이터포털,2019-11-27
37.91949,127.73921,platform,bus_stop,여우고개,춘천시,공공데이터포털,2019-11-27
37.91915,127.73905,platform,bus_stop,여우고개,춘천시,공공데이터포털,2019-11-27
37.8376,127.67417,platform,bus_stop,의암댐,춘천시,공공데이터포털,2019-11-27
37.83721,127.67401,platform,bus_stop,의암댐,춘천시,공공데이터포털,2019-11-27
37.96104,127.74755,platform,bus_stop,산천2리종점,춘천시,공공데이터포털,2019-11-27
37.94283,127.75172,platform,bus_stop,산천1리,춘천시,공공데이터포털,2019-11-27
37.9427,127.75159,platform,bus_stop,산천1리,춘천시,공공데이터포털,2019-11-27
37.94758,127.75225,platform,bus_stop,산천1리,춘천시,공공데이터포털,2019-11-27
37.94778,127.75236,platform,bus_stop,산천1리,춘천시,공공데이터포털,2019-11-27
37.84754,127.76477,platform,bus_stop,산수빌아파트,춘천시,공공데이터포털,2019-11-27
37.84785,127.7641,platform,bus_stop,산수빌아파트,춘천시,공공데이터포털,2019-11-27
37.71255,127.67154,platform,bus_stop,산수리,춘천시,공공데이터포털,2019-11-27
37.86916,127.69261,platform,bus_stop,사이클경기장,춘천시,공공데이터포털,2019-11-27
37.84124,127.76488,platform,bus_stop,사암리,춘천시,공공데이터포털,2019-11-27
37.82315,127.76831,platform,bus_stop,사암4리종점,춘천시,공공데이터포털,2019-11-27
37.82325,127.76838,platform,bus_stop,사암4리종점,춘천시,공공데이터포털,2019-11-27
37.8238,127.764,platform,bus_stop,사암4리,춘천시,공공데이터포털,2019-11-27
37.83309,127.77478,platform,bus_stop,사암3리,춘천시,공공데이터포털,2019-11-27
37.83319,127.77471,platform,bus_stop,사암3리,춘천시,공공데이터포털,2019-11-27
37.83203,127.77003,platform,bus_stop,사암1리,춘천시,공공데이터포털,2019-11-27
37.831,127.76829,platform,bus_stop,사암1리,춘천시,공공데이터포털,2019-11-27
37.83208,127.76997,platform,bus_stop,사암1리,춘천시,공공데이터포털,2019-11-27
38.03872,127.64348,platform,bus_stop,사북우체국,춘천시,공공데이터포털,2019-11-27
38.03878,127.64334,platform,bus_stop,사북우체국,춘천시,공공데이터포털,2019-11-27
38.03011,127.64133,platform,bus_stop,사북면행복센터,춘천시,공공데이터포털,2019-11-27
38.02896,127.64114,platform,bus_stop,사북면행복센터,춘천시,공공데이터포털,2019-11-27
37.87282,127.74672,platform,bus_stop,사대부고,춘천시,공공데이터포털,2019-11-27
37.91353,127.72205,platform,bus_stop,우두로입구,춘천시,공공데이터포털,2019-11-27
37.9133,127.72187,platform,bus_stop,우두로입구,춘천시,공공데이터포털,2019-11-27
37.91079,127.72244,platform,bus_stop,사농현대A,춘천시,공공데이터포털,2019-11-27
37.84508,127.70128,platform,bus_stop,보타사입구,춘천시,공공데이터포털,2019-11-27
37.84528,127.70111,platform,bus_stop,보타사입구,춘천시,공공데이터포털,2019-11-27
37.98721,127.88556,platform,bus_stop,북산면행복센터,춘천시,공공데이터포털,2019-11-27
37.98707,127.88551,platform,bus_stop,북산면행복센터,춘천시,공공데이터포털,2019-11-27
37.86984,127.73103,platform,bus_stop,교대부설초교,춘천시,공공데이터포털,2019-11-27
37.87511,127.72948,platform,bus_stop,봉의초교,춘천시,공공데이터포털,2019-11-27
37.87932,127.74149,platform,bus_stop,봉의중학교,춘천시,공공데이터포털,2019-11-27
37.87915,127.74159,platform,bus_stop,봉의중학교,춘천시,공공데이터포털,2019-11-27
37.88675,127.74489,platform,bus_stop,봉의A,춘천시,공공데이터포털,2019-11-27
37.88768,127.74413,platform,bus_stop,봉의A,춘천시,공공데이터포털,2019-11-27
37.77377,127.81255,platform,bus_stop,봉명리종점,춘천시,공공데이터포털,2019-11-27
37.77336,127.81103,platform,bus_stop,봉명2리,춘천시,공공데이터포털,2019-11-27
37.75785,127.79463,platform,bus_stop,봉명1리,춘천시,공공데이터포털,2019-11-27
37.75779,127.7945,platform,bus_stop,봉명1리1반,춘천시,공공데이터포털,2019-11-27
37.87534,127.75261,platform,bus_stop,보안사거리,춘천시,공공데이터포털,2019-11-27
37.87542,127.75241,platform,bus_stop,보안사거리,춘천시,공공데이터포털,2019-11-27
37.87636,127.74625,platform,bus_stop,푸른언덕공원,춘천시,공공데이터포털,2019-11-27
37.87619,127.74552,platform,bus_stop,푸른언덕공원,춘천시,공공데이터포털,2019-11-27
37.86609,127.73414,platform,bus_stop,춘천지방법원,춘천시,공공데이터포털,2019-11-27
37.86609,127.73285,platform,bus_stop,법원,춘천시,공공데이터포털,2019-11-27
37.8659,127.73311,platform,bus_stop,법원,춘천시,공공데이터포털,2019-11-27
37.89205,127.72626,platform,bus_stop,번개시장,춘천시,공공데이터포털,2019-11-27
37.81028,127.57333,platform,bus_stop,백양리종점,춘천시,공공데이터포털,2019-11-27
37.8277,127.6123,platform,bus_stop,백양리역,춘천시,공공데이터포털,2019-11-27
37.8277,127.6124,platform,bus_stop,백양리역,춘천시,공공데이터포털,2019-11-27
37.82778,127.55995,platform,bus_stop,백양리,춘천시,공공데이터포털,2019-11-27
37.82779,127.56018,platform,bus_stop,백양리,춘천시,공공데이터포털,2019-11-27
37.82402,127.56262,platform,bus_stop,백양1리,춘천시,공공데이터포털,2019-11-27
37.8241,127.56272,platform,bus_stop,백양1리,춘천시,공공데이터포털,2019-11-27
37.99437,127.79036,platform,bus_stop,오음리고개정상,춘천시,공공데이터포털,2019-11-27
37.99397,127.79054,platform,bus_stop,오음리고개정상,춘천시,공공데이터포털,2019-11-27
37.85995,127.71745,platform,bus_stop,배나무골,춘천시,공공데이터포털,2019-11-27
37.85983,127.717,platform,bus_stop,배나무골,춘천시,공공데이터포털,2019-11-27
37.83553,127.73603,platform,bus_stop,방죽기,춘천시,공공데이터포털,2019-11-27
37.83551,127.73615,platform,bus_stop,방죽기,춘천시,공공데이터포털,2019-11-27
37.85578,127.68863,platform,bus_stop,송암스포츠타운,춘천시,공공데이터포털,2019-11-27
37.90904,127.66544,platform,bus_stop,방동리종점,춘천시,공공데이터포털,2019-11-27
37.90053,127.67505,platform,bus_stop,방동2리,춘천시,공공데이터포털,2019-11-27
37.90395,127.6732,platform,bus_stop,방동2리,춘천시,공공데이터포털,2019-11-27
37.90705,127.66854,platform,bus_stop,방동2리,춘천시,공공데이터포털,2019-11-27
37.90711,127.66859,platform,bus_stop,방동2리,춘천시,공공데이터포털,2019-11-27
37.90406,127.6732,platform,bus_stop,방동2리,춘천시,공공데이터포털,2019-11-27
37.90063,127.67514,platform,bus_stop,방동2리,춘천시,공공데이터포털,2019-11-27
37.90176,127.66183,platform,bus_stop,장절공,춘천시,공공데이터포털,2019-11-27
37.89575,127.67528,platform,bus_stop,방동1리,춘천시,공공데이터포털,2019-11-27
37.93689,127.72774,platform,bus_stop,국군병원사거리,춘천시,공공데이터포털,2019-11-27
37.86684,127.71259,platform,bus_stop,춘추로입구,춘천시,공공데이터포털,2019-11-27
37.86461,127.71589,platform,bus_stop,럭키아파트후문,춘천시,공공데이터포털,2019-11-27
37.86483,127.71602,platform,bus_stop,럭키아파트후문,춘천시,공공데이터포털,2019-11-27
37.8524,127.7472,platform,bus_stop,퇴계동/스무숲성당,춘천시,공공데이터포털,2019-11-27
37.85251,127.74616,platform,bus_stop,현진에버빌1차아파트,춘천시,공공데이터포털,2019-11-27
37.85569,127.68883,platform,bus_stop,송암스포츠타운,춘천시,공공데이터포털,2019-11-27
37.88126,127.73989,platform,bus_stop,성심경로당,춘천시,공공데이터포털,2019-11-27
37.80167,127.77557,platform,bus_stop,원창2리,춘천시,공공데이터포털,2019-11-27
37.80157,127.77567,platform,bus_stop,원창2리,춘천시,공공데이터포털,2019-11-27
37.89835,127.75513,platform,bus_stop,한림성심대학교,춘천시,공공데이터포털,2019-11-27
37.89835,127.75522,platform,bus_stop,한림성심대학교,춘천시,공공데이터포털,2019-11-27
37.91843,127.78156,platform,bus_stop,가산교,춘천시,공공데이터포털,2019-11-27
37.92251,127.77711,platform,bus_stop,지내3리,춘천시,공공데이터포털,2019-11-27
37.91848,127.78159,platform,bus_stop,가산교,춘천시,공공데이터포털,2019-11-27
37.92252,127.77715,platform,bus_stop,지내3리,춘천시,공공데이터포털,2019-11-27
37.85097,127.86237,platform,bus_stop,상걸리종점,춘천시,공공데이터포털,2019-11-27
37.8814,127.73971,platform,bus_stop,성심경로당,춘천시,공공데이터포털,2019-11-27
37.86661,127.71242,platform,bus_stop,춘추로입구,춘천시,공공데이터포털,2019-11-27
37.75109,127.83287,platform,bus_stop,조양3리종점,춘천시,공공데이터포털,2019-11-27
37.87981,127.76324,platform,bus_stop,유앤아이A,춘천시,공공데이터포털,2019-11-27
37.8797,127.76337,platform,bus_stop,유앤아이A,춘천시,공공데이터포털,2019-11-27
37.87807,127.75956,platform,bus_stop,동신장로교회,춘천시,공공데이터포털,2019-11-27
37.87791,127.75965,platform,bus_stop,구름다리주유소,춘천시,공공데이터포털,2019-11-27
37.87205,127.74747,platform,bus_stop,강원사대부고,춘천시,공공데이터포털,2019-11-27
37.87192,127.74732,platform,bus_stop,강원사대부고,춘천시,공공데이터포털,2019-11-27
37.86164,127.72784,platform,bus_stop,케이티앤지,춘천시,공공데이터포털,2019-11-27
37.8634,127.7247,platform,bus_stop,신축남춘천역사,춘천시,공공데이터포털,2019-11-27
37.90682,127.72831,platform,bus_stop,농산물도매시장,춘천시,공공데이터포털,2019-11-27
37.90702,127.72832,platform,bus_stop,농산물도매시장,춘천시,공공데이터포털,2019-11-27
37.9069,127.73859,platform,bus_stop,우두사거리,춘천시,공공데이터포털,2019-11-27
37.90704,127.73867,platform,bus_stop,우두사거리,춘천시,공공데이터포털,2019-11-27
37.85079,127.73524,platform,bus_stop,홈플러스,춘천시,공공데이터포털,2019-11-27
37.92214,127.73908,platform,bus_stop,올미,춘천시,공공데이터포털,2019-11-27
37.92228,127.73914,platform,bus_stop,올미입구,춘천시,공공데이터포털,2019-11-27
37.86716,127.78776,platform,bus_stop,금대울,춘천시,공공데이터포털,2019-11-27
37.85717,127.75935,platform,bus_stop,호반베르디움,춘천시,공공데이터포털,2019-11-27
37.8639,127.7231,platform,bus_stop,남춘천역환승센터,춘천시,공공데이터포털,2019-11-27
37.89351,127.725,platform,bus_stop,호반환승센터,춘천시,공공데이터포털,2019-11-27
37.8932,127.72493,platform,bus_stop,호반환승센터,춘천시,공공데이터포털,2019-11-27
37.8851,127.7181,platform,bus_stop,춘천역환승센터,춘천시,공공데이터포털,2019-11-27
37.86815,127.72885,platform,bus_stop,효자교,춘천시,공공데이터포털,2019-11-27
37.86621,127.72678,platform,bus_stop,퇴계일성A,춘천시,공공데이터포털,2019-11-27
37.86612,127.72695,platform,bus_stop,퇴계일성A,춘천시,공공데이터포털,2019-11-27
37.86792,127.72887,platform,bus_stop,효자교,춘천시,공공데이터포털,2019-11-27
37.8913,127.72188,platform,bus_stop,당간지주입구,춘천시,공공데이터포털,2019-11-27
37.89126,127.72202,platform,bus_stop,당간지주입구,춘천시,공공데이터포털,2019-11-27
37.86412,127.72331,platform,bus_stop,남춘천역환승센터,춘천시,공공데이터포털,2019-11-27
37.83118,127.58876,platform,bus_stop,백양리역,춘천시,공공데이터포털,2019-11-27
37.8311,127.58832,platform,bus_stop,백양리역,춘천시,공공데이터포털,2019-11-27
37.8327,127.5574,platform,bus_stop,굴봉산역,춘천시,공공데이터포털,2019-11-27
37.83251,127.55733,platform,bus_stop,굴봉산역,춘천시,공공데이터포털,2019-11-27
37.8886,127.7203,platform,bus_stop,성신양회,춘천시,공공데이터포털,2019-11-27
37.80627,127.6337,platform,bus_stop,강촌역,춘천시,공공데이터포털,2019-11-27
37.80637,127.63371,platform,bus_stop,강촌역,춘천시,공공데이터포털,2019-11-27
37.80592,127.63649,platform,bus_stop,강촌역입구,춘천시,공공데이터포털,2019-11-27
37.8059,127.63666,platform,bus_stop,강촌역입구,춘천시,공공데이터포털,2019-11-27
37.92461,127.75161,platform,bus_stop,신북사거리,춘천시,공공데이터포털,2019-11-27
37.9484,127.7498,platform,bus_stop,막국수체험관,춘천시,공공데이터포털,2019-11-27
37.921,127.8056,platform,bus_stop,옥광산,춘천시,공공데이터포털,2019-11-27
37.8636,127.7248,platform,bus_stop,남춘천역,춘천시,공공데이터포털,2019-11-27
37.7354,127.70744,platform,bus_stop,광판농협입구,춘천시,공공데이터포털,2019-11-27
37.7351,127.7075,platform,bus_stop,광판농협입구,춘천시,공공데이터포털,2019-11-27
37.7935,127.7666,platform,bus_stop,원창3리,춘천시,공공데이터포털,2019-11-27
37.79308,127.7664,platform,bus_stop,원창3리,춘천시,공공데이터포털,2019-11-27
37.7831,127.74031,platform,bus_stop,갈골교,춘천시,공공데이터포털,2019-11-27
37.7828,127.74034,platform,bus_stop,갈골교,춘천시,공공데이터포털,2019-11-27
37.86435,127.72513,platform,bus_stop,남춘천역종점,춘천시,공공데이터포털,2019-11-27
37.8615,127.7274,platform,bus_stop,케이티앤지,춘천시,공공데이터포털,2019-11-27
37.86071,127.733,platform,bus_stop,휴먼시아2차,춘천시,공공데이터포털,2019-11-27
37.86087,127.7332,platform,bus_stop,휴먼시아1차,춘천시,공공데이터포털,2019-11-27
37.8617,127.729,platform,bus_stop,(구)남춘천역,춘천시,공공데이터포털,2019-11-27
37.86379,127.7281,platform,bus_stop,(구)안디옥교회입구,춘천시,공공데이터포털,2019-11-27
37.85789,127.73464,platform,bus_stop,퇴계환승센터,춘천시,공공데이터포털,2019-11-27
37.85723,127.73525,platform,bus_stop,퇴계환승센터,춘천시,공공데이터포털,2019-11-27
37.8525,127.7471,platform,bus_stop,퇴계동/스무숲성당,춘천시,공공데이터포털,2019-11-27
38.028,127.8171,platform,bus_stop,간척사거리,춘천시,공공데이터포털,2019-11-27
37.89437,127.8206,platform,bus_stop,느랏재터널입구,춘천시,공공데이터포털,2019-11-27
37.88567,127.81886,platform,bus_stop,느랏재터널입구,춘천시,공공데이터포털,2019-11-27
37.94769,127.81209,platform,bus_stop,소양강댐정상,춘천시,공공데이터포털,2019-11-27
38.028,127.8171,platform,bus_stop,간척사거리,춘천시,공공데이터포털,2019-11-27
37.98042,127.81775,platform,bus_stop,청평사종점,춘천시,공공데이터포털,2019-11-27
38.01914,127.81653,platform,bus_stop,기도원입구,춘천시,공공데이터포털,2019-11-27
37.85737,127.73965,platform,bus_stop,석사교사거리,춘천시,공공데이터포털,2019-11-27
37.98555,127.70025,platform,bus_stop,전원주택입구,춘천시,공공데이터포털,2019-11-27
37.98582,127.70038,platform,bus_stop,전원주택입구,춘천시,공공데이터포털,2019-11-27
37.88858,127.75105,platform,bus_stop,동광길입구,춘천시,공공데이터포털,2019-11-27
37.86973,127.72791,platform,bus_stop,수협,춘천시,공공데이터포털,2019-11-27
37.91481,127.70589,platform,bus_stop,월송2리입구,춘천시,공공데이터포털,2019-11-27
37.91482,127.70613,platform,bus_stop,월송2리입구,춘천시,공공데이터포털,2019-11-27
37.90071,127.66398,platform,bus_stop,장절공입구,춘천시,공공데이터포털,2019-11-27
37.90061,127.6641,platform,bus_stop,장절공입구,춘천시,공공데이터포털,2019-11-27
37.98254,127.6959,platform,bus_stop,호수요양병원,춘천시,공공데이터포털,2019-11-27
37.93405,127.7518,platform,bus_stop,율문3리입구,춘천시,공공데이터포털,2019-11-27
37.9881,127.70943,platform,bus_stop,고탄농협,춘천시,공공데이터포털,2019-11-27
37.98821,127.70928,platform,bus_stop,고탄농협,춘천시,공공데이터포털,2019-11-27
37.81891,127.56503,platform,bus_stop,백양1리,춘천시,공공데이터포털,2019-11-27
37.7237,127.54571,platform,bus_stop,박암리,춘천시,공공데이터포털,2019-11-27
37.724,127.5457,platform,bus_stop,박암리,춘천시,공공데이터포털,2019-11-27
37.72528,127.54382,platform,bus_stop,박암리,춘천시,공공데이터포털,2019-11-27
37.7252,127.54401,platform,bus_stop,박암리,춘천시,공공데이터포털,2019-11-27
37.89101,127.7499,platform,bus_stop,공단입구,춘천시,공공데이터포털,2019-11-27
37.89086,127.74996,platform,bus_stop,공단입구,춘천시,공공데이터포털,2019-11-27
38.04967,127.60929,platform,bus_stop,오탄2리입구,춘천시,공공데이터포털,2019-11-27
38.05073,127.61007,platform,bus_stop,오탄3리입구,춘천시,공공데이터포털,2019-11-27
37.79906,127.71267,platform,bus_stop,삼포,춘천시,공공데이터포털,2019-11-27
37.93805,127.77834,platform,bus_stop,방아간앞,춘천시,공공데이터포털,2019-11-27
37.93931,127.77932,platform,bus_stop,침례교회앞,춘천시,공공데이터포털,2019-11-27
37.94188,127.7793,platform,bus_stop,원정사입구,춘천시,공공데이터포털,2019-11-27
37.94605,127.77861,platform,bus_stop,유포리,춘천시,공공데이터포털,2019-11-27
37.9341,127.77473,platform,bus_stop,국유림관리소앞,춘천시,공공데이터포털,2019-11-27
37.85547,127.85525,platform,bus_stop,상걸2리,춘천시,공공데이터포털,2019-11-27
37.85477,127.8561,platform,bus_stop,상걸2리,춘천시,공공데이터포털,2019-11-27
37.75663,127.56784,platform,bus_stop,한화제약입구,춘천시,공공데이터포털,2019-11-27
37.75686,127.5675,platform,bus_stop,한화제약입구,춘천시,공공데이터포털,2019-11-27
37.73051,127.5292,platform,bus_stop,박암리,춘천시,공공데이터포털,2019-11-27
37.87869,127.71219,platform,bus_stop,부강연립앞,춘천시,공공데이터포털,2019-11-27
37.85903,127.61665,platform,bus_stop,당림1리3반,춘천시,공공데이터포털,2019-11-27
37.846,127.60552,platform,bus_stop,당림1리5반,춘천시,공공데이터포털,2019-11-27
37.84255,127.60803,platform,bus_stop,풀무원입구,춘천시,공공데이터포털,2019-11-27
37.8502,127.60195,platform,bus_stop,당림리,춘천시,공공데이터포털,2019-11-27
37.85403,127.77535,platform,bus_stop,신촌리입구,춘천시,공공데이터포털,2019-11-27
37.85301,127.60101,platform,bus_stop,당림1리5반,춘천시,공공데이터포털,2019-11-27
37.87423,127.64075,platform,bus_stop,덕두원주말농장,춘천시,공공데이터포털,2019-11-27
37.8742,127.64089,platform,bus_stop,덕두원주말농장,춘천시,공공데이터포털,2019-11-27
37.70885,127.67589,platform,bus_stop,산수1리,춘천시,공공데이터포털,2019-11-27
37.8861,127.74819,platform,bus_stop,강원도시가스,춘천시,공공데이터포털,2019-11-27
37.88591,127.7479,platform,bus_stop,강원도시가스,춘천시,공공데이터포털,2019-11-27
37.89382,127.73183,platform,bus_stop,소양1교,춘천시,공공데이터포털,2019-11-27
37.89379,127.72952,platform,bus_stop,소양로1가,춘천시,공공데이터포털,2019-11-27
37.88912,127.71776,platform,bus_stop,평화공원,춘천시,공공데이터포털,2019-11-27
37.88902,127.71811,platform,bus_stop,평화공원,춘천시,공공데이터포털,2019-11-27
37.87849,127.71178,platform,bus_stop,부강연립,춘천시,공공데이터포털,2019-11-27
37.86634,127.73784,platform,bus_stop,강원대정문,춘천시,공공데이터포털,2019-11-27
37.86658,127.73786,platform,bus_stop,강원대정문,춘천시,공공데이터포털,2019-11-27
37.87219,127.74127,platform,bus_stop,자연과학대학쪽문,춘천시,공공데이터포털,2019-11-27
37.87204,127.74097,platform,bus_stop,강원학생과학관입구,춘천시,공공데이터포털,2019-11-27
37.93013,127.78151,platform,bus_stop,천전삼거리,춘천시,공공데이터포털,2019-11-27
37.93391,127.78335,platform,bus_stop,상천초교입구,춘천시,공공데이터포털,2019-11-27
37.93384,127.78315,platform,bus_stop,상천초교입구,춘천시,공공데이터포털,2019-11-27
37.86672,127.75832,platform,bus_stop,롯데마트석사점,춘천시,공공데이터포털,2019-11-27
37.86672,127.75846,platform,bus_stop,롯데마트석사점,춘천시,공공데이터포털,2019-11-27
37.85055,127.7487,platform,bus_stop,스무숲입구,춘천시,공공데이터포털,2019-11-27
37.85151,127.74465,platform,bus_stop,고용노동부,춘천시,공공데이터포털,2019-11-27
37.8591,127.6928,platform,bus_stop,강원체고앞,춘천시,공공데이터포털,2019-11-27
37.85909,127.6925,platform,bus_stop,강원체고앞,춘천시,공공데이터포털,2019-11-27
37.94298,127.78518,platform,bus_stop,춘천공원묘지,춘천시,공공데이터포털,2019-11-27
37.79474,127.64108,platform,bus_stop,노일교,춘천시,공공데이터포털,2019-11-27
37.79484,127.64107,platform,bus_stop,노일교,춘천시,공공데이터포털,2019-11-27
37.78095,127.74001,platform,bus_stop,갈골,춘천시,공공데이터포털,2019-11-27
37.98989,127.6932,platform,bus_stop,솔바우마을,춘천시,공공데이터포털,2019-11-27
37.87461,127.71295,platform,bus_stop,서부지구대,춘천시,공공데이터포털,2019-11-27
37.78552,127.6465,platform,bus_stop,창촌2리입구,춘천시,공공데이터포털,2019-11-27
37.78548,127.64664,platform,bus_stop,창촌2리입구,춘천시,공공데이터포털,2019-11-27
37.78381,127.64121,platform,bus_stop,창촌농공단지,춘천시,공공데이터포털,2019-11-27
37.796,127.71229,platform,bus_stop,삼포유원지,춘천시,공공데이터포털,2019-11-27
37.79575,127.71249,platform,bus_stop,삼포유원지,춘천시,공공데이터포털,2019-11-27
37.77559,127.7141,platform,bus_stop,혈동1리,춘천시,공공데이터포털,2019-11-27
37.77319,127.71338,platform,bus_stop,덕만리혈동1리입구,춘천시,공공데이터포털,2019-11-27
37.78474,127.64315,platform,bus_stop,보매기,춘천시,공공데이터포털,2019-11-27
37.88716,127.76399,platform,bus_stop,춘천여고,춘천시,공공데이터포털,2019-11-27
37.94865,127.7618,platform,bus_stop,유포1리,춘천시,공공데이터포털,2019-11-27
37.92935,127.69207,platform,bus_stop,월송1리,춘천시,공공데이터포털,2019-11-27
37.93055,127.69655,platform,bus_stop,월송1리,춘천시,공공데이터포털,2019-11-27
37.83785,127.53307,platform,bus_stop,서천2리,춘천시,공공데이터포털,2019-11-27
37.84316,127.54411,platform,bus_stop,서천1리,춘천시,공공데이터포털,2019-11-27
37.84327,127.5453,platform,bus_stop,서천1리,춘천시,공공데이터포털,2019-11-27
37.72662,127.58925,platform,bus_stop,충의대교,춘천시,공공데이터포털,2019-11-27
37.8553,127.78532,platform,bus_stop,신촌1리,춘천시,공공데이터포털,2019-11-27
37.8551,127.78535,platform,bus_stop,신촌1리,춘천시,공공데이터포털,2019-11-27
37.74733,127.67478,platform,bus_stop,행촌리종점,춘천시,공공데이터포털,2019-11-27
37.85075,127.73406,platform,bus_stop,홈플러스,춘천시,공공데이터포털,2019-11-27
37.88426,127.75938,platform,bus_stop,만천주공A,춘천시,공공데이터포털,2019-11-27
37.88436,127.75937,platform,bus_stop,만천주공A,춘천시,공공데이터포털,2019-11-27
37.79999,127.71957,platform,bus_stop,새고개,춘천시,공공데이터포털,2019-11-27
37.83593,127.5554,platform,bus_stop,서천분교,춘천시,공공데이터포털,2019-11-27
37.83619,127.55523,platform,bus_stop,서천분교,춘천시,공공데이터포털,2019-11-27
37.73213,127.60257,platform,bus_stop,발산1리1반,춘천시,공공데이터포털,2019-11-27
37.73206,127.602,platform,bus_stop,발산1리1반,춘천시,공공데이터포털,2019-11-27
37.83722,127.6079,platform,bus_stop,당림초교,춘천시,공공데이터포털,2019-11-27
37.86084,127.77386,platform,bus_stop,거두1리1반,춘천시,공공데이터포털,2019-11-27
37.9436,127.72798,platform,bus_stop,지내리,춘천시,공공데이터포털,2019-11-27
37.90007,127.78819,platform,bus_stop,합동교,춘천시,공공데이터포털,2019-11-27
37.87507,127.7809,platform,bus_stop,만천3리,춘천시,공공데이터포털,2019-11-27
37.93036,127.73416,platform,bus_stop,올미,춘천시,공공데이터포털,2019-11-27
37.93038,127.73428,platform,bus_stop,올미,춘천시,공공데이터포털,2019-11-27
37.83387,127.605,platform,bus_stop,당림리,춘천시,공공데이터포털,2019-11-27
37.89487,127.6892,platform,bus_stop,방동리입구,춘천시,공공데이터포털,2019-11-27
37.93532,127.6611,platform,bus_stop,서상마을회관,춘천시,공공데이터포털,2019-11-27
37.93649,127.67055,platform,bus_stop,서상2리,춘천시,공공데이터포털,2019-11-27
37.93805,127.67701,platform,bus_stop,서상2리,춘천시,공공데이터포털,2019-11-27
37.93611,127.6649,platform,bus_stop,서상2리,춘천시,공공데이터포털,2019-11-27
37.73582,127.69132,platform,bus_stop,우러니입구,춘천시,공공데이터포털,2019-11-27
37.82917,127.6011,platform,bus_stop,강촌수련원앞,춘천시,공공데이터포털,2019-11-27
37.85747,127.6623,platform,bus_stop,덕두원2리1반,춘천시,공공데이터포털,2019-11-27
37.82007,127.76238,platform,bus_stop,검문소종점,춘천시,공공데이터포털,2019-11-27
37.82083,127.76223,platform,bus_stop,한국산업인력공단,춘천시,공공데이터포털,2019-11-27
37.77566,127.6402,platform,bus_stop,창촌3리2반,춘천시,공공데이터포털,2019-11-27
37.72338,127.51235,platform,bus_stop,관천리종점,춘천시,공공데이터포털,2019-11-27
37.96099,127.74758,platform,bus_stop,산천2리종점,춘천시,공공데이터포털,2019-11-27
37.97751,127.90441,platform,bus_stop,오항리종점,춘천시,공공데이터포털,2019-11-27
37.98044,127.81763,platform,bus_stop,청평사종점,춘천시,공공데이터포털,2019-11-27
38.00188,127.73786,platform,bus_stop,양통종점,춘천시,공공데이터포털,2019-11-27
38.05263,127.58151,platform,bus_stop,오탄리종점,춘천시,공공데이터포털,2019-11-27
37.77338,127.67903,platform,bus_stop,수동1리종점,춘천시,공공데이터포털,2019-11-27
37.77674,127.62605,platform,bus_stop,창촌3리종점,춘천시,공공데이터포털,2019-11-27
37.77156,127.69999,platform,bus_stop,혈동1리종점,춘천시,공공데이터포털,2019-11-27
37.79874,127.73104,platform,bus_stop,증4리,춘천시,공공데이터포털,2019-11-27
37.78527,127.68745,platform,bus_stop,혈동2리종점,춘천시,공공데이터포털,2019-11-27
37.93438,127.65796,platform,bus_stop,서상2리종점,춘천시,공공데이터포털,2019-11-27
37.90907,127.66556,platform,bus_stop,방동리종점,춘천시,공공데이터포털,2019-11-27
37.81032,127.57326,platform,bus_stop,백양리종점,춘천시,공공데이터포털,2019-11-27
37.95236,127.77681,platform,bus_stop,유포2리종점,춘천시,공공데이터포털,2019-11-27
37.76331,127.5774,platform,bus_stop,가정리종점,춘천시,공공데이터포털,2019-11-27
37.9628,127.76644,platform,bus_stop,발산리종점,춘천시,공공데이터포털,2019-11-27
37.86114,127.78735,platform,bus_stop,거두2리마을회관,춘천시,공공데이터포털,2019-11-27
37.94648,127.7075,platform,bus_stop,용산3리종점,춘천시,공공데이터포털,2019-11-27
37.95975,127.72099,platform,bus_stop,지내2리마을회관,춘천시,공공데이터포털,2019-11-27
37.92629,127.73725,platform,bus_stop,올미종점,춘천시,공공데이터포털,2019-11-27
37.97542,127.59532,platform,bus_stop,지암리종점,춘천시,공공데이터포털,2019-11-27
37.7892,127.73137,platform,bus_stop,재취골,춘천시,공공데이터포털,2019-11-27
37.7511,127.83273,platform,bus_stop,조양3리종점,춘천시,공공데이터포털,2019-11-27
37.77383,127.81239,platform,bus_stop,봉명리종점,춘천시,공공데이터포털,2019-11-27
37.79721,127.61657,platform,bus_stop,구곡폭포종점,춘천시,공공데이터포털,2019-11-27
37.84989,127.57649,platform,bus_stop,안보2리종점,춘천시,공공데이터포털,2019-11-27
37.86235,127.61857,platform,bus_stop,당림3반종점,춘천시,공공데이터포털,2019-11-27
37.88322,127.6294,platform,bus_stop,덕두2리종점,춘천시,공공데이터포털,2019-11-27
37.78371,127.64133,platform,bus_stop,창총농공단지,춘천시,공공데이터포털,2019-11-27
37.78819,127.62929,platform,bus_stop,방곡2리종점,춘천시,공공데이터포털,2019-11-27
37.80988,127.67907,platform,bus_stop,설미종점,춘천시,공공데이터포털,2019-11-27
37.92263,127.80804,platform,bus_stop,월곡리종점,춘천시,공공데이터포털,2019-11-27
37.91701,127.67544,platform,bus_stop,월송3리종점,춘천시,공공데이터포털,2019-11-27
37.89259,127.68981,platform,bus_stop,애니메이션박물관,춘천시,공공데이터포털,2019-11-27
37.96632,127.62511,platform,bus_stop,오월리종점,춘천시,공공데이터포털,2019-11-27
37.86949,127.73786,platform,bus_stop,공대후문,춘천시,공공데이터포털,2019-11-27
37.86949,127.73809,platform,bus_stop,공대후문,춘천시,공공데이터포털,2019-11-27
37.926,127.68595,platform,bus_stop,가재미마을,춘천시,공공데이터포털,2019-11-27
37.9292,127.68391,platform,bus_stop,월송1리,춘천시,공공데이터포털,2019-11-27
37.92797,127.68006,platform,bus_stop,월송1리,춘천시,공공데이터포털,2019-11-27
37.91846,127.69365,platform,bus_stop,월송2리,춘천시,공공데이터포털,2019-11-27
37.73669,127.65824,platform,bus_stop,삽다리고개,춘천시,공공데이터포털,2019-11-27
38.02973,127.8803,platform,bus_stop,추곡리,춘천시,공공데이터포털,2019-11-27
37.77079,127.64252,platform,bus_stop,창촌3리삼거리,춘천시,공공데이터포털,2019-11-27
37.76463,127.6274,platform,bus_stop,전력산업단지,춘천시,공공데이터포털,2019-11-27
38.00304,127.81564,platform,bus_stop,백치고개정상,춘천시,공공데이터포털,2019-11-27
37.74378,127.71165,platform,bus_stop,광판삼거리,춘천시,공공데이터포털,2019-11-27
37.98248,127.6956,platform,bus_stop,호수요양병원,춘천시,공공데이터포털,2019-11-27
37.86158,127.79178,platform,bus_stop,거두리종점,춘천시,공공데이터포털,2019-11-27
37.88698,127.76414,platform,bus_stop,춘천여고입구,춘천시,공공데이터포털,2019-11-27
37.88424,127.72593,platform,bus_stop,한신휴플러스,춘천시,공공데이터포털,2019-11-27
37.88427,127.72612,platform,bus_stop,e편한세상,춘천시,공공데이터포털,2019-11-27
37.83983,127.76679,platform,bus_stop,사암2리마을회관,춘천시,공공데이터포털,2019-11-27
37.83562,127.77047,platform,bus_stop,사암2리,춘천시,공공데이터포털,2019-11-27
37.86035,127.7697,platform,bus_stop,거두1리1반,춘천시,공공데이터포털,2019-11-27
37.82373,127.76405,platform,bus_stop,사암4리,춘천시,공공데이터포털,2019-11-27
37.82608,127.76766,platform,bus_stop,사암리,춘천시,공공데이터포털,2019-11-27
37.82742,127.68163,platform,bus_stop,의암리입구,춘천시,공공데이터포털,2019-11-27
37.82757,127.68137,platform,bus_stop,의암리입구,춘천시,공공데이터포털,2019-11-27
37.82282,127.76312,platform,bus_stop,학곡리,춘천시,공공데이터포털,2019-11-27
37.79941,127.72803,platform,bus_stop,증4리,춘천시,공공데이터포털,2019-11-27
37.89386,127.75562,platform,bus_stop,장학교차로,춘천시,공공데이터포털,2019-11-27
37.89708,127.75407,platform,bus_stop,장학해온채A,춘천시,공공데이터포털,2019-11-27
37.8983,127.75377,platform,bus_stop,장학해온채A,춘천시,공공데이터포털,2019-11-27
37.88369,127.72033,platform,bus_stop,꿈자람어린이공원,춘천시,공공데이터포털,2019-11-27
37.88362,127.7201,platform,bus_stop,꿈자람어린이공원,춘천시,공공데이터포털,2019-11-27
37.85664,127.75679,platform,bus_stop,성우호반통학,춘천시,공공데이터포털,2019-11-27
38.04559,127.6052,platform,bus_stop,우레골입구,춘천시,공공데이터포털,2019-11-27
37.96821,127.6272,platform,bus_stop,오월2리,춘천시,공공데이터포털,2019-11-27
37.96969,127.62918,platform,bus_stop,오월2리,춘천시,공공데이터포털,2019-11-27
37.97157,127.63555,platform,bus_stop,오월2리,춘천시,공공데이터포털,2019-11-27
37.97168,127.64079,platform,bus_stop,강원숲체험장입구,춘천시,공공데이터포털,2019-11-27
37.97515,127.64156,platform,bus_stop,오월2리,춘천시,공공데이터포털,2019-11-27
37.97862,127.64305,platform,bus_stop,오월리납실교,춘천시,공공데이터포털,2019-11-27
37.79945,127.72807,platform,bus_stop,증4리,춘천시,공공데이터포털,2019-11-27
37.89681,127.7635,platform,bus_stop,장학1리마을회관,춘천시,공공데이터포털,2019-11-27
37.89696,127.7635,platform,bus_stop,장학1리마을회관,춘천시,공공데이터포털,2019-11-27
37.91388,127.75504,platform,bus_stop,하일종점,춘천시,공공데이터포털,2019-11-27
37.9137,127.75688,platform,bus_stop,하일,춘천시,공공데이터포털,2019-11-27
