위도,경도,highway,public_transport,bus,name,source,source:date,addr:subdistrict
37.47394,129.04435,bus_stop,platform,yes,쌍용자원개발(무릉방면),공공데이터포털,2020-11-24,삼화동
37.47335,129.04391,bus_stop,platform,yes,쌍용자원개발(대동.북평방면),공공데이터포털,2020-11-24,삼화동
37.47683,129.04788,bus_stop,platform,yes,쌍용후문종점(대동.북평방면),공공데이터포털,2020-11-24,삼화동
37.47685,129.04776,bus_stop,platform,yes,쌍용후문(무릉방면),공공데이터포털,2020-11-24,삼화동
37.55337,129.11958,bus_stop,platform,yes,갈매기횟집(발한.시청방면),공공데이터포털,2020-11-24,묵호진동
37.55337,129.1197,bus_stop,platform,yes,갈매기횟집(대진방면),공공데이터포털,2020-11-24,묵호진동
37.57088,129.0757,bus_stop,platform,yes,갈전교앞(발한.시청방면),공공데이터포털,2020-11-24,만우동
37.57087,129.07562,bus_stop,platform,yes,갈전교앞(만우방면),공공데이터포털,2020-11-24,만우동
37.51443,129.12441,bus_stop,platform,yes,평생교육센터(북평.대동방면),공공데이터포털,2020-11-24,용정동
37.51541,129.12438,bus_stop,platform,yes,감추사(시청.발한방면),공공데이터포털,2020-11-24,천곡동
37.57537,129.0799,bus_stop,platform,yes,동해직업전문학교(발한.시청방면),공공데이터포털,2020-11-24,초구동
37.57537,129.07991,bus_stop,platform,yes,동해직업전문학교(만우방면),공공데이터포털,2020-11-24,초구동
37.49232,129.10936,bus_stop,platform,yes,건강증진센터(시청방면),공공데이터포털,2020-11-24,효가동
37.51481,129.11862,bus_stop,platform,yes,행복드림.경포아파트(북평.대동방면),공공데이터포털,2020-11-24,천곡동
37.51518,129.11872,bus_stop,platform,yes,행복드림아파트(시청.발한방면),공공데이터포털,2020-11-24,천곡동
37.53637,129.10305,bus_stop,platform,yes,(구)고속버스터미널(시청.북평방면),공공데이터포털,2020-11-24,부곡동
37.53622,129.10357,bus_stop,platform,yes,(구)고속버스터미널(발한.옥계방면),공공데이터포털,2020-11-24,부곡동
37.51937,129.0477,bus_stop,platform,yes,비천종점(비천종점),공공데이터포털,2020-11-24,비천동
37.49283,129.1079,bus_stop,platform,yes,북삼농협뒤(대동.북평방면),공공데이터포털,2020-11-24,효가동
37.4929,129.1081,bus_stop,platform,yes,북삼농협뒤(한중대방면),공공데이터포털,2020-11-24,효가동
37.49017,129.10086,bus_stop,platform,yes,광희고등학교앞(무릉.신흥방면),공공데이터포털,2020-11-24,동회동
37.49006,129.10135,bus_stop,platform,yes,광희중.고등학교앞(대동.북평방면),공공데이터포털,2020-11-24,동회동
37.47897,129.0964,bus_stop,platform,yes,귀운(북평.시청방면),공공데이터포털,2020-11-24,귀운동
37.47901,129.09641,bus_stop,platform,yes,귀운(삼화방면),공공데이터포털,2020-11-24,귀운동
37.59584,129.08287,bus_stop,platform,yes,기곡(옥계방면),공공데이터포털,2020-11-24,망상동
37.59572,129.08286,bus_stop,platform,yes,기곡(발한.시청방면),공공데이터포털,2020-11-24,망상동
37.59574,129.0828,bus_stop,platform,yes,기곡(만우방면),공공데이터포털,2020-11-24,망상동
37.50635,129.12636,bus_stop,platform,yes,기상대(북평.대동방면),공공데이터포털,2020-11-24,용정동
37.50705,129.12606,bus_stop,platform,yes,용정삼거리(시청.발한방면),공공데이터포털,2020-11-24,용정동
37.55643,129.12111,bus_stop,platform,yes,삼양비치타워(발한.시청방면),공공데이터포털,2020-11-24,묵호진동
37.55662,129.12127,bus_stop,platform,yes,삼양회센터(대진방면),공공데이터포털,2020-11-24,묵호진동
37.48505,129.1121,bus_stop,platform,yes,나안마을(대동.무릉방면),공공데이터포털,2020-11-24,나안동
37.48486,129.11191,bus_stop,platform,yes,나안마을(북평.시청방면),공공데이터포털,2020-11-24,나안동
37.584,129.10029,bus_stop,platform,yes,노봉(발한.시청방면),공공데이터포털,2020-11-24,망상동
37.5844,129.10041,bus_stop,platform,yes,노봉(옥계방면),공공데이터포털,2020-11-24,망상동
37.51572,129.12268,bus_stop,platform,yes,노인종합복지관(북평.대동방면),공공데이터포털,2020-11-24,천곡동
37.54496,129.10309,bus_stop,platform,yes,농수산물시장(시청.북평방면),공공데이터포털,2020-11-24,발한동
37.54562,129.10397,bus_stop,platform,yes,농수산물시장(발한.옥계방면),공공데이터포털,2020-11-24,발한동
37.52061,129.11422,bus_stop,platform,yes,주공2차아파트(시청.발한방면),공공데이터포털,2020-11-24,천곡동
37.52075,129.11404,bus_stop,platform,yes,주공2차아파트(북평.대동방면),공공데이터포털,2020-11-24,천곡동
37.4752,129.12422,bus_stop,platform,yes,단봉동(추암방면),공공데이터포털,2020-11-24,단봉동
37.47537,129.1243,bus_stop,platform,yes,단봉연당(단봉방면),공공데이터포털,2020-11-24,단봉동
37.46867,129.11453,bus_stop,platform,yes,단봉종점(추암방면),공공데이터포털,2020-11-24,단봉동
37.50227,129.04456,bus_stop,platform,yes,달방댐(비천.신흥방면),공공데이터포털,2020-11-24,이로동
37.50224,129.04446,bus_stop,platform,yes,달방댐(대동.북평방면),공공데이터포털,2020-11-24,이로동
37.50621,129.02113,bus_stop,platform,yes,달방마을( ),공공데이터포털,2020-11-24,달방동
37.50788,129.03751,bus_stop,platform,yes,달방댐(신흥방면),공공데이터포털,2020-11-24,달방동
37.50779,129.03755,bus_stop,platform,yes,달방댐(대동.북평방면),공공데이터포털,2020-11-24,이로동
37.47071,129.14071,bus_stop,platform,yes,대구동(북평.시청방면),공공데이터포털,2020-11-24,대구동
37.47089,129.1402,bus_stop,platform,yes,대구동(북평.삼척방면),공공데이터포털,2020-11-24,대구동
37.46653,129.13521,bus_stop,platform,yes,대구마을( ),공공데이터포털,2020-11-24,대구동
37.46651,129.13525,bus_stop,platform,yes,대구마을( ),공공데이터포털,2020-11-24,대구동
37.48604,129.10543,bus_stop,platform,yes,대동.부영아파트단지(대동방면),공공데이터포털,2020-11-24,쇄운동
37.55215,129.11239,bus_stop,platform,yes,대동상회(발한.시청방면),공공데이터포털,2020-11-24,묵호진동
37.55196,129.11242,bus_stop,platform,yes,대동상회(대진방면),공공데이터포털,2020-11-24,발한동
37.47413,129.13013,bus_stop,platform,yes,대동석재(단봉방면),공공데이터포털,2020-11-24,대구동
37.47389,129.13037,bus_stop,platform,yes,대동석재(추암방면),공공데이터포털,2020-11-24,대구동
37.48621,129.10855,bus_stop,platform,yes,대동아파트(무릉.신흥방면),공공데이터포털,2020-11-24,쇄운동
37.48602,129.10859,bus_stop,platform,yes,대동아파트(북평.시청방면),공공데이터포털,2020-11-24,쇄운동
37.49341,129.12463,bus_stop,platform,yes,제일안전산업(동해역방면),공공데이터포털,2020-11-24,송정동
37.49326,129.12457,bus_stop,platform,yes,주유소앞(효가.시청방면),공공데이터포털,2020-11-24,송정동
37.50678,129.10313,bus_stop,platform,yes,지흥골숫골입구(북평.삼척방면),공공데이터포털,2020-11-24,지흥동
37.50753,129.10341,bus_stop,platform,yes,북삼동숫골입구(시청방면),공공데이터포털,2020-11-24,지흥동
37.5798,129.11264,bus_stop,platform,yes,대진(발한.시청방면),공공데이터포털,2020-11-24,대진동
37.57994,129.11264,bus_stop,platform,yes,대진(대진종점),공공데이터포털,2020-11-24,대진동
37.57538,129.1167,bus_stop,platform,yes,대진등대(발한.시청방면),공공데이터포털,2020-11-24,대진동
37.57539,129.1169,bus_stop,platform,yes,대진등대(대진방면),공공데이터포털,2020-11-24,대진동
37.5776,129.11551,bus_stop,platform,yes,대진삼거리(발한.시청방면),공공데이터포털,2020-11-24,대진동
37.5781,129.11515,bus_stop,platform,yes,대진동(대진방면),공공데이터포털,2020-11-24,대진동
37.47914,129.10615,bus_stop,platform,yes,동성교회(삼화.무릉방면),공공데이터포털,2020-11-24,이도동
37.4791,129.1062,bus_stop,platform,yes,동성교회(북평.시청방면),공공데이터포털,2020-11-24,이도동
37.47212,129.13836,bus_stop,platform,yes,만리사(북평.삼척방면),공공데이터포털,2020-11-24,대구동
37.47257,129.13723,bus_stop,platform,yes,북평공단(북평.시청방면),공공데이터포털,2020-11-24,대구동
37.55525,129.11644,bus_stop,platform,yes,논골길(등대방면),공공데이터포털,2020-11-24,묵호진동
37.55373,129.11624,bus_stop,platform,yes,논골담길(대진.시청방면),공공데이터포털,2020-11-24,묵호진동
37.48287,129.12645,bus_stop,platform,yes,북평농협(북평.삼척방면),공공데이터포털,2020-11-24,북평동
37.48385,129.12596,bus_stop,platform,yes,북평동주민센터(시청.발한방면),공공데이터포털,2020-11-24,북평동
37.56774,129.07529,bus_stop,platform,yes,만우골프장(발한.시청방면),공공데이터포털,2020-11-24,만우동
37.56778,129.07516,bus_stop,platform,yes,만우골프장(만우방면),공공데이터포털,2020-11-24,만우동
37.53063,129.10449,bus_stop,platform,yes,제1함대사령부(시청.북평방면),공공데이터포털,2020-11-24,평릉동
37.53043,129.10493,bus_stop,platform,yes,제1함대사령부(발한.옥계방면),공공데이터포털,2020-11-24,평릉동
37.55821,129.12124,bus_stop,platform,yes,횟집타운(발한.시청방면),공공데이터포털,2020-11-24,묵호진동
37.55833,129.12117,bus_stop,platform,yes,꿈의궁전동해비치호텔(대진방면),공공데이터포털,2020-11-24,묵호진동
37.5231,129.11642,bus_stop,platform,yes,동해시보건소(북평.대동방면),공공데이터포털,2020-11-24,천곡동
37.52257,129.11693,bus_stop,platform,yes,동해시보건소(시청.발한방면),공공데이터포털,2020-11-24,천곡동
37.51206,129.0272,bus_stop,platform,yes,동해시승화원(신흥방면),공공데이터포털,2020-11-24,신흥동
37.51196,129.0272,bus_stop,platform,yes,동해시승화원(대동.북평방면),공공데이터포털,2020-11-24,신흥동
37.49751,129.12508,bus_stop,platform,yes,동해역(북평.추암방면),공공데이터포털,2020-11-24,송정동
37.4977,129.12526,bus_stop,platform,yes,동해역(효가.시청방면),공공데이터포털,2020-11-24,송정동
37.49837,129.12622,bus_stop,platform,yes,송정동주민센터(북평.대동방면),공공데이터포털,2020-11-24,송정동
37.49803,129.1264,bus_stop,platform,yes,도용서실(시청.발한방면),공공데이터포털,2020-11-24,송정동
37.49255,129.12427,bus_stop,platform,yes,동해항(북평.대동방면),공공데이터포털,2020-11-24,송정동
37.49255,129.12482,bus_stop,platform,yes,동해항(시청.발한방면),공공데이터포털,2020-11-24,송정동
37.48879,129.12235,bus_stop,platform,yes,동해항.송정산업단지(북평.대동방면),공공데이터포털,2020-11-24,송정동
37.48923,129.12237,bus_stop,platform,yes,동해항정문(시청.발한방면),공공데이터포털,2020-11-24,송정동
37.54204,129.10168,bus_stop,platform,yes,동호육교(시청.북평방면),공공데이터포털,2020-11-24,발한동
37.54261,129.10211,bus_stop,platform,yes,동호육교(발한.옥계방면),공공데이터포털,2020-11-24,발한동
37.55417,129.11826,bus_stop,platform,yes,묵호등대(발한.시청방면),공공데이터포털,2020-11-24,묵호진동
37.55655,129.11718,bus_stop,platform,yes,등대경로당(발한.시청방면),공공데이터포털,2020-11-24,묵호진동
37.55646,129.11714,bus_stop,platform,yes,등대경로당(묵호등대방면),공공데이터포털,2020-11-24,묵호진동
37.54607,129.10723,bus_stop,platform,yes,묵호역(시청.삼척방면),공공데이터포털,2020-11-24,발한동
37.54613,129.10761,bus_stop,platform,yes,묵호역(발한.대진방면),공공데이터포털,2020-11-24,발한동
37.55821,129.07235,bus_stop,platform,yes,만우(발한.시청방면),공공데이터포털,2020-11-24,만우동
37.56028,129.0743,bus_stop,platform,yes,만우가든(발한.시청방면),공공데이터포털,2020-11-24,만우동
37.56032,129.07425,bus_stop,platform,yes,만우가든(만우방면),공공데이터포털,2020-11-24,만우동
37.59008,129.08921,bus_stop,platform,yes,하얀팬션앞(발한.시청방면),공공데이터포털,2020-11-24,망상동
37.59002,129.08917,bus_stop,platform,yes,하얀팬션앞(만우방면),공공데이터포털,2020-11-24,망상동
37.58612,129.09874,bus_stop,platform,yes,망상역(옥계방면),공공데이터포털,2020-11-24,망상동
37.58598,129.09858,bus_stop,platform,yes,망상역앞(발한.시청방면),공공데이터포털,2020-11-24,망상동
37.59151,129.08969,bus_stop,platform,yes,망상해변(발한.시청방면),공공데이터포털,2020-11-24,망상동
37.59166,129.08982,bus_stop,platform,yes,망상해변(옥계방면),공공데이터포털,2020-11-24,망상동
37.58477,129.0927,bus_stop,platform,yes,매밑(발한.시청방면),공공데이터포털,2020-11-24,망상동
37.58481,129.09262,bus_stop,platform,yes,매밑(만우방면),공공데이터포털,2020-11-24,망상동
37.46375,129.02249,bus_stop,platform,yes,무릉계곡(무릉종점),공공데이터포털,2020-11-24,삼화동
37.46361,129.02233,bus_stop,platform,yes,무릉계곡(대동.북평방면),공공데이터포털,2020-11-24,삼화동
37.5523,129.11511,bus_stop,platform,yes,묵호동어판장앞(발한.시청방면),공공데이터포털,2020-11-24,묵호진동
37.55217,129.11635,bus_stop,platform,yes,논골입구(대진방면),공공데이터포털,2020-11-24,묵호진동
37.55905,129.10381,bus_stop,platform,yes,묵호여중(발한.시청방면),공공데이터포털,2020-11-24,발한동
37.55976,129.10363,bus_stop,platform,yes,묵호여중(옥계방면),공공데이터포털,2020-11-24,발한동
37.54714,129.10613,bus_stop,platform,yes,동해프라자(시청.북평방면),공공데이터포털,2020-11-24,발한동
37.54696,129.10638,bus_stop,platform,yes,동해프라자(발한.옥계방면),공공데이터포털,2020-11-24,발한동
37.55903,129.11317,bus_stop,platform,yes,묵호LH아파트(발한.시청방면),공공데이터포털,2020-11-24,묵호진동
37.55887,129.11272,bus_stop,platform,yes,묵호LH아파트(묵호등대방면),공공데이터포털,2020-11-24,묵호진동
37.55051,129.10972,bus_stop,platform,yes,조은내과앞(발한.시청방면),공공데이터포털,2020-11-24,발한동
37.55064,129.11012,bus_stop,platform,yes,항만입구(대진방면),공공데이터포털,2020-11-24,발한동
37.49566,129.10287,bus_stop,platform,yes,북삼주민공원(한중대방면),공공데이터포털,2020-11-24,지흥동
37.49541,129.10299,bus_stop,platform,yes,미미문구(대동.시청방면),공공데이터포털,2020-11-24,지흥동
37.56377,129.11937,bus_stop,platform,yes,마을슈퍼(발한.시청방면),공공데이터포털,2020-11-24,어달동
37.56383,129.11943,bus_stop,platform,yes,민박식당(대진방면),공공데이터포털,2020-11-24,어달동
37.51763,129.11428,bus_stop,platform,yes,박정형외과앞(북평.대동방면),공공데이터포털,2020-11-24,천곡동
37.51782,129.11413,bus_stop,platform,yes,혜원빌라입구(시청.발한방면),공공데이터포털,2020-11-24,천곡동
37.54868,129.10869,bus_stop,platform,yes,발한삼거리(시청.북평방면),공공데이터포털,2020-11-24,발한동
37.54856,129.10896,bus_stop,platform,yes,우리은행앞(옥계방면),공공데이터포털,2020-11-24,발한동
37.53848,129.10454,bus_stop,platform,yes,방열창고(시청.북평방면),공공데이터포털,2020-11-24,부곡동
37.53876,129.10392,bus_stop,platform,yes,방열창고(발한.망상방면),공공데이터포털,2020-11-24,부곡동
37.48024,129.11044,bus_stop,platform,yes,배골경로당(삼화.무릉방면),공공데이터포털,2020-11-24,이도동
37.48022,129.11024,bus_stop,platform,yes,배골(북평.시청방면),공공데이터포털,2020-11-24,이도동
37.51187,129.12523,bus_stop,platform,yes,범주성지아파트(북평.대동방면),공공데이터포털,2020-11-24,용정동
37.51294,129.12518,bus_stop,platform,yes,범주성지아파트(시청.발한방면),공공데이터포털,2020-11-24,용정동
37.49235,129.11236,bus_stop,platform,yes,효가동변전소(북평.삼척방면),공공데이터포털,2020-11-24,효가동
37.49264,129.11246,bus_stop,platform,yes,효가동변전소(시청.발한방면),공공데이터포털,2020-11-24,효가동
37.50994,129.11882,bus_stop,platform,yes,봉오동(북평.대동방면),공공데이터포털,2020-11-24,용정동
37.50997,129.11895,bus_stop,platform,yes,봉오동(시청.발한방면),공공데이터포털,2020-11-24,용정동
37.53659,129.11251,bus_stop,platform,yes,동해교육도서관(시청.북평방면),공공데이터포털,2020-11-24,부곡동
37.53707,129.11224,bus_stop,platform,yes,동해교육도서관(발한.망상방면),공공데이터포털,2020-11-24,부곡동
37.53922,129.10156,bus_stop,platform,yes,부곡파출소(시청.북평방면),공공데이터포털,2020-11-24,부곡동
37.53937,129.10194,bus_stop,platform,yes,부곡삼거리(발한.옥계방면),공공데이터포털,2020-11-24,발한동
37.49164,129.10393,bus_stop,platform,yes,북삼도서관(무릉.신흥방면),공공데이터포털,2020-11-24,동회동
37.49164,129.10467,bus_stop,platform,yes,북삼도서관(대동.북평방면),공공데이터포털,2020-11-24,동회동
37.49255,129.10734,bus_stop,platform,yes,북삼우체국(무릉.신흥방면),공공데이터포털,2020-11-24,동회동
37.49227,129.10785,bus_stop,platform,yes,북평고등학교(대동.북평방면),공공데이터포털,2020-11-24,동회동
37.49623,129.10125,bus_stop,platform,yes,북삼초등학교(한중대방면),공공데이터포털,2020-11-24,지흥동
37.49628,129.10047,bus_stop,platform,yes,북삼초등학교(대동.시청방면),공공데이터포털,2020-11-24,지흥동
37.49077,129.10838,bus_stop,platform,yes,북평고등학교(무릉.신흥방면),공공데이터포털,2020-11-24,동회동
37.49062,129.10826,bus_stop,platform,yes,북평고등학교(대동.북평방면),공공데이터포털,2020-11-24,동회동
37.47549,129.13254,bus_stop,platform,yes,북평국가산업단지(북평.삼척방면),공공데이터포털,2020-11-24,대구동
37.47543,129.13287,bus_stop,platform,yes,북평국가산업단지(북평.시청방면),공공데이터포털,2020-11-24,구미동
37.48058,129.12841,bus_stop,platform,yes,북평중앙사거리(북평.삼척방면),공공데이터포털,2020-11-24,구미동
37.48113,129.12828,bus_stop,platform,yes,북평장터(북평.시청방면),공공데이터포털,2020-11-24,구미동
37.48113,129.12084,bus_stop,platform,yes,북평주공2차아파트앞(대동.무릉방면),공공데이터포털,2020-11-24,북평동
37.48137,129.12168,bus_stop,platform,yes,북평주공2차아파트앞(북평.시청방면),공공데이터포털,2020-11-24,북평동
37.48324,129.12526,bus_stop,platform,yes,북평우체국(대동.무릉방면),공공데이터포털,2020-11-24,북평동
37.49815,129.1106,bus_stop,platform,yes,샘터(북평.삼척방면),공공데이터포털,2020-11-24,효가동
37.49826,129.11088,bus_stop,platform,yes,북평중학교(시청.발한방면),공공데이터포털,2020-11-24,효가동
37.49807,129.11546,bus_stop,platform,yes,북평중(등교)(시청.발한방면),공공데이터포털,2020-11-24,효가동
37.48208,129.12317,bus_stop,platform,yes,북평초교(시청.발한방면),공공데이터포털,2020-11-24,북평동
37.48218,129.12302,bus_stop,platform,yes,북평초교앞(대동.무릉방면),공공데이터포털,2020-11-24,북평동
37.55589,129.10438,bus_stop,platform,yes,사문재(발한.시청방면),공공데이터포털,2020-11-24,발한동
37.55606,129.10458,bus_stop,platform,yes,사문재(옥계방면),공공데이터포털,2020-11-24,발한동
37.56143,129.10173,bus_stop,platform,yes,자매공원(발한.시청방면),공공데이터포털,2020-11-24,발한동
37.56205,129.10145,bus_stop,platform,yes,사문재(옥계방면),공공데이터포털,2020-11-24,발한동
37.57918,129.08485,bus_stop,platform,yes,삼곡소류지(발한.시청방면),공공데이터포털,2020-11-24,심곡동
37.57913,129.08481,bus_stop,platform,yes,삼곡소류지(만우방면),공공데이터포털,2020-11-24,심곡동
37.55921,129.11436,bus_stop,platform,yes,삼본아파트(발한.시청방면),공공데이터포털,2020-11-24,묵호진동
37.55906,129.11428,bus_stop,platform,yes,삼본아파트(묵호등대방면),공공데이터포털,2020-11-24,묵호진동
37.52349,129.1127,bus_stop,platform,yes,삼성아파트(시청.북평방면),공공데이터포털,2020-11-24,천곡동
37.52395,129.11197,bus_stop,platform,yes,천일서점(발한.옥계방면),공공데이터포털,2020-11-24,천곡동
37.53865,129.108,bus_stop,platform,yes,동해교육도서관(시청.북평방면),공공데이터포털,2020-11-24,부곡동
37.53903,129.10847,bus_stop,platform,yes,동해교육도서관(발한.망상방면),공공데이터포털,2020-11-24,부곡동
37.48841,129.06998,bus_stop,platform,yes,삼화교(대동.북평방면),공공데이터포털,2020-11-24,이로동
37.48834,129.07056,bus_stop,platform,yes,해성주유소(무릉.신흥방면),공공데이터포털,2020-11-24,이로동
37.48914,129.06903,bus_stop,platform,yes,삼화동주민센터(대동.북평방면),공공데이터포털,2020-11-24,이로동
37.48698,129.06732,bus_stop,platform,yes,삼화시장(무릉방면),공공데이터포털,2020-11-24,이로동
37.48725,129.06813,bus_stop,platform,yes,삼화시장(대동.북평방면),공공데이터포털,2020-11-24,이로동
37.49318,129.0608,bus_stop,platform,yes,삼흥(비천.신흥방면),공공데이터포털,2020-11-24,이로동
37.49307,129.0608,bus_stop,platform,yes,삼흥(대동.북평방면),공공데이터포털,2020-11-24,이로동
37.51707,129.02209,bus_stop,platform,yes,삼흥체험학습장(신흥방면),공공데이터포털,2020-11-24,신흥동
37.51701,129.022,bus_stop,platform,yes,삼흥체험학습장(대동.북평방면),공공데이터포털,2020-11-24,신흥동
37.56812,129.10054,bus_stop,platform,yes,샘터입구(발한.시청방면),공공데이터포털,2020-11-24,초구동
37.56807,129.10083,bus_stop,platform,yes,샘터입구(옥계방면),공공데이터포털,2020-11-24,초구동
37.59809,129.0798,bus_stop,platform,yes,석두골(발한.시청방면),공공데이터포털,2020-11-24,망상동
37.59818,129.07991,bus_stop,platform,yes,석두골(옥계방면),공공데이터포털,2020-11-24,망상동
37.48039,129.11448,bus_stop,platform,yes,그린타워(북평.시청방면),공공데이터포털,2020-11-24,이도동
37.48047,129.11447,bus_stop,platform,yes,그린타워(대동.무릉방면),공공데이터포털,2020-11-24,이도동
37.48066,129.11978,bus_stop,platform,yes,북평구장터(북평.시청방면),공공데이터포털,2020-11-24,북평동
37.48089,129.11868,bus_stop,platform,yes,성협아파트(대동.무릉방면),공공데이터포털,2020-11-24,북평동
37.52017,129.11154,bus_stop,platform,yes,센트로빌아파트(북평.대동방면),공공데이터포털,2020-11-24,천곡동
37.51998,129.11146,bus_stop,platform,yes,센트로빌아파트(시청.발한방면),공공데이터포털,2020-11-24,천곡동
37.47995,129.1054,bus_stop,platform,yes,소망교회(대동방면),공공데이터포털,2020-11-24,이도동
37.49612,129.05274,bus_stop,platform,yes,소비천(비천.신흥방면),공공데이터포털,2020-11-24,이로동
37.49603,129.05269,bus_stop,platform,yes,소비천(대동.북평방면),공공데이터포털,2020-11-24,이로동
37.48341,129.06204,bus_stop,platform,yes,소학동(무릉방면),공공데이터포털,2020-11-24,삼화동
37.4827,129.06257,bus_stop,platform,yes,소학동(대동.북평방면),공공데이터포털,2020-11-24,삼화동
37.56225,129.07535,bus_stop,platform,yes,송전교앞(발한.시청방면),공공데이터포털,2020-11-24,만우동
37.56224,129.07527,bus_stop,platform,yes,송전교앞(만우방면),공공데이터포털,2020-11-24,만우동
37.50015,129.12573,bus_stop,platform,yes,송정우체국(북평.대동방면),공공데이터포털,2020-11-24,송정동
37.49982,129.12597,bus_stop,platform,yes,송정우체국(시청.발한방면),공공데이터포털,2020-11-24,송정동
37.49536,129.12299,bus_stop,platform,yes,송정초등학교(북평.추암방면),공공데이터포털,2020-11-24,송정동
37.49446,129.12355,bus_stop,platform,yes,송정초등학교(효가.시청방면),공공데이터포털,2020-11-24,송정동
37.48541,129.09485,bus_stop,platform,yes,쇄운경로당(대동.북평방면),공공데이터포털,2020-11-24,쇄운동
37.48644,129.09536,bus_stop,platform,yes,쇄운동(무릉.신흥방면),공공데이터포털,2020-11-24,쇄운동
37.48243,129.09018,bus_stop,platform,yes,쇄운교(무릉.신흥방면),공공데이터포털,2020-11-24,쇄운동
37.48239,129.0904,bus_stop,platform,yes,쇄운교(대동.북평방면),공공데이터포털,2020-11-24,쇄운동
37.48236,129.08232,bus_stop,platform,yes,쇄운동(대동.북평방면),공공데이터포털,2020-11-24,쇄운동
37.48248,129.08177,bus_stop,platform,yes,쇄운주유소앞(무릉.신흥방면),공공데이터포털,2020-11-24,쇄운동
37.53909,129.07479,bus_stop,platform,yes,승지골(발한방면),공공데이터포털,2020-11-24,부곡동
37.51594,129.10669,bus_stop,platform,yes,주공5차아파트(시청.발한방면),공공데이터포털,2020-11-24,천곡동
37.51622,129.10682,bus_stop,platform,yes,주공5차아파트(북평.삼척방면),공공데이터포털,2020-11-24,천곡동
37.48003,129.05381,bus_stop,platform,yes,쌍용양회후문(대동.북평방면),공공데이터포털,2020-11-24,삼화동
37.48014,129.0538,bus_stop,platform,yes,쌍용양회후문(무릉방면),공공데이터포털,2020-11-24,삼화동
37.52359,129.11466,bus_stop,platform,yes,동해시청앞(북평.대동방면),공공데이터포털,2020-11-24,천곡동
37.52398,129.11485,bus_stop,platform,yes,시청(발한.옥계방면),공공데이터포털,2020-11-24,천곡동
37.52449,129.01465,bus_stop,platform,yes,신흥(신흥종점),공공데이터포털,2020-11-24,신흥동
37.52441,129.01461,bus_stop,platform,yes,신흥(대동.북평방면),공공데이터포털,2020-11-24,신흥동
37.52362,129.01656,bus_stop,platform,yes,신흥간촌(신흥방면),공공데이터포털,2020-11-24,신흥동
37.52353,129.01652,bus_stop,platform,yes,신흥간촌(대동.북평방면),공공데이터포털,2020-11-24,신흥동
37.57798,129.08755,bus_stop,platform,yes,심곡(발한.시청방면),공공데이터포털,2020-11-24,심곡동
37.57801,129.08748,bus_stop,platform,yes,심곡(만우방면),공공데이터포털,2020-11-24,심곡동
37.57671,129.08448,bus_stop,platform,yes,심곡동마을회관앞(발한.시청방면),공공데이터포털,2020-11-24,심곡동
37.57676,129.08446,bus_stop,platform,yes,심곡동마을회관앞(만우방면),공공데이터포털,2020-11-24,심곡동
37.48467,129.06447,bus_stop,platform,yes,쌍용아파트(무릉방면),공공데이터포털,2020-11-24,이로동
37.48469,129.06497,bus_stop,platform,yes,쌍용아파트(대동.북평방면),공공데이터포털,2020-11-24,이로동
37.47873,129.05033,bus_stop,platform,yes,쌍용자원개발본사입구(무릉방면),공공데이터포털,2020-11-24,삼화동
37.47869,129.05045,bus_stop,platform,yes,쌍용자원개발본사입구(대동.북평방면),공공데이터포털,2020-11-24,삼화동
37.4695,129.03637,bus_stop,platform,yes,쌍용자원개발입구(무릉방면),공공데이터포털,2020-11-24,삼화동
37.46954,129.03669,bus_stop,platform,yes,쌍용자원개발입구(대동.북평방면),공공데이터포털,2020-11-24,삼화동
37.5811,129.08336,bus_stop,platform,yes,약천마을(만우방면),공공데이터포털,2020-11-24,심곡동
37.56153,129.11953,bus_stop,platform,yes,해변으로앞(발한.시청방면),공공데이터포털,2020-11-24,어달동
37.56207,129.1198,bus_stop,platform,yes,어달항회센터(대진방면),공공데이터포털,2020-11-24,어달동
37.56689,129.11908,bus_stop,platform,yes,어달해수욕장(발한.시청방면),공공데이터포털,2020-11-24,어달동
37.56708,129.1191,bus_stop,platform,yes,어달해변(대진방면),공공데이터포털,2020-11-24,어달동
37.5319,129.1127,bus_stop,platform,yes,다이소앞(시청.북평방면),공공데이터포털,2020-11-24,평릉동
37.53175,129.11265,bus_stop,platform,yes,엘리시아아파트(발한.망상방면),공공데이터포털,2020-11-24,평릉동
37.48853,129.0977,bus_stop,platform,yes,용산빌라(무릉.신흥방면),공공데이터포털,2020-11-24,쇄운동
37.48829,129.09791,bus_stop,platform,yes,용산빌라(대동.북평방면),공공데이터포털,2020-11-24,쇄운동
37.48511,129.01974,bus_stop,platform,yes,석현사(대동.북평방면),공공데이터포털,2020-11-24,이기동
37.4809,129.11246,bus_stop,platform,yes,이도동(북평.시청방면),공공데이터포털,2020-11-24,이도동
37.48053,129.11231,bus_stop,platform,yes,이도현대아파트(삼화.무릉방면),공공데이터포털,2020-11-24,이도동
37.48055,129.11297,bus_stop,platform,yes,이도사거리(대동.무릉방면),공공데이터포털,2020-11-24,이도동
37.47994,129.10415,bus_stop,platform,yes,청운교(대동방면),공공데이터포털,2020-11-24,이도동
37.47782,129.10013,bus_stop,platform,yes,금영펌프카(북평.시청방면),공공데이터포털,2020-11-24,이도동
37.47786,129.10009,bus_stop,platform,yes,금영펌프카(삼화방면),공공데이터포털,2020-11-24,이도동
37.47899,129.12977,bus_stop,platform,yes,구미택지(북평.삼척방면),공공데이터포털,2020-11-24,구미동
37.47905,129.13007,bus_stop,platform,yes,구미택지(북평.시청방면),공공데이터포털,2020-11-24,구미동
37.57184,129.07522,bus_stop,platform,yes,장밭삼거리(발한.시청방면),공공데이터포털,2020-11-24,만우동
37.57183,129.07516,bus_stop,platform,yes,장밭삼거리(만우방면),공공데이터포털,2020-11-24,만우동
37.47411,129.11832,bus_stop,platform,yes,단실회관(단봉방면),공공데이터포털,2020-11-24,단봉동
37.47428,129.11857,bus_stop,platform,yes,단실회관(추암방면),공공데이터포털,2020-11-24,단봉동
37.51432,129.10378,bus_stop,platform,yes,종합운동장(북평.삼척방면),공공데이터포털,2020-11-24,천곡동
37.51602,129.10445,bus_stop,platform,yes,주공5차아파트(시청.발한방면),공공데이터포털,2020-11-24,천곡동
37.47031,129.11549,bus_stop,platform,yes,벽오마을(단봉방면),공공데이터포털,2020-11-24,단봉동
37.47027,129.11562,bus_stop,platform,yes,벽오마을(추암방면),공공데이터포털,2020-11-24,단봉동
37.51968,129.10585,bus_stop,platform,yes,현대아파트(시청.발한방면),공공데이터포털,2020-11-24,천곡동
37.51984,129.10548,bus_stop,platform,yes,주공4차아파트(북평.삼척방면),공공데이터포털,2020-11-24,천곡동
37.53556,129.10515,bus_stop,platform,yes,부곡(시청.북평방면),공공데이터포털,2020-11-24,부곡동
37.53565,129.10637,bus_stop,platform,yes,부곡(발한.망상방면),공공데이터포털,2020-11-24,부곡동
37.52855,129.10138,bus_stop,platform,yes,주공6차아파트(시청.북평방면),공공데이터포털,2020-11-24,평릉동
37.52868,129.10166,bus_stop,platform,yes,주공6차아파트(발한.옥계방면),공공데이터포털,2020-11-24,평릉동
37.57573,129.08192,bus_stop,platform,yes,구암교(발한.시청방면),공공데이터포털,2020-11-24,심곡동
37.57579,129.08193,bus_stop,platform,yes,구암교(만우방면),공공데이터포털,2020-11-24,심곡동
37.54995,129.10794,bus_stop,platform,yes,농협묵호지점(발한.시청방면),공공데이터포털,2020-11-24,발한동
37.55052,129.10754,bus_stop,platform,yes,새마을금고앞(옥계방면),공공데이터포털,2020-11-24,발한동
37.49654,129.12635,bus_stop,platform,yes,우리들연합의원(북평.대동방면),공공데이터포털,2020-11-24,송정동
37.4968,129.12652,bus_stop,platform,yes,우리들연합의원(시청.발한방면),공공데이터포털,2020-11-24,송정동
37.52413,129.11006,bus_stop,platform,yes,중앙초교앞(시청.북평방면),공공데이터포털,2020-11-24,천곡동
37.52474,129.10897,bus_stop,platform,yes,중앙초등학교앞(발한.옥계방면),공공데이터포털,2020-11-24,천곡동
37.46825,129.10638,bus_stop,platform,yes,지가동(북평.시청방면),공공데이터포털,2020-11-24,지가동
37.4683,129.10636,bus_stop,platform,yes,지가동(지가동방면),공공데이터포털,2020-11-24,지가동
37.46689,129.10537,bus_stop,platform,yes,지가동종점(북평.시청방면),공공데이터포털,2020-11-24,지가동
37.47711,129.10522,bus_stop,platform,yes,지가동입구(지가동방면),공공데이터포털,2020-11-24,이도동
37.47711,129.10532,bus_stop,platform,yes,지가동입구(북평.시청방면),공공데이터포털,2020-11-24,이도동
37.4989,129.09676,bus_stop,platform,yes,지양골(한중대방면),공공데이터포털,2020-11-24,지흥동
37.55786,129.10956,bus_stop,platform,yes,산제골경로당(발한.시청방면),공공데이터포털,2020-11-24,묵호진동
37.5579,129.10965,bus_stop,platform,yes,산제골경로당(묵호등대방면),공공데이터포털,2020-11-24,묵호진동
37.51783,129.11144,bus_stop,platform,yes,돌리네탐방로(북평.대동방면),공공데이터포털,2020-11-24,천곡동
37.51829,129.11084,bus_stop,platform,yes,북평여고(시청.발한방면),공공데이터포털,2020-11-24,천곡동
37.5288,129.10475,bus_stop,platform,yes,동해시종합버스터미널(시청.북평방면),공공데이터포털,2020-11-24,평릉동
37.52732,129.10538,bus_stop,platform,yes,동해시종합버스터미널(발한.대진방면),공공데이터포털,2020-11-24,평릉동
37.52532,129.10648,bus_stop,platform,yes,천곡지구대(시청.북평방면),공공데이터포털,2020-11-24,천곡동
37.52557,129.10661,bus_stop,platform,yes,한양아파트(발한.옥계방면),공공데이터포털,2020-11-24,천곡동
37.5177,129.10995,bus_stop,platform,yes,북평여고(북평.삼척방면),공공데이터포털,2020-11-24,천곡동
37.51756,129.11011,bus_stop,platform,yes,천곡천연동굴(시청.발한방면),공공데이터포털,2020-11-24,천곡동
37.5167,129.10828,bus_stop,platform,yes,시영아파트(시청.발한방면),공공데이터포털,2020-11-24,천곡동
37.4939,129.12631,bus_stop,platform,yes,천일화물앞(북평.대동방면),공공데이터포털,2020-11-24,송정동
37.49419,129.12654,bus_stop,platform,yes,천일화물앞(시청.발한방면),공공데이터포털,2020-11-24,송정동
37.49066,129.06737,bus_stop,platform,yes,삼화천주교앞(비천.신흥방면),공공데이터포털,2020-11-24,이로동
37.49012,129.06761,bus_stop,platform,yes,천주교앞(대동.북평방면),공공데이터포털,2020-11-24,이로동
37.54369,129.10848,bus_stop,platform,yes,청소년문화의집(시청.삼척방면),공공데이터포털,2020-11-24,발한동
37.54402,129.10858,bus_stop,platform,yes,청소년문화의집(발한.대진방면),공공데이터포털,2020-11-24,발한동
37.48578,129.10319,bus_stop,platform,yes,청운초등학교(대동방면),공공데이터포털,2020-11-24,쇄운동
37.57653,129.097,bus_stop,platform,yes,초구입구(발한.시청방면),공공데이터포털,2020-11-24,초구동
37.57661,129.09729,bus_stop,platform,yes,초구입구(옥계방면),공공데이터포털,2020-11-24,초구동
37.46885,129.14241,bus_stop,platform,yes,추암입구(삼척방면),공공데이터포털,2020-11-24,대구동
37.46899,129.14255,bus_stop,platform,yes,추암입구(북평.시청방면),공공데이터포털,2020-11-24,대구동
37.47853,129.15684,bus_stop,platform,yes,추암해변(북평.시청방면),공공데이터포털,2020-11-24,추암동
37.51995,129.01961,bus_stop,platform,yes,관촌쉼터(신흥방면),공공데이터포털,2020-11-24,신흥동
37.52009,129.01935,bus_stop,platform,yes,관촌(대동.북평방면),공공데이터포털,2020-11-24,신흥동
37.55266,129.10546,bus_stop,platform,yes,풍물시장앞(발한.시청방면),공공데이터포털,2020-11-24,발한동
37.55268,129.1057,bus_stop,platform,yes,발한중앙시장(옥계방면),공공데이터포털,2020-11-24,발한동
37.5339,129.1156,bus_stop,platform,yes,하평마을(발한.망상방면),공공데이터포털,2020-11-24,평릉동
37.5033,129.09161,bus_stop,platform,yes,한중대학교(북평.시청방면),공공데이터포털,2020-11-24,지흥동
37.5034,129.12732,bus_stop,platform,yes,해군부대(북평.대동방면),공공데이터포털,2020-11-24,용정동
37.50418,129.12777,bus_stop,platform,yes,해군부대(시청.발한방면),공공데이터포털,2020-11-24,용정동
37.55538,129.11105,bus_stop,platform,yes,해돋이마을(발한.시청방면),공공데이터포털,2020-11-24,묵호진동
37.55535,129.11117,bus_stop,platform,yes,해돋이마을(묵호등대방면),공공데이터포털,2020-11-24,묵호진동
37.51717,129.11669,bus_stop,platform,yes,현충탑(북평.대동방면),공공데이터포털,2020-11-24,천곡동
37.51699,129.11725,bus_stop,platform,yes,현충탑(시청.발한방면),공공데이터포털,2020-11-24,천곡동
37.46579,129.12906,bus_stop,platform,yes,호현마을( ),공공데이터포털,2020-11-24,호현동
37.47419,129.10666,bus_stop,platform,yes,가원습지(지가동방면),공공데이터포털,2020-11-24,지가동
37.47425,129.10673,bus_stop,platform,yes,가원습지(북평.시청방면),공공데이터포털,2020-11-24,지가동
37.49422,129.11051,bus_stop,platform,yes,효가광장(북평.삼척방면),공공데이터포털,2020-11-24,효가동
37.49368,129.11079,bus_stop,platform,yes,효가사거리(시청.발한방면),공공데이터포털,2020-11-24,효가동
37.56822,129.11764,bus_stop,platform,yes,구어달동사무소(발한.시청방면),공공데이터포털,2020-11-24,어달동
37.56837,129.11768,bus_stop,platform,yes,구어달동사무소(대진방면),공공데이터포털,2020-11-24,어달동
37.50328,129.1079,bus_stop,platform,yes,양지마을(북평.삼척방면),공공데이터포털,2020-11-24,효가동
37.50389,129.10681,bus_stop,platform,yes,양지마을(시청.발한방면),공공데이터포털,2020-11-24,효가동
37.51922,129.12067,bus_stop,platform,yes,쌍용아파트(북평.대동방면),공공데이터포털,2020-11-24,천곡동
37.51942,129.1204,bus_stop,platform,yes,쌍용아파트(시청.발한방면),공공데이터포털,2020-11-24,천곡동
37.53301,129.11268,bus_stop,platform,yes,엘리시아앞(시청.북평방면),공공데이터포털,2020-11-24,평릉동
37.53309,129.11279,bus_stop,platform,yes,부영아파트(발한.망상방면),공공데이터포털,2020-11-24,평릉동
37.49479,129.05633,bus_stop,platform,yes,쌍용아파트(비천.신흥방면),공공데이터포털,2020-11-24,이로동
37.49467,129.05637,bus_stop,platform,yes,쌍용아파트(대동.북평방면),공공데이터포털,2020-11-24,이로동
37.47305,129.10964,bus_stop,platform,yes,지상사입구(지가동방면),공공데이터포털,2020-11-24,지가동
37.47312,129.10958,bus_stop,platform,yes,지상사입구(북평.시청방면),공공데이터포털,2020-11-24,지가동
37.4719,129.10924,bus_stop,platform,yes,지가동(지가동방면),공공데이터포털,2020-11-24,지가동
37.47187,129.10928,bus_stop,platform,yes,지가동(북평.시청방면),공공데이터포털,2020-11-24,지가동
37.52922,129.10407,bus_stop,platform,yes,동해감리교회(시청.북평방면),공공데이터포털,2020-11-24,평릉동
37.529,129.10419,bus_stop,platform,yes,동해감리교회(발한.옥계방면),공공데이터포털,2020-11-24,평릉동
37.4984,129.09791,bus_stop,platform,yes,지양길118(대동.시청방면),공공데이터포털,2020-11-24,지흥동
37.4908,129.11109,bus_stop,platform,yes,동일제일교회앞(무릉.신흥방면),공공데이터포털,2020-11-24,효가동
37.49084,129.11086,bus_stop,platform,yes,동해현대주유소앞(북평.시청방면),공공데이터포털,2020-11-24,효가동
37.53114,129.10642,bus_stop,platform,yes,동해병원.동인병원(시청.북평방면),공공데이터포털,2020-11-24,평릉동
37.53103,129.10668,bus_stop,platform,yes,동해병원.동인병원(발한.망상방면),공공데이터포털,2020-11-24,평릉동
37.55387,129.10773,bus_stop,platform,yes,동문산(묵호등대방면),공공데이터포털,2020-11-24,발한동
37.55393,129.10783,bus_stop,platform,yes,동문산(발한.시청방면),공공데이터포털,2020-11-24,발한동
37.52721,129.10279,bus_stop,platform,yes,종합버스터미널(뉴동해관광호텔옆),공공데이터포털,2020-11-24,천곡동
37.52739,129.10297,bus_stop,platform,yes,종합버스터미널(금호어울림아파트옆),공공데이터포털,2020-11-24,평릉동
37.58812,129.09533,bus_stop,platform,yes,망상삼거리(발한.시청방면),공공데이터포털,2020-11-24,망상동
37.58829,129.09544,bus_stop,platform,yes,망상삼거리(옥계방면),공공데이터포털,2020-11-24,망상동
37.47153,129.04114,bus_stop,platform,yes,진주강씨세효열비(무릉방면),공공데이터포털,2020-11-24,삼화동
37.47152,129.04127,bus_stop,platform,yes,진주강씨세효열비(대동.북평방면),공공데이터포털,2020-11-24,삼화동
37.46605,129.03047,bus_stop,platform,yes,동해무릉건강숲(무릉방면),공공데이터포털,2020-11-24,삼화동
37.46584,129.03052,bus_stop,platform,yes,동해무릉건강숲(대동.북평방면),공공데이터포털,2020-11-24,삼화동
37.57092,129.07002,bus_stop,platform,yes,괴란(만우방면),공공데이터포털,2020-11-24,괴란동
37.5388,129.09562,bus_stop,platform,yes,묵호고등학교(승지방면),공공데이터포털,2020-11-24,부곡동
37.53864,129.09579,bus_stop,platform,yes,묵호고등학교(발한방면),공공데이터포털,2020-11-24,부곡동
37.53934,129.09037,bus_stop,platform,yes,동해향교(승지방면),공공데이터포털,2020-11-24,부곡동
37.53925,129.09037,bus_stop,platform,yes,동해향교(발한방면),공공데이터포털,2020-11-24,부곡동
37.53865,129.07697,bus_stop,platform,yes,청풍가든(승지방면),공공데이터포털,2020-11-24,부곡동
37.53861,129.0774,bus_stop,platform,yes,청풍가든(발한방면),공공데이터포털,2020-11-24,부곡동
37.47466,129.14744,bus_stop,platform,yes,GS화력(추암방면),공공데이터포털,2020-11-24,구호동
37.47486,129.147,bus_stop,platform,yes,GS화력(북평.시청방면),공공데이터포털,2020-11-24,구호동
37.49349,129.10661,bus_stop,platform,yes,지양길19(대동.시청방면),공공데이터포털,2020-11-24,동회동
37.49387,129.10629,bus_stop,platform,yes,지양길26(한중대방면),공공데이터포털,2020-11-24,효가동
37.49999,129.09543,bus_stop,platform,yes,해태음료(한중대방면),공공데이터포털,2020-11-24,지흥동
37.46733,129.13804,bus_stop,platform,yes,대구마을회관,공공데이터포털,2020-11-24,대구동
37.46729,129.13805,bus_stop,platform,yes,대구마을회관,공공데이터포털,2020-11-24,대구동
37.46836,129.1389,bus_stop,platform,yes,대구동마을창고,공공데이터포털,2020-11-24,대구동
37.46833,129.13894,bus_stop,platform,yes,대구동마을창고,공공데이터포털,2020-11-24,대구동
37.53811,129.09911,bus_stop,platform,yes,부곡자율방범대앞(승지방면),공공데이터포털,2020-11-24,부곡동
37.54009,129.08554,bus_stop,platform,yes,미타사앞(발한방면),공공데이터포털,2020-11-24,부곡동
37.54017,129.08553,bus_stop,platform,yes,미타사앞(승지방면),공공데이터포털,2020-11-24,부곡동
