위도,경도,name,name:ko,note,highway,public_transport
35.47795556,128.7642722,KT&G,KT&G,"1-2가곡,1-2금동,1-2번,1-2부산대,1가곡,1금동,1번,1부산대,1서가정,1용성,1초동,1칠성,2가곡,2금동,2번,2부산대,2용성,2초동,2칠성,3-1번,3-1부산대,3금곡,3번,3상동,4-2번,5번,6-1번,6번,6부산대,6상동,6상동1,6상동2,6엄광,6활성,6활성1,7-1번,7롯데,7번,7삼랑,7지동,가곡,수산2,화봉1",bus_stop,platform
35.47534167,128.7672278,가곡삼거리,가곡삼거리,"1-2가곡,1-2금동,1-2번,1-2부산대,1가곡,1금동,1번,1부산대,1서가정,1용성,1초동,1칠성,2가곡,2금동,2번,2부산대,2용성,2청운,2초동,2칠성,3-1번,3-1부산대,3금곡,3번,3상동,4-2번,5번,6-1번,6번,6부산대,6상동,6상동1,6상동2,6엄광,6활성,6활성1,7-1번,7롯데,7번,7삼랑,7지동,가곡,수산2,화봉1",bus_stop,platform
35.47501667,128.7671806,가곡삼거리,가곡삼거리,"1-2금동,1금동,4-1롯데,4-1번,4-1번.,4-1용성,4-1청운,4구기,4대항1,4대항2,4대항3,4대항4,4대항5,4대항6,4대항7,4대항8,4대항9,4번,4초동,4퇴로1,4퇴로2,4퇴로3,4퇴로4,4퇴로5,4퇴로6,4퇴로7,4퇴로8,5금동,5밀성고,5번,5시청,9롯데,9번,남산1,대흥동2,삼랑진,해동1",bus_stop,platform
35.47493889,128.7677,가곡삼거리,가곡삼거리,"1-2가곡,1-2금동,1-2번,1-2부산대,1가곡,1금동,1번,1부산대,1서가정,1용성,1칠성,1칠성.,2가곡,2금동,2번,2부산대,2용성,2초동,2초동.,2칠성,3-1번,3-1부산대,3금곡,3번,3상동,4-1롯데,4-1번,4-1번.,4-1용성,4-1청운,4-2번,4구기,4대항1,4대항2,4대항3,4대항4,4대항5,4대항6,4대항7,4대항8,4대항9,4부산대,4퇴로1,4퇴로2,4퇴로3,4퇴로4,4퇴로5,4퇴로6,4퇴로7,4퇴로8,5금동,5밀성고,5밀성고,5번,5번,5시청,5시청,6-1번,6번,6부산대,6상동,6상동2,6엄광,6활성,7-1번,7롯데,7번,7삼랑,7지동,9롯데,9번,가곡,금동1,금동1-2,금동2,금동4,금동7-1,남산1,대흥동2,삼랑진,용성1,해동1,화봉1",bus_stop,platform
35.47638611,128.7655472,가곡시장,가곡시장,"1-2가곡,1-2금동,1-2번,1-2부산대,1가곡,1금동,1번,1부산대,1서가정,1용성,1칠성,1칠성.,2가곡,2번,2부산대,2용성,2초동,2초동.,2칠성,3-1번,3-1부산대,3금곡,3번,3상동,4-1롯데,4-1번,4-1번.,4-1용성,4-1청운,4-2번,4구기,4대항1,4대항2,4대항3,4대항4,4대항5,4대항6,4대항7,4대항8,4대항9,4부산대,4퇴로1,4퇴로2,4퇴로3,4퇴로4,4퇴로5,4퇴로6,4퇴로7,4퇴로8,5금동,5밀성고,5번,5시청,6-1번,6번,6부산대,6상동,6상동2,6엄광,6활성,가곡,용성1,화봉1",bus_stop,platform
35.47690833,128.7652389,가곡시장,가곡시장,"1-2가곡,1-2금동,1-2번,1-2부산대,1가곡,1금동,1번,1부산대,1서가정,1용성,1초동,1칠성,2가곡,2금동,2번,2부산대,2용성,2청운,2초동,2칠성,3-1번,3-1부산대,3금곡,3번,3상동,4-2번,5번,6-1번,6번,6부산대,6상동,6상동1,6상동2,6엄광,6활성,6활성1,7-1번,7롯데,7번,7삼랑,7지동,가곡,수산2,화봉1",bus_stop,platform
35.56741944,128.603175,가곡종점,가곡종점,두곡,bus_stop,platform
35.47291111,128.7723139,가곡주공아파트,가곡주공아파트,"1-2가곡,1-2금동,1-2번,1-2부산대,1가곡,1금동,1번,1부산대,1서가정,1용성,1칠성,1칠성.,2가곡,2금동,2번,2부산대,2용성,2초동,2초동.,2칠성,3-1번,3-1부산대,3금곡,3번,3상동,4-1롯데,4-1번,4-1번.,4-1용성,4-1청운,4-2번,4대항1,4대항2,4대항3,4대항4,4대항5,4대항6,4대항7,4대항8,4부산대,4퇴로1,4퇴로2,4퇴로3,4퇴로4,4퇴로5,4퇴로6,4퇴로8,5금동,5밀성고,5번,5번,5시청,6-1번,6번,6부산대,6상동2,6엄광,6활성,7-1번,7롯데,7번,7삼랑,7지동,9번,가곡,남산1,삼랑진,용성,용성1,칠성,해동1,화봉1",bus_stop,platform
35.48843056,128.6002833,가례,가례,"1서가정,서가정1,서가정2,서가정3,서가정4,서가정5,서가정6",bus_stop,platform
35.48834722,128.6002194,가례,가례,"1서가정,서가정1,서가정2,서가정3,서가정4,서가정5,서가정6",bus_stop,platform
35.49167222,128.6931028,가복,가복,"1서가정,2초동,구기3,대촌1,대촌2,두곡,서가정1,서가정2,서가정3,서가정4,서가정5,서가정6,소태,영신2,영신3,조천,조천1,초동2,초동3,초동공단,초동공단.,화봉1",bus_stop,platform
35.49168333,128.6930472,가복,가복,"1서가정,1초동,2초동,구기3,대촌1,대촌2,두곡,서가정1,서가정2,서가정3,서가정4,서가정5,서가정6,소태,영신2,영신3,조천,조천2,초동공단,초동면소,초동면소.,화봉1",bus_stop,platform
35.532225,128.7012083,가산,가산,"4구기,4대항1,4대항7,4대항8,4퇴로2,4퇴로8,구기1,조천2",bus_stop,platform
35.53235833,128.7011917,가산,가산,"4구기,4대항1,4대항2,4대항5,4대항6,4대항8,4대항9,구기1,조천1",bus_stop,platform
35.53071388,128.7816944,가실,가실,"3상동,6상동,6상동1,6상동2,도곡1,도곡2,도곡4,상동,신곡1,신곡3,신곡4,신곡5,신곡6,신곡7,옥산,옥산1,옥산2",bus_stop,platform
35.53083333,128.7818444,가실,가실,"3상동,6상동,6상동1,6상동2,도곡1,도곡2,도곡4,상동,신곡1,신곡3,신곡4,신곡5,신곡6,신곡7,옥산,옥산1,옥산2",bus_stop,platform
35.59869167,128.9011722,가인,가인,"얼음골,얼음골1,얼음골2,얼음골3",bus_stop,platform
35.59879444,128.9011444,가인,가인,"얼음골,얼음골1,얼음골2,얼음골3",bus_stop,platform
35.56837778,128.7675528,감마종점,감마종점,"옥산,옥산1,옥산2",bus_stop,platform
35.50981944,128.845575,감물리입구,감물리입구,"감물리,감물리1,감물리2,감물리3,감물리4,감물리5",bus_stop,platform
35.50975,128.8456694,감물리입구,감물리입구,"감물리,감물리1,감물리2,감물리3,감물리4,감물리5",bus_stop,platform
35.48148056,128.7585806,강변뚝길,강변뚝길,9롯데,bus_stop,platform
35.39488889,128.8134611,거족,거족,삼랑진,bus_stop,platform
35.39472777,128.813525,거족,거족,삼랑진,bus_stop,platform
35.47310555,128.7658889,경남아파트,경남아파트,"2금동,5밀성고,5번,5시청,7-1번,7번,7지동,9번,금동1,금동1-2,금동2,금동4,금동7-1,남산1,대흥동2,삼랑진,해동1",bus_stop,platform
35.45908333,128.7515722,고노실,고노실,"1-2금동,1금동,5금동,5밀성고,5번,5시청,남산1,남산2,삼랑진,수산1,수산2,초동3,초동공단.,해동1",bus_stop,platform
35.45893889,128.7516722,고노실,고노실,"1초동,2금동,5밀성고,5번,5시청,금동1,금동1-2,금동2,금동4,금동7-1,남산1,남산2,삼랑진,수산1,수산2,초동면소,초동면소.,해동1",bus_stop,platform
35.56324722,128.79785,고답,고답,"도곡1,도곡2,신곡1,신곡3,신곡4,신곡5,신곡6",bus_stop,platform
35.56328333,128.7979333,고답,고답,"신곡3,신곡4,신곡5,신곡6",bus_stop,platform
35.49517778,128.6045417,고라,고라,"1서가정,서가정4,서가정5,서가정6",bus_stop,platform
35.49506944,128.6043722,고라,고라,"1서가정,서가정1,서가정1,서가정2,서가정2,서가정3,서가정3,서가정4,서가정5,서가정6,서가정7",bus_stop,platform
35.48728889,128.9314722,고례종점,고례종점,"고례1,고례2,고례3",bus_stop,platform
35.49220278,128.9288306,고례초등학교,고례초등학교,"고례1,고례2,고례3",bus_stop,platform
35.49216944,128.9289222,고례초등학교,고례초등학교,"고례1,고례2,고례3",bus_stop,platform
35.55236944,128.6566194,고법회관,고법회관,"대촌1,대촌2",bus_stop,platform
35.56413056,128.7858778,고정,고정,"도곡1,도곡2,도곡4,신곡1,신곡3,신곡4,신곡5,신곡6,신곡7",bus_stop,platform
35.56396388,128.7858556,고정,고정,"도곡1,도곡2,도곡4,신곡1,신곡3,신곡4,신곡5,신곡6,신곡7",bus_stop,platform
35.47437222,128.5924056,곰골,곰골,서가정1,bus_stop,platform
35.47443889,128.592475,곰골,곰골,"서가정2,서가정3,서가정4,서가정5",bus_stop,platform
35.47353333,128.6083972,관동,관동,서가정1,bus_stop,platform
35.47358889,128.6084639,관동,관동,"서가정2,서가정3,서가정4,서가정5",bus_stop,platform
35.41817222,128.7400861,관동,관동,남산1,bus_stop,platform
35.41839167,128.7398389,관동,관동,남산1,bus_stop,platform
35.53942778,128.8482056,괴곡,괴곡,"발례,발례1,발례2,얼음골,얼음골1,얼음골2,얼음골3",bus_stop,platform
35.53910495,128.8482909,괴곡,괴곡,"발례,발례1,발례2,얼음골,얼음골1,얼음골2,얼음골3",bus_stop,platform
35.50389444,128.7546472,교동사거리,교동사거리,"2가곡,2번,2부산대,2용성,2청운,2초동,2칠성,3-1번,3-1부산대,3금곡,3번,3상동,5금동,5번,6-1번,6번,6부산대,6상동,6상동1,6상동2,6엄광,6활성,6활성1,감물리,감물리1,감물리2,감물리3,감물리4,고례1,고례2,국전,국전1,국전2,국전4,도곡1,도곡4,발례,발례1,상동,신곡1,신곡3,신곡4,신곡5,신곡7,얼음골,얼음골1,얼음골2,엄광1,엄광2,옥산,옥산1,옥산2,청운.,초동공단.,초동면소,표충사,표충사1,표충사2",bus_stop,platform
35.50401036,128.7525552,교동사거리,교동사거리,"1-2가곡,1-2금동,1-2번,1-2부산대,1가곡,1금동,1번,1부산대,1서가정,1용성,1초동,1칠성,4-2번,9롯데,9번,가곡,화봉1",bus_stop,platform
35.50404976,128.7523246,교동사거리,교동사거리,"2가곡,2번,2부산대,2용성,2청운,2초동,2칠성,5금동,5밀성고,5번,청운.,초동공단.,초동면소",bus_stop,platform
35.51119134,128.7566735,교동행정복지센터,교동행정복지센터,"2가곡,2번,2부산대,2용성,2청운,2초동,2칠성,5금동,5밀성고,5번,청운.,초동공단.,초동면소",bus_stop,platform
35.51098743,128.7567517,교동행정복지센터,교동행정복지센터,"1-2가곡,1-2금동,1-2번,1-2부산대,1가곡,1금동,1번,1부산대,1서가정,1용성,1초동,1칠성,4-2번,5시청,9롯데,9번,가곡,화봉1",bus_stop,platform
35.51047195,128.7578041,교동행정복지센터,교동행정복지센터,"3-1번,3-1부산대,3금곡,3번,3상동,6-1번,6번,6부산대,6상동,6상동1,6상동2,6엄광,6활성,6활성1,감물리,감물리1,감물리2,감물리3,감물리4,감물리5,고례1,고례2,고례3,국전,국전1,국전2,국전3,국전4,도곡1,도곡2,도곡4,발례,발례1,발례2,상동,신곡1,신곡3,신곡4,신곡5,신곡6,신곡7,얼음골,얼음골1,얼음골2,얼음골3,엄광1,엄광2,옥산,옥산1,옥산2,표충사,표충사1,표충사2,표충사3",bus_stop,platform
35.51061641,128.7574766,교동행정복지센터,교동행정복지센터,"3-1번,3-1부산대,3금곡,3번,3상동,6-1번,6번,6부산대,6상동,6상동1,6상동2,6엄광,6활성,6활성1,감물리,감물리1,감물리2,감물리3,감물리4,감물리5,고례1,고례2,고례3,국전,국전1,국전2,국전3,국전4,도곡1,도곡2,도곡4,발례,발례1,발례2,상동,신곡1,신곡3,신곡4,신곡5,신곡6,신곡7,얼음골,얼음골1,얼음골2,얼음골3,엄광1,엄광2,옥산,옥산1,옥산2,표충사,표충사1,표충사2,표충사3",bus_stop,platform
35.54858889,128.6260361,구기,구기,"4구기,대촌2,두곡,소태,조천,조천1,조천2",bus_stop,platform
35.54847222,128.6259278,구기,구기,"구기1,구기3,대촌1,대촌1,두곡,소태,조천,조천1,조천2",bus_stop,platform
35.49387222,128.83255,구미,구미,"감물리,감물리1,감물리2,감물리3,감물리4,감물리5",bus_stop,platform
35.49091389,128.7426639,국립식량과학원,국립식량과학원,"서가정4,서가정5,초동2",bus_stop,platform
35.49111111,128.7427111,국립식량과학원,국립식량과학원,"서가정5,영신2",bus_stop,platform
35.45379722,128.7522778,국립종자관리원,국립종자관리원,"1-2금동,1금동,5금동,5밀성고,5번,5시청,남산1,남산2,삼랑진,수산1,수산2,초동3,초동공단.,해동1",bus_stop,platform
35.45379444,128.7524222,국립종자관리원,국립종자관리원,"1초동,2금동,5밀성고,5번,5시청,금동1,금동1-2,금동2,금동4,금동7-1,남산1,남산2,삼랑진,수산1,수산2,초동면소,초동면소.,해동1",bus_stop,platform
35.48366944,128.8987972,국서,국서,"국전,국전1,국전2,국전3,국전4",bus_stop,platform
35.48361111,128.8988944,국서,국서,"국전,국전1,국전2,국전3,국전4",bus_stop,platform
35.46483056,128.89995,국전저수지,국전저수지,"국전,국전1,국전2,국전3,국전4",bus_stop,platform
35.54382778,128.6188556,근기,근기,"조천,조천1,조천2",bus_stop,platform
35.54399444,128.6189389,근기,근기,"조천,조천1,조천2",bus_stop,platform
35.51105556,128.8392889,금곡,금곡,"3금곡,감물리,감물리1,감물리2,감물리3,감물리4,감물리5,고례1,고례2,고례3,국전,국전1,국전2,국전3,국전4,발례,발례1,발례2,얼음골,얼음골1,얼음골2,얼음골3,표충사,표충사1,표충사2,표충사3",bus_stop,platform
35.45534003,128.7924514,금곡,금곡,"4부산대,6용성,부산대1,부산대1-2,부산대2,부산대3,부산대4,부산대4-1,부산대6,부산대7,부산대7-1,삼랑1,삼랑2,삼랑3-1,삼랑4,삼랑4-1,삼랑7,용성0,용성2,용성7,칠성1-2,칠성2",bus_stop,platform
35.55094444,128.7648472,금곡,금곡,"3상동,6상동,6상동1,6상동2,도곡1,도곡2,도곡4,상동,신곡1,신곡3,신곡4,신곡5,신곡6,신곡7,옥산,옥산1,옥산2",bus_stop,platform
35.510925,128.83845,금곡,금곡,"감물리,감물리1,감물리2,감물리3,감물리4,감물리5,고례1,고례2,고례3,국전,국전1,국전2,국전3,국전4,발례,발례1,발례2,얼음골,얼음골1,얼음골2,얼음골3,표충사,표충사1,표충사2,표충사3",bus_stop,platform
35.45530261,128.7923928,금곡,금곡,"1-2부산대,1부산대,1용성,1칠성,1칠성.,2부산대,2용성,2칠성,3-1부산대,4-1용성,4부산대,4퇴로2,6부산대,6상동2,7롯데,7삼랑,용성,용성1,칠성",bus_stop,platform
35.55100833,128.7648944,금곡,금곡,"3상동,6상동,6상동1,6상동2,도곡1,도곡2,도곡4,상동,신곡1,신곡3,신곡4,신곡5,신곡6,신곡7,옥산,옥산1,옥산2",bus_stop,platform
35.51210556,128.8420722,금곡교,금곡교,"감물리,감물리1,감물리2,감물리3,감물리4,감물리5,고례1,고례2,고례3,국전,국전1,국전2,국전3,국전4,표충사,표충사1,표충사2,표충사3",bus_stop,platform
35.42961111,128.7648694,금동,금동,"1초동,2금동,5밀성고,5번,5시청,금동1,금동1-2,금동2,금동4,금동7-1,남산1,남산2,삼랑진,삼랑진,수산1,수산2,초동면소,초동면소.,해동1",bus_stop,platform
35.42957778,128.7646278,금동,금동,"1-2금동,1금동,5금동,남산1,남산2,수산1,수산2,초동3,초동공단.,해동1",bus_stop,platform
35.56657222,128.8693111,금암,금암,"발례1,발례2,얼음골,얼음골1,얼음골2,얼음골3",bus_stop,platform
35.56648611,128.8694083,금암,금암,"발례1,발례2,얼음골,얼음골1,얼음골2,얼음골3",bus_stop,platform
35.455875,128.7518806,기산,기산,"1-2금동,1금동,5금동,5밀성고,5번,5시청,남산1,남산2,삼랑진,수산1,수산2,초동3,초동공단.,해동1",bus_stop,platform
35.45596111,128.7521028,기산,기산,"1초동,2금동,5밀성고,5번,5시청,금동1,금동1-2,금동2,금동4,금동7-1,남산1,남산2,삼랑진,수산1,수산2,초동면소,초동면소.,해동1",bus_stop,platform
35.51435573,128.7744356,긴늪,긴늪,"3-1번,3-1부산대,3금곡,3금곡,3번,3상동,6-1번,6번,6부산대,6상동,6상동1,6상동2,6엄광,6활성,6활성1,감물리,감물리1,감물리2,감물리3,감물리4,감물리5,고례1,고례2,고례3,국전,국전1,국전2,국전3,국전4,도곡1,도곡2,도곡4,발례,발례1,발례2,상동,신곡1,신곡3,신곡4,신곡5,신곡6,신곡7,얼음골,얼음골1,얼음골2,얼음골3,엄광1,엄광2,옥산,옥산1,옥산2,표충사,표충사1,표충사2,표충사3",bus_stop,platform
35.51445833,128.7742028,긴늪,긴늪,"3-1번,3-1부산대,3번,3상동,6-1번,6번,6부산대,6상동,6상동1,6상동2,6엄광,6활성,6활성1,감물리,감물리1,감물리2,감물리3,감물리4,감물리5,고례1,고례2,고례3,국전,국전1,국전2,국전3,국전4,도곡1,도곡2,도곡4,발례,발례1,발례2,상동,신곡1,신곡3,신곡4,신곡5,신곡6,신곡7,얼음골,얼음골1,얼음골2,얼음골3,엄광1,엄광2,옥산,옥산1,옥산2,표충사,표충사1,표충사2,표충사3",bus_stop,platform
35.52714167,128.7810833,길곡,길곡,"도곡1,도곡2,신곡1,신곡3,신곡5,신곡6,신곡7,옥산,옥산1,옥산2",bus_stop,platform
35.527125,128.7812444,길곡,길곡,"도곡1,도곡2,신곡1,신곡3,신곡4,신곡5,신곡6,신곡7,옥산,옥산1,옥산2",bus_stop,platform
35.54006944,128.6533278,까막수,까막수,"4구기,구기1,구기3,대촌1,대촌1,대촌2,대촌2,두곡,소태,조천,조천1,조천2",bus_stop,platform
35.54003055,128.6531,까막수,까막수,"4구기,구기1,구기3,대촌1,대촌1,대촌2,두곡,소태,조천,조천1,조천2",bus_stop,platform
35.58817778,128.9588389,깻들,깻들,"얼음골,얼음골1,얼음골2,얼음골3",bus_stop,platform
35.58808889,128.9588167,깻들,깻들,"얼음골,얼음골1,얼음골2,얼음골3",bus_stop,platform
35.51248056,128.7905528,남가,남가,"3금곡,6엄광,6활성,6활성1,엄광1,엄광2",bus_stop,platform
35.51238889,128.7906333,남가,남가,"3금곡,6엄광,6활성,6활성1,엄광1,엄광2",bus_stop,platform
35.51248611,128.7940389,남계,남계,엄광2,bus_stop,platform
35.51256944,128.79405,남계,남계,엄광1,bus_stop,platform
35.58723056,128.9531667,남명,남명,"얼음골,얼음골1,얼음골2,얼음골3",bus_stop,platform
35.58725278,128.9534333,남명,남명,"얼음골,얼음골1,얼음골2,얼음골3",bus_stop,platform
35.43094444,128.7246361,남산종점,남산종점,"남산1,남산2",bus_stop,platform
35.41048888,128.7264056,남전,남전,"1초동,초동면소,초동면소.",bus_stop,platform
35.41071111,128.7265667,남전,남전,"초동3,초동공단.",bus_stop,platform
35.46618611,128.7860833,남포,남포,"1-2부산대,1부산대,1용성,1칠성,1칠성.,2부산대,2용성,2칠성,3-1부산대,4-1용성,4부산대,4퇴로2,6부산대,6상동2,7롯데,7삼랑,용성,용성1,칠성",bus_stop,platform
35.46625,128.7861333,남포,남포,"4부산대,6용성,부산대1,부산대1-2,부산대2,부산대3,부산대4,부산대4-1,부산대6,부산대7,부산대7-1,삼랑1,삼랑2,삼랑3-1,삼랑4,삼랑4-1,삼랑7,용성0,용성2,용성7,칠성1-2,칠성2",bus_stop,platform
35.43107778,128.7644639,내금,내금,"1-2금동,1금동,5금동,5밀성고,5번,5시청,남산1,남산2,삼랑진,수산1,수산2,초동3,초동공단.,해동1",bus_stop,platform
35.43120833,128.7644861,내금,내금,"1초동,2금동,5밀성고,5번,5시청,금동1,금동1-2,금동2,금동4,금동7-1,남산1,남산2,삼랑진,수산1,수산2,초동면소,초동면소.,해동1",bus_stop,platform
35.49277222,128.7509444,내이동우체국,내이동우체국,"4-1번,4-1번.,4-1용성,4-2번,9롯데,9번,서가정5,영신3",bus_stop,platform
35.49295278,128.7514028,내이동우체국,내이동우체국,"1서가정,2가곡,2번,2부산대,2용성,2초동,2초동.,2칠성,3금곡,3번,4-1롯데,4-1번,4-1청운,4-2번,4구기,4대항2,4대항4,4대항5,4대항6,4대항8,4퇴로1,4퇴로3,4퇴로6,4퇴로8,6-1번",bus_stop,platform
35.49284722,128.7507806,내이동우체국,내이동우체국,"7-1번,9롯데,9번,서가정5,영신3",bus_stop,platform
35.52315555,128.6525694,내진,내진,"구기3,대촌1,대촌2,두곡,소태,조천,조천1",bus_stop,platform
35.52316111,128.6527389,내진,내진,"구기3,대촌1,대촌2,두곡,소태,조천,조천2",bus_stop,platform
35.44647222,128.7547306,농업기술센터,농업기술센터,"1초동,2금동,5밀성고,5시청,금동1,금동1-2,금동2,금동4,금동7-1,남산1,남산2,삼랑진,수산1,수산2,초동면소,초동면소.,해동1",bus_stop,platform
35.44641944,128.7546083,농업기술센터,농업기술센터,"1-2금동,1금동,5금동,남산1,남산2,삼랑진,수산1,수산2,초동3,초동공단.,해동1",bus_stop,platform
35.51705555,128.7265056,농협자재,농협자재,"4구기,4대항1,4대항2,4대항3,4대항6,4대항7,4대항8,4퇴로1,4퇴로2,4퇴로3,4퇴로5,4퇴로6,4퇴로8,7롯데",bus_stop,platform
35.49074444,128.5960194,다례,다례,"1서가정,서가정1,서가정2,서가정3,서가정4,서가정5,서가정6",bus_stop,platform
35.49080278,128.5960361,다례,다례,"서가정2,서가정3,서가정4,서가정5,서가정6",bus_stop,platform
35.50224722,128.814925,다원,다원,"3금곡,6활성,6활성1,감물리,감물리1,감물리2,감물리3,감물리4,감물리5,고례1,고례2,고례3,국전,국전1,국전2,국전3,국전4,발례,발례1,발례2,얼음골,얼음골1,얼음골2,얼음골3,표충사,표충사1,표충사2,표충사3",bus_stop,platform
35.50215556,128.8148778,다원,다원,"3금곡,감물리,감물리1,감물리2,감물리3,감물리4,감물리5,고례1,고례2,고례3,국전,국전1,국전2,국전3,국전4,발례,발례1,발례2,얼음골,얼음골1,얼음골2,얼음골3,표충사,표충사1,표충사2,표충사3",bus_stop,platform
35.50228611,128.8126028,다원,다원,"6활성,6활성1",bus_stop,platform
35.51507778,128.8593111,단장숲,단장숲,"고례1,고례2,고례3,국전,국전1,국전2,국전3,국전4,표충사,표충사1,표충사2,표충사3",bus_stop,platform
35.51506944,128.8595111,단장숲,단장숲,"고례1,고례2,고례3,국전,국전1,국전2,국전3,국전4,표충사,표충사1,표충사2,표충사3",bus_stop,platform
35.39006111,128.7804472,당곡,당곡,"수산1,수산2",bus_stop,platform
35.39002814,128.7805224,당곡,당곡,"수산1,수산2",bus_stop,platform
35.46316111,128.7553222,당촌,당촌,"1-2금동,1금동,5금동,5밀성고,5번,5시청,7-1번,남산1,남산2,삼랑진,수산1,수산2,초동3,초동공단.,해동1",bus_stop,platform
35.46318611,128.7556889,당촌,당촌,"1초동,2금동,5밀성고,5번,5시청,7-1번,금동1,금동1-2,금동2,금동4,금동7-1,남산1,남산2,삼랑진,수산1,수산2,초동면소,초동면소.,해동1",bus_stop,platform
35.46135,128.7532778,대동아파트,대동아파트,"1초동,2금동,5밀성고,5번,5시청,금동1,금동1-2,금동2,금동4,금동7-1,남산1,남산2,삼랑진,수산1,수산2,초동면소,초동면소.,해동1",bus_stop,platform
35.46188056,128.7537028,대동아파트,대동아파트,"1-2금동,1금동,5금동,5밀성고,5번,5시청,7-1번,남산1,남산2,삼랑진,수산1,수산2,초동3,초동공단.,해동1",bus_stop,platform
35.59179444,128.8874667,대사,대사,"얼음골,얼음골1,얼음골2,얼음골3",bus_stop,platform
35.59179444,128.8875167,대사,대사,"얼음골,얼음골1,얼음골2,얼음골3",bus_stop,platform
35.46271944,128.7645889,대성,대성,"대흥동1,대흥동2",bus_stop,platform
35.46289444,128.7646222,대성,대성,"대흥동1,대흥동2",bus_stop,platform
35.47429722,128.769075,대승빌라,대승빌라,"1-2가곡,1-2금동,1-2번,1-2부산대,1가곡,1금동,1번,1부산대,1서가정,1용성,1칠성,1칠성.,2가곡,2번,2부산대,2용성,2초동,2초동.,2칠성,3-1번,3-1부산대,3금곡,3번,3상동,4-1롯데,4-1번,4-1번.,4-1용성,4-1청운,4-2번,4구기,4대항1,4대항2,4대항3,4대항4,4대항5,4대항6,4대항7,4대항8,4대항9,4부산대,4퇴로1,4퇴로2,4퇴로3,4퇴로4,4퇴로5,4퇴로6,4퇴로7,4퇴로8,5금동,5밀성고,5밀성고,5번,5시청,5시청,6-1번,6번,6부산대,6상동,6상동2,6엄광,6활성,7-1번,7롯데,7번,7삼랑,7지동,9롯데,9번,가곡,남산1,대흥동2,삼랑진,용성1,해동1,화봉1",bus_stop,platform
35.50591944,128.7569306,대웅맨션,대웅맨션,"1-2가곡,1-2금동,1-2번,1-2부산대,1가곡,1금동,1번,1부산대,1서가정,1용성,1초동,1칠성,3-1번,3-1부산대,3번,3상동,4-2번,5시청,6-1번,6번,6부산대,6상동,6상동1,6상동2,9롯데,9번,가곡,상동,화봉1",bus_stop,platform
35.57563611,128.6608194,대촌,대촌,"대촌1,대촌2",bus_stop,platform
35.57561111,128.6609,대촌,대촌,"대촌1,대촌2",bus_stop,platform
35.50278055,128.7981694,대촌,대촌,"3금곡,6활성,6활성1,감물리,감물리1,감물리2,감물리3,감물리4,감물리5,고례1,고례2,고례3,국전,국전1,국전2,국전3,국전4,발례,발례1,발례2,얼음골,얼음골1,얼음골2,얼음골3,표충사,표충사1,표충사2,표충사3",bus_stop,platform
35.50266944,128.7981361,대촌,대촌,"3금곡,6활성,6활성1,감물리,감물리1,감물리2,감물리3,감물리4,감물리5,고례1,고례2,고례3,국전,국전1,국전2,국전3,국전4,발례,발례1,발례2,얼음골,얼음골1,얼음골2,얼음골3,표충사,표충사1,표충사2,표충사3",bus_stop,platform
35.54496667,128.6849139,대항종점,대항종점,"4구기,4구기,4대항1,4대항2,4대항3,4대항4,4대항5,4대항6,4대항7,4대항8,4대항9,4퇴로2,4퇴로5,4퇴로6,4퇴로7,4퇴로8",bus_stop,platform
35.431925,128.7902444,대흥동,대흥동,"대흥동1,대흥동2",bus_stop,platform
35.51456111,128.7117361,덕곡,덕곡,청운,bus_stop,platform
35.51148889,128.7098917,덕곡회관,덕곡회관,"2청운,4-1청운,4대항5,4대항9,청운,청운.",bus_stop,platform
35.54667778,128.6517389,덕법,덕법,"대촌1,대촌2",bus_stop,platform
35.54109444,128.6495722,덕법입구,덕법입구,"구기1,구기3,대촌1,대촌1,대촌2,두곡,조천,조천1,조천2",bus_stop,platform
35.46216944,128.6287833,덕암,덕암,"서가정3,서가정7",bus_stop,platform
35.46218056,128.6287306,덕암,덕암,서가정1,bus_stop,platform
35.55931111,128.8310917,도곡종점,도곡종점,"도곡1,도곡2,도곡4,신곡1",bus_stop,platform
35.55911944,128.8209639,도곡회관,도곡회관,"도곡1,도곡2,도곡4,신곡1",bus_stop,platform
35.55906944,128.8209833,도곡회관,도곡회관,"도곡1,도곡2,도곡4,신곡1",bus_stop,platform
35.3557478,128.7628068,도암,도암,"수산1,수산2,오산",bus_stop,platform
35.35576111,128.7628722,도암,도암,"수산1,수산2,오산",bus_stop,platform
35.49446389,128.7570556,동문고개,동문고개,"감물리4,고례2,국전2,도곡1,도곡4,발례1,신곡3,신곡4,얼음골2,엄광2,옥산2,표충사2",bus_stop,platform
35.53630556,128.6652528,동산,동산,"구기1,조천2",bus_stop,platform
35.53609444,128.6575639,동산,동산,"구기3,대촌1,대촌2,두곡,소태,조천,조천2",bus_stop,platform
35.38381873,128.7825263,동산,동산,"수산1,수산2",bus_stop,platform
35.38385168,128.7824307,동산,동산,"수산1,수산2",bus_stop,platform
35.53642222,128.6651111,동산,동산,"구기1,조천1",bus_stop,platform
35.53608055,128.6573889,동산,동산,"구기3,대촌1,대촌2,두곡,소태,조천,조천1",bus_stop,platform
35.46045278,128.7692083,동촌,동촌,"대흥동1,대흥동2",bus_stop,platform
35.46013056,128.7695361,동촌,동촌,"대흥동1,대흥동2",bus_stop,platform
35.51993888,128.8871556,동화,동화,"고례1,고례2,고례3,표충사,표충사1,표충사2,표충사3",bus_stop,platform
35.51990556,128.8872944,동화,동화,"고례1,고례2,고례3,표충사,표충사1,표충사2,표충사3",bus_stop,platform
35.55706944,128.6165556,두곡,두곡,두곡,bus_stop,platform
35.55698333,128.6165611,두곡,두곡,두곡,bus_stop,platform
35.3747215,128.7102013,디지털프라자,디지털프라자,"상촌,수산1,수산2,오산",bus_stop,platform
35.37481156,128.7102059,디지털프라자,디지털프라자,"상촌,수산1,수산2,오산",bus_stop,platform
35.37499378,128.7157856,롯데리아,롯데리아,"상촌,수산1,수산2,오산",bus_stop,platform
35.37491413,128.7158417,롯데리아,롯데리아,"상촌,수산1,수산2,오산",bus_stop,platform
35.48901389,128.738775,롯데아파트,롯데아파트,"1서가정,1초동,2청운,2초동,4-1청운,구기3,대촌1,대촌2,두곡,서가정1,서가정2,서가정3,서가정4,서가정5,서가정6,소태,영신2,영신3,조천,조천2,청운,청운.,초동2,초동공단,초동면소,초동면소.,화봉1",bus_stop,platform
35.48886944,128.7387889,롯데아파트,롯데아파트,"10롯데,1서가정,2초동,2초동.,4-1롯데,7롯데,9롯데,구기3,대촌1,대촌2,두곡,서가정1,서가정2,서가정3,서가정4,서가정5,서가정6,소태,영신2,영신3,조천,조천1,초동3,초동공단,초동공단.,화봉1",bus_stop,platform
35.50066944,128.6022806,마곡,마곡,"1서가정,서가정1,서가정2,서가정3,서가정4,서가정5,서가정6",bus_stop,platform
35.40432778,128.7735583,마산,마산,"수산1,수산2,해동1",bus_stop,platform
35.40422024,128.773581,마산,마산,"수산1,수산2,해동1",bus_stop,platform
35.47114722,128.7602778,마암터널,마암터널,"1초동,4-1롯데,4-1번,4-1번.,4-1용성,4-1청운,4구기,4대항1,4대항2,4대항3,4대항4,4대항5,4대항6,4대항7,4대항8,4대항9,4번,4초동,4퇴로1,4퇴로2,4퇴로3,4퇴로4,4퇴로5,4퇴로6,4퇴로7,4퇴로8,9롯데,9번,감물리1,국전1,남산2,대흥동1,수산1,얼음골1,초동면소,초동면소.,표충사1",bus_stop,platform
35.47076389,128.7606694,마암터널,마암터널,"7-1번,7롯데,7번,7삼랑,7지동,9번,남산2,대흥동1,수산1",bus_stop,platform
35.48809444,128.7100278,마흘,마흘,"1서가정,1초동,2초동,구기3,대촌1,대촌2,두곡,서가정1,서가정2,서가정3,서가정4,서가정5,서가정6,소태,영신2,영신3,조천,조천2,초동2,초동공단,초동면소,초동면소.,화봉1",bus_stop,platform
35.488025,128.7100611,마흘,마흘,"1서가정,2초동,구기3,대촌1,대촌2,두곡,서가정1,서가정2,서가정3,서가정4,서가정5,서가정6,소태,영신2,영신3,조천,조천1,초동2,초동3,초동공단,초동공단.,화봉1",bus_stop,platform
35.58546388,128.8051722,매화,매화,"신곡1,신곡3,신곡4,신곡5,신곡6,신곡7",bus_stop,platform
35.58543889,128.8053472,매화,매화,"신곡1,신곡3,신곡4,신곡5,신곡6,신곡7",bus_stop,platform
35.49098611,128.7460028,맥도날드,맥도날드,"10롯데,4-1번,4-1번.,4-1용성,4-1청운,4-2번,4구기,4대항1,4대항2,4대항3,4대항4,4대항5,4대항6,4대항7,4대항8,4대항9,4번,4초동,4퇴로1,4퇴로2,4퇴로3,4퇴로4,4퇴로5,4퇴로6,4퇴로7,4퇴로8,9롯데,9번,감물리1,국전1,대흥동1,수산1,얼음골1,표충사1",bus_stop,platform
35.47256944,128.7770528,멍에실입구,멍에실입구,"4부산대,6용성,가곡,부산대1,부산대1-2,부산대2,부산대3,부산대4,부산대4-1,부산대6,부산대7,부산대7-1,삼랑1,삼랑2,삼랑3-1,삼랑4,삼랑4-1,삼랑7,용성0,용성2,용성7,칠성1-2,칠성2",bus_stop,platform
35.47248056,128.7770361,멍에실입구,멍에실입구,"1-2가곡,1-2부산대,1가곡,1부산대,1용성,1칠성,1칠성.,2가곡,2부산대,2용성,2칠성,3-1부산대,4-1용성,4부산대,4퇴로2,6부산대,6상동2,7롯데,7삼랑,가곡,용성,용성1,칠성",bus_stop,platform
35.3534,128.7669722,명례,명례,"수산1,수산2,오산",bus_stop,platform
35.35332407,128.7669397,명례,명례,"상촌,수산1,수산2,오산",bus_stop,platform
35.41314167,128.7397472,명성,명성,"남산1,남산2",bus_stop,platform
35.41311944,128.73965,명성,명성,"남산1,남산2",bus_stop,platform
35.50772778,128.6270611,모곡,모곡,"영신2,영신3",bus_stop,platform
35.50772778,128.6272194,모곡,모곡,"영신2,영신3,화봉1",bus_stop,platform
35.56766389,128.7989472,모정,모정,"신곡3,신곡4,신곡5,신곡6",bus_stop,platform
35.56765556,128.7988639,모정,모정,"도곡1,도곡2,신곡3,신곡4,신곡5,신곡6",bus_stop,platform
35.57071944,128.7935222,모정입구,모정입구,"신곡1,신곡3,신곡4,신곡5,신곡6,신곡7",bus_stop,platform
35.57068611,128.7936333,모정입구,모정입구,"신곡1,신곡7",bus_stop,platform
35.51020438,128.7532794,목화아파트,목화아파트,"1-2가곡,1-2금동,1-2번,1-2부산대,1가곡,1금동,1번,1부산대,1서가정,1용성,1초동,1칠성,4-2번,9롯데,9번,가곡,화봉1",bus_stop,platform
35.51018611,128.7535389,목화아파트,목화아파트,"2가곡,2번,2부산대,2용성,2청운,2초동,2칠성,5금동,5밀성고,5번,청운.,초동공단.,초동면소",bus_stop,platform
35.49745833,128.8866694,무릉,무릉,"국전,국전1,국전2,국전3,국전4",bus_stop,platform
35.49739167,128.8866417,무릉,무릉,"국전,국전1,국전2,국전3,국전4",bus_stop,platform
35.47002777,128.6517444,무안정류소,무안정류소,"1서가정,1초동,2초동,서가정1,서가정2,서가정3,서가정4,서가정5,서가정6,서가정7,서가정7,초동2,초동공단,초동면소,초동면소.",bus_stop,platform
35.47005278,128.6518667,무안정류소,무안정류소,"1서가정,2초동,구기3,구기3,대촌1,대촌1,대촌2,대촌2,두곡,두곡,서가정1,서가정2,서가정3,서가정4,서가정5,서가정6,서가정7,소태,소태,영신2,영신2,영신3,영신3,조천,조천,조천1,조천2,초동2,초동3,초동공단,초동공단.,화봉1",bus_stop,platform
35.53976944,128.7199972,무연,무연,"4대항4,4퇴로4,4퇴로7",bus_stop,platform
35.53988889,128.7199417,무연,무연,"4대항5,4대항9,4퇴로3",bus_stop,platform
35.49820556,128.7515194,문화탕,문화탕,"10롯데,1서가정,2가곡,2번,2부산대,2용성,2청운,2초동,2초동,2초동.,2칠성,3금곡,3번,4-1롯데,4-1번,4-1청운,4-1청운,4구기,4대항2,4대항4,4대항5,4대항6,4대항8,4퇴로1,4퇴로3,4퇴로6,4퇴로8,5금동,5밀성고,5번,6-1번,감물리,감물리1,국전1,국전4,도곡2,신곡1,신곡5,신곡6,얼음골,얼음골1,옥산1,표충사,표충사1",bus_stop,platform
35.49849167,128.7516722,문화탕,문화탕,"1-2가곡,1-2금동,1-2번,1-2부산대,1가곡,1금동,1번,1부산대,1서가정,1용성,1초동,1칠성,3-1번,3-1부산대,3금곡,3번,3상동,4-2번,7-1번,7롯데,7번,7삼랑,7지동,9롯데,9번,가곡,화봉1",bus_stop,platform
35.50442222,128.7447861,미리벌관,미리벌관,"1-2가곡,1-2금동,1-2번,1-2부산대,7-1번,7롯데,7번,7삼랑,7지동",bus_stop,platform
35.50438888,128.7445556,미리벌관,미리벌관,"4-1롯데,4-1번,4-1번.,4-1용성,4-1청운",bus_stop,platform
35.48121423,128.748898,미리벌초교,미리벌초교,"10롯데,4-1롯데,4-1번,4-1번.,4-1용성,4-1청운,4-2번",bus_stop,platform
35.4810126,128.7491305,미리벌초교,미리벌초교,"4-2번,7롯데,7번,7삼랑,7지동",bus_stop,platform
35.40256389,128.8137861,미전,미전,7롯데,bus_stop,platform
35.40445556,128.8121083,미전,미전,7삼랑,bus_stop,platform
35.40260555,128.813875,미전,미전,"삼랑1,삼랑2,삼랑3-1,삼랑4,삼랑4-1,삼랑7",bus_stop,platform
35.50085,128.7525472,밀성고등학교,밀성고등학교,"1-2가곡,1-2금동,1-2번,1-2부산대,1가곡,1금동,1번,1부산대,1서가정,1용성,1초동,1칠성,3-1번,3-1부산대,3금곡,3번,3상동,4-2번,7-1번,7롯데,7번,7삼랑,7지동,9롯데,9번,가곡,화봉1",bus_stop,platform
35.50046389,128.7524306,밀성고등학교,밀성고등학교,"10롯데,1서가정,2가곡,2번,2부산대,2용성,2청운,2초동,2초동,2초동.,2칠성,3금곡,3번,4-1롯데,4-1번,4-1청운,4-1청운,4구기,4대항2,4대항4,4대항5,4대항6,4대항8,4퇴로1,4퇴로3,4퇴로6,4퇴로8,5금동,5밀성고,5번,6-1번,감물리,감물리1,국전1,국전4,도곡2,신곡1,신곡5,신곡6,얼음골,얼음골1,옥산1,표충사,표충사1",bus_stop,platform
35.50311111,128.7508444,밀성제일고,밀성제일고,"10롯데,1서가정,2가곡,2번,2부산대,2용성,2청운,2초동,2초동,2초동.,2칠성,4-1롯데,4-1번,4-1청운,4-1청운,4구기,4대항2,4대항4,4대항5,4대항6,4대항8,4퇴로1,4퇴로3,4퇴로6,4퇴로8,5금동,5번,6-1번,6번,6부산대,6상동,6상동1,6상동2,도곡1,도곡4,상동,신곡1,신곡3,신곡4,신곡5,신곡7,옥산2,청운.,초동공단.,초동면소",bus_stop,platform
35.50345,128.7514028,밀성제일고,밀성제일고,"1-2가곡,1-2금동,1-2번,1-2부산대,1가곡,1금동,1번,1부산대,1서가정,1용성,1초동,1칠성,3-1번,3-1부산대,3상동,4-2번,5시청,6번,6부산대,6상동,6상동1,6상동2,7-1번,7롯데,7번,7삼랑,7지동,9롯데,9번,가곡,초동공단.,초동면소,화봉1",bus_stop,platform
35.50334722,128.7529056,밀성초등학교,밀성초등학교,"10롯데,1서가정,2가곡,2번,2부산대,2용성,2청운,2초동,2초동,2초동.,2칠성,3금곡,3번,4-1롯데,4-1번,4-1청운,4-1청운,4구기,4대항2,4대항4,4대항5,4대항6,4대항8,4퇴로1,4퇴로3,4퇴로6,4퇴로8,5금동,5밀성고,5번,6-1번,감물리,감물리1,국전1,국전4,도곡2,신곡1,신곡5,신곡6,얼음골,얼음골1,옥산1,표충사,표충사1",bus_stop,platform
35.50281111,128.7529083,밀성초등학교,밀성초등학교,"1-2가곡,1-2금동,1-2번,1-2부산대,1가곡,1금동,1번,1부산대,1서가정,1용성,1초동,1칠성,3-1번,3-1부산대,3금곡,3번,3상동,4-2번,7-1번,7롯데,7번,7삼랑,7지동,9롯데,9번,가곡,화봉1",bus_stop,platform
35.46806389,128.7614972,밀양경찰서,밀양경찰서,"1초동,2금동,5밀성고,5번,5시청,7-1번,금동1,금동1-2,금동2,금동4,금동7-1,남산1,남산2,대흥동1,대흥동2,삼랑진,수산1,수산2,초동면소,초동면소.,해동1",bus_stop,platform
35.46811111,128.7611306,밀양경찰서,밀양경찰서,"1-2금동,1금동,5금동,5밀성고,5번,5시청,7-1번,남산1,남산2,대흥동1,대흥동2,삼랑진,수산1,수산2,초동3,초동공단.,해동1",bus_stop,platform
35.49268889,128.7463861,밀양고교,밀양고교,"10롯데,4-1번,4-1번.,4-1용성,4-2번,9롯데,9번,서가정5,영신3",bus_stop,platform
35.49273611,128.7465583,밀양고교,밀양고교,"4-2번,7-1번,9롯데,9번,서가정5,영신3",bus_stop,platform
35.51265278,128.7400028,밀양구치소,밀양구치소,"4대항4,4퇴로4,4퇴로7",bus_stop,platform
35.51255556,128.7399472,밀양구치소,밀양구치소,"4대항5,4대항9,4퇴로3,7지동",bus_stop,platform
35.48729444,128.7489194,밀양병원,밀양병원,"7-1번,7롯데,7번,7삼랑,7지동,9롯데,9번,남산2,대흥동1,수산1",bus_stop,platform
35.49995556,128.7582889,밀양소방서,밀양소방서,"감물리5,고례3,국전3,도곡2,발례2,신곡6,얼음골3,표충사3",bus_stop,platform
35.49989722,128.7578278,밀양소방서,밀양소방서,"감물리4,고례2,국전2,도곡1,발례1,신곡3,신곡4,얼음골2,엄광2,옥산2,표충사2",bus_stop,platform
35.48522222,128.756,밀양시보건소,밀양시보건소,"10롯데,4-2번",bus_stop,platform
35.48510556,128.7561417,밀양시보건소,밀양시보건소,4-2번,bus_stop,platform
35.48324444,128.7589611,밀양여중,밀양여중,"1-2가곡,1-2금동,1-2번,1-2부산대,1가곡,1금동,1번,1부산대,1서가정,1용성,1초동,1칠성,2가곡,2금동,2번,2부산대,2용성,2청운,2초동,2칠성,3-1번,3-1부산대,3금곡,3번,3상동,4-2번,5번,6-1번,6번,6부산대,6상동,6상동1,6상동2,6엄광,6활성,6활성1,7-1번,7롯데,7번,7삼랑,7지동,가곡,수산2,화봉1",bus_stop,platform
35.48302778,128.7589833,밀양여중,밀양여중,"1-2가곡,1-2금동,1-2번,1-2부산대,1가곡,1금동,1번,1부산대,1서가정,1용성,1칠성,1칠성.,2가곡,2번,2부산대,2용성,2초동,2초동.,2칠성,3-1번,3-1부산대,3금곡,3번,3상동,4-1롯데,4-1번,4-1번.,4-1용성,4-1청운,4-2번,4구기,4대항1,4대항2,4대항3,4대항4,4대항5,4대항6,4대항7,4대항8,4대항9,4부산대,4퇴로1,4퇴로2,4퇴로3,4퇴로4,4퇴로5,4퇴로6,4퇴로7,4퇴로8,5금동,5밀성고,5번,5시청,6-1번,6번,6부산대,6상동,6상동2,6엄광,6활성,9롯데,가곡,감물리1,국전1,수산2,얼음골1,용성1,표충사1,화봉1",bus_stop,platform
35.47370833,128.7707278,밀양역,밀양역,"1-2가곡,1-2금동,1-2금동,1-2번,1-2부산대,1가곡,1금동,1금동,1번,1부산대,1서가정,1용성,1초동,1칠성,2가곡,2번,2부산대,2용성,2청운,2초동,2칠성,3-1번,3-1부산대,3금곡,3번,3상동,4-1롯데,4-1번,4-1번.,4-1용성,4-1청운,4-2번,4구기,4대항1,4대항2,4대항3,4대항4,4대항5,4대항6,4대항7,4대항8,4대항9,4번,4초동,4퇴로1,4퇴로2,4퇴로3,4퇴로4,4퇴로5,4퇴로6,4퇴로7,4퇴로8,5금동,5밀성고,5번,5시청,6-1번,6번,6부산대,6상동,6상동1,6상동2,6엄광,6용성,6활성,6활성1,7-1번,7롯데,7번,7삼랑,7지동,9롯데,9번,가곡,남산1,대흥동2,부산대1,부산대1-2,부산대2,부산대3,부산대4,부산대4-1,부산대6,부산대7,부산대7-1,삼랑1,삼랑2,삼랑3-1,삼랑4,삼랑4-1,삼랑7,삼랑진,수산2,용성0,용성2,용성7,칠성1-2,칠성2,해동1,화봉1",bus_stop,platform
35.4734,128.7709667,밀양역,밀양역,"1-2가곡,1-2금동,1-2번,1-2부산대,1가곡,1금동,1번,1부산대,1서가정,1용성,1칠성,1칠성.,2가곡,2금동,2번,2부산대,2용성,2초동,2초동.,2칠성,3-1번,3-1부산대,3금곡,3번,3상동,4-1롯데,4-1번,4-1번.,4-1용성,4-1청운,4-2번,4구기,4대항1,4대항2,4대항3,4대항4,4대항5,4대항6,4대항7,4대항8,4대항9,4부산대,4퇴로1,4퇴로2,4퇴로3,4퇴로4,4퇴로5,4퇴로6,4퇴로7,4퇴로8,5금동,5밀성고,5번,5번,5시청,6-1번,6번,6부산대,6상동,6상동2,6엄광,6활성,7-1번,7롯데,7번,7삼랑,7지동,9롯데,9번,가곡,금동1,금동1-2,금동2,금동4,금동7-1,남산1,대흥동2,삼랑진,용성,용성1,칠성,해동1,화봉1",bus_stop,platform
35.47306389,128.7726111,밀양역(종점),밀양역(종점),"1-2가곡,1-2금동,1-2번,1-2번,1-2부산대,1가곡,1금동,1번,1번,1부산대,1서가정,1서가정,1용성,1초동,1칠성,2가곡,2번,2번,2부산대,2용성,2청운,2초동,2칠성,3-1번,3-1번,3금곡,3금곡,3번,3번,3상동,4-1롯데,4-1번,4-1번,4-1번.,4-1번.,4-1용성,4-1청운,4-1청운,4-2번,4구기,4대항1,4대항1,4대항2,4대항2,4대항3,4대항3,4대항4,4대항4,4대항5,4대항5,4대항6,4대항6,4대항7,4대항7,4대항8,4대항8,4대항9,4번,4부산대,4초동,4퇴로1,4퇴로1,4퇴로2,4퇴로3,4퇴로3,4퇴로4,4퇴로4,4퇴로5,4퇴로6,4퇴로6,4퇴로7,4퇴로8,4퇴로8,5번,5번,5시청,6-1번,6-1번,6번,6번,6부산대,6상동,6상동,6상동1,6상동2,6엄광,6엄광,6활성,6활성1,7-1번,7-1번,7롯데,7번,7번,7삼랑,7지동,7지동,9롯데,9번,9번,공차-운행종료,공차-정비,남산1,남산1,대흥동2,삼랑7,삼랑진,삼랑진,해동1,해동1,화봉1,화봉1",bus_stop,platform
35.48983883,128.7465396,밀양제2교,밀양제2교,"4-2번,7-1번,9롯데,9번,남산2,대흥동1,수산1",bus_stop,platform
35.48885091,128.7542257,밀양초등학교,밀양초등학교,"1-2가곡,1-2금동,1-2번,1-2부산대,1가곡,1금동,1번,1부산대,1서가정,1용성,1초동,1칠성,2가곡,2금동,2번,2부산대,2용성,2청운,2초동,2칠성,3-1번,3-1부산대,3금곡,3번,3상동,5번,6-1번,6번,6부산대,6상동,6상동1,6상동2,6엄광,6활성,6활성1,7-1번,7롯데,7번,7삼랑,7지동,가곡,수산2,화봉1",bus_stop,platform
35.48831032,128.754528,밀양초등학교,밀양초등학교,"1-2가곡,1-2금동,1-2번,1-2부산대,10롯데,1가곡,1금동,1번,1부산대,1서가정,1용성,1칠성,1칠성.,2가곡,2번,2부산대,2용성,2초동,2초동.,2칠성,3-1번,3-1부산대,3금곡,3번,3상동,4-1롯데,4-1번,4-1번.,4-1용성,4-1청운,4구기,4대항1,4대항2,4대항3,4대항4,4대항5,4대항6,4대항7,4대항8,4대항9,4부산대,4퇴로1,4퇴로2,4퇴로3,4퇴로4,4퇴로5,4퇴로6,4퇴로7,4퇴로8,5금동,5밀성고,5번,5시청,6-1번,6번,6부산대,6상동,6상동2,6엄광,6활성,가곡,감물리1,국전1,수산2,얼음골1,용성1,표충사1,화봉1",bus_stop,platform
35.49514297,128.7522358,밀양택시,밀양택시,"1-2가곡,1-2금동,1-2번,1-2부산대,10롯데,1가곡,1금동,1번,1부산대,1용성,1칠성,1칠성.,3-1번,3-1부산대,3상동,4-1번.,4-1용성,4대항1,4대항3,4대항7,4대항9,4부산대,4퇴로2,4퇴로4,4퇴로5,4퇴로7,5금동,5밀성고,5번,5시청,6번,6부산대,6상동,6상동2,6엄광,6활성,가곡,감물리1,감물리5,고례3,국전1,국전3,도곡2,발례2,신곡6,얼음골1,얼음골3,용성1,표충사1,표충사3,화봉1",bus_stop,platform
35.50401944,128.7545583,밀양향교,밀양향교,"1-2가곡,1-2금동,1-2번,1-2부산대,1가곡,1금동,1번,1부산대,1서가정,1용성,1초동,1칠성,3-1번,3-1부산대,3금곡,3번,3상동,4-2번,5시청,6-1번,6번,6부산대,6상동,6상동1,6상동2,6엄광,6활성,6활성1,9롯데,9번,가곡,감물리2,감물리3,감물리5,고례1,고례3,국전,국전3,발례,발례2,상동,신곡7,얼음골3,엄광1,옥산,표충사3,화봉1",bus_stop,platform
35.47825278,128.76385,밀주초등학교,밀주초등학교,"1-2가곡,1-2금동,1-2번,1-2부산대,1가곡,1금동,1번,1부산대,1서가정,1용성,1칠성,1칠성.,2가곡,2번,2부산대,2용성,2초동,2초동.,2칠성,3-1번,3-1부산대,3금곡,3번,3상동,4-1롯데,4-1번,4-1번.,4-1용성,4-1청운,4-2번,4구기,4대항1,4대항2,4대항3,4대항4,4대항5,4대항6,4대항7,4대항8,4대항9,4부산대,4퇴로1,4퇴로2,4퇴로3,4퇴로4,4퇴로5,4퇴로6,4퇴로7,4퇴로8,5금동,5밀성고,5번,5시청,6-1번,6번,6부산대,6상동,6상동2,6엄광,6활성,가곡,용성1,화봉1",bus_stop,platform
35.53329722,128.8485111,박산,박산,"발례,발례1,발례2,얼음골,얼음골1,얼음골2,얼음골3",bus_stop,platform
35.53334166,128.8485528,박산,박산,"발례,발례1,발례2,얼음골,얼음골1,얼음골2,얼음골3",bus_stop,platform
35.56876667,128.8901611,발례종점,발례종점,"발례1,발례2",bus_stop,platform
35.56781389,128.8841222,발음,발음,"발례,발례1,발례2",bus_stop,platform
35.5679,128.8840806,발음,발음,"발례1,발례2",bus_stop,platform
35.59915556,128.9338306,백동골,백동골,"얼음골,얼음골1,얼음골2,얼음골3",bus_stop,platform
35.59908333,128.9337694,백동골,백동골,"얼음골,얼음골1,얼음골2,얼음골3",bus_stop,platform
35.37204803,128.7455846,백산,백산,"상촌,수산1,수산2,오산",bus_stop,platform
35.37204901,128.7456726,백산,백산,"상촌,수산1,수산2,오산",bus_stop,platform
35.49411111,128.6997722,백안,백안,"1서가정,2초동,구기3,대촌1,대촌2,두곡,서가정1,서가정2,서가정3,서가정4,서가정5,서가정6,소태,영신2,영신3,조천,조천1,초동2,초동3,초동공단,초동공단.,화봉1",bus_stop,platform
35.49419722,128.6998056,백안,백안,"1서가정,1초동,2초동,구기3,대촌1,대촌2,두곡,서가정1,서가정2,서가정3,서가정4,서가정5,서가정6,소태,영신2,영신3,조천,조천2,초동2,초동공단,초동면소,초동면소.,화봉1",bus_stop,platform
35.51697777,128.91065,범도,범도,"고례1,고례2,고례3",bus_stop,platform
35.51691389,128.9106528,범도,범도,"고례1,고례2,고례3",bus_stop,platform
35.51167056,128.7611973,범북,범북,"3-1번,3-1부산대,3금곡,3번,3상동,6-1번,6번,6부산대,6상동,6상동1,6상동2,6활성,6활성1,감물리,감물리1,감물리2,감물리3,감물리4,감물리5,고례1,고례2,고례3,국전,국전1,국전2,국전3,국전4,도곡1,도곡2,도곡4,발례,발례1,발례2,상동,신곡1,신곡3,신곡4,신곡5,신곡6,신곡7,얼음골,얼음골1,얼음골2,얼음골3,옥산,옥산1,옥산2,표충사,표충사1,표충사2,표충사3",bus_stop,platform
35.51186389,128.7610944,범북,범북,"3-1번,3-1부산대,3금곡,3번,3상동,6-1번,6번,6부산대,6상동,6상동1,6상동2,6활성,6활성1,감물리,감물리1,감물리2,감물리3,감물리4,감물리5,고례1,고례2,고례3,국전,국전1,국전2,국전3,국전4,도곡1,도곡2,도곡4,발례,발례1,발례2,상동,신곡1,신곡3,신곡4,신곡5,신곡6,신곡7,얼음골,얼음골1,얼음골2,얼음골3,엄광2,옥산,옥산1,옥산2,표충사,표충사1,표충사2,표충사3",bus_stop,platform
35.51230556,128.7638861,범북,범북,"3-1번,3-1부산대,3금곡,3번,3상동,6-1번,6번,6부산대,6상동,6상동1,6상동2,6엄광,상동,엄광1,엄광2",bus_stop,platform
35.512475,128.7637222,범북,범북,"3-1번,3-1부산대,3번,6엄광,엄광1",bus_stop,platform
35.48101667,128.8481667,법흥,법흥,"감물리2,감물리3,감물리4,감물리5",bus_stop,platform
35.48097131,128.8483055,법흥,법흥,"감물리,감물리1,감물리2,감물리4,감물리5",bus_stop,platform
35.50766666,128.8337361,본촌,본촌,"3금곡,감물리,감물리1,감물리2,감물리3,감물리4,감물리5,고례1,고례2,고례3,국전,국전1,국전2,국전3,국전4,발례,발례1,발례2,얼음골,얼음골1,얼음골2,얼음골3,표충사,표충사1,표충사2,표충사3",bus_stop,platform
35.50760556,128.8338694,본촌,본촌,"3금곡,감물리,감물리1,감물리2,감물리3,감물리4,감물리5,고례1,고례2,고례3,국전,국전1,국전2,국전3,국전4,발례,발례1,발례2,얼음골,얼음골1,얼음골2,얼음골3,표충사,표충사1,표충사2,표충사3",bus_stop,platform
35.52661666,128.7200833,봉계삼거리,봉계삼거리,"4구기,4대항1,4대항2,4대항3,4대항6,4대항7,4대항8,4퇴로1,4퇴로2,4퇴로3,4퇴로5,4퇴로6,4퇴로8,구기1,조천1",bus_stop,platform
35.52646389,128.7201889,봉계삼거리,봉계삼거리,"2청운,4-1청운,4구기,4대항1,4대항2,4대항3,4대항4,4대항6,4대항7,4대항8,4퇴로1,4퇴로2,4퇴로4,4퇴로5,4퇴로6,4퇴로7,4퇴로8,구기1,조천2,청운,청운.",bus_stop,platform
35.45272778,128.6920778,봉황,봉황,"2초동,초동2,초동3,초동공단,초동공단.",bus_stop,platform
35.45268055,128.6918444,봉황,봉황,"1초동,2초동,초동2,초동공단,초동면소,초동면소.",bus_stop,platform
35.51133889,128.7289028,부북농협,부북농협,"2청운,4-1청운,4구기,4대항1,4대항2,4대항3,4대항4,4대항6,4대항7,4대항8,4부산대,4퇴로1,4퇴로2,4퇴로4,4퇴로5,4퇴로6,4퇴로7,4퇴로8,7-1번,7롯데,7번,7삼랑,7지동,구기1,청운,청운.",bus_stop,platform
35.51155833,128.7291972,부북농협,부북농협,"4구기,4대항1,4대항2,4대항3,4대항5,4대항6,4대항7,4대항8,4대항9,4퇴로1,4퇴로2,4퇴로3,4퇴로5,4퇴로6,4퇴로8,7롯데,구기1",bus_stop,platform
35.45376667,128.8066806,부산대학교밀양캠퍼스,부산대학교밀양캠퍼스,"1-2부산대,1부산대,1용성,1칠성,1칠성.,2부산대,2용성,2칠성,3-1부산대,4-1용성,4부산대,4퇴로2,6부산대,6상동2,6용성,7롯데,7삼랑,부산대1,부산대1-2,부산대2,부산대3,부산대4,부산대4-1,부산대6,부산대7,부산대7-1,삼랑1,삼랑2,삼랑3-1,삼랑4,삼랑4-1,삼랑7,용성,용성0,용성1,용성2,용성7,칠성,칠성1-2,칠성2",bus_stop,platform
35.48049167,128.7620556,부전아파트,부전아파트,"1-2가곡,1-2금동,1-2번,1-2부산대,1가곡,1금동,1번,1부산대,1서가정,1용성,1칠성,1칠성.,2가곡,2번,2부산대,2용성,2초동,2초동.,2칠성,3-1번,3-1부산대,3금곡,3번,3상동,4-1롯데,4-1번,4-1번.,4-1용성,4-1청운,4-2번,4구기,4대항1,4대항2,4대항3,4대항4,4대항5,4대항6,4대항7,4대항8,4대항9,4부산대,4퇴로1,4퇴로2,4퇴로3,4퇴로4,4퇴로5,4퇴로6,4퇴로7,4퇴로8,5금동,5밀성고,5번,5시청,6-1번,6번,6부산대,6상동,6상동2,6엄광,6활성,9롯데,가곡,감물리1,국전1,수산2,얼음골1,용성1,표충사1,화봉1",bus_stop,platform
35.49578889,128.7511861,북성사거리,북성사거리,"1-2가곡,1-2금동,1-2번,1-2부산대,1가곡,1금동,1번,1부산대,1용성,1칠성,1칠성.,3-1번,3-1부산대,3상동,4-1번.,4-1용성,4-2번,4대항1,4대항3,4대항7,4대항9,4부산대,4퇴로2,4퇴로4,4퇴로5,4퇴로7,5시청,6번,6부산대,6상동,6상동2,6엄광,6활성,7-1번,9롯데,9번,가곡,감물리5,고례3,국전3,도곡2,서가정5,수산2,신곡6,얼음골3,영신3,용성1,표충사3,화봉1",bus_stop,platform
35.49591111,128.7510083,북성사거리,북성사거리,"2가곡,2금동,2번,2부산대,2용성,2청운,2청운,2초동,2초동,2칠성,4-1번,4-1번.,4-1용성,4-1청운,5번,6-1번,6번,6부산대,6상동,6상동1,6상동2,6엄광,6활성,6활성1,감물리,감물리4,고례2,국전2,국전4,도곡1,도곡2,도곡4,발례1,서가정5,수산2,신곡1,신곡3,신곡4,신곡5,신곡6,얼음골,얼음골2,엄광2,영신3,옥산1,옥산2,표충사,표충사2",bus_stop,platform
35.50034722,128.7461278,북성지구대,북성지구대,10롯데,bus_stop,platform
35.41068333,128.7510889,사당동,사당동,"남산1,남산2",bus_stop,platform
35.41086389,128.7511306,사당동,사당동,"남산1,남산2",bus_stop,platform
35.51516111,128.8816139,사연,사연,"고례1,고례2,고례3,표충사,표충사1,표충사2,표충사3",bus_stop,platform
35.5151,128.8817889,사연,사연,"고례1,고례2,고례3,표충사,표충사1,표충사2,표충사3",bus_stop,platform
35.473475,128.8439833,사지,사지,"감물리2,감물리3,감물리4,감물리5",bus_stop,platform
35.473625,128.8440389,사지,사지,"감물리,감물리1,감물리2,감물리4,감물리5",bus_stop,platform
35.49665,128.8380972,사촌,사촌,"감물리,감물리,감물리1,감물리1,감물리2,감물리3,감물리4,감물리4,감물리5",bus_stop,platform
35.49673056,128.8378611,사촌,사촌,"감물리,감물리1,감물리2,감물리2,감물리3,감물리3,감물리4,감물리5,감물리5",bus_stop,platform
35.47904722,128.76345,삼강그린아파트,삼강그린아파트,"1-2가곡,1-2금동,1-2번,1-2부산대,1가곡,1금동,1번,1부산대,1서가정,1용성,1초동,1칠성,2가곡,2금동,2번,2부산대,2용성,2청운,2초동,2칠성,3-1번,3-1부산대,3금곡,3번,3상동,4-2번,5번,6-1번,6번,6부산대,6상동,6상동1,6상동2,6엄광,6활성,6활성1,7-1번,7롯데,7번,7삼랑,7지동,가곡,수산2,화봉1",bus_stop,platform
35.52434444,128.920775,삼거,삼거,"표충사,표충사1,표충사2,표충사3",bus_stop,platform
35.52438333,128.9207806,삼거,삼거,"표충사,표충사1,표충사2,표충사3",bus_stop,platform
35.396425,128.8359833,삼랑진,삼랑진,"삼랑1,삼랑2,삼랑3-1,삼랑4,삼랑4-1,삼랑7,삼랑진",bus_stop,platform
35.39632778,128.8360917,삼랑진,삼랑진,"7롯데,7삼랑",bus_stop,platform
35.48643611,128.7561722,삼문동 공설운동장,삼문동 공설운동장,"1-2가곡,1-2금동,1-2번,1-2부산대,1가곡,1금동,1번,1부산대,1서가정,1용성,1초동,1칠성,2가곡,2금동,2번,2부산대,2용성,2청운,2초동,2칠성,3-1번,3-1부산대,3금곡,3번,3상동,5번,6-1번,6번,6부산대,6상동,6상동1,6상동2,6엄광,6활성,6활성1,7-1번,7롯데,7번,7삼랑,7지동,가곡,수산2,화봉1",bus_stop,platform
35.48290236,128.7524217,삼문동행정복지센터,삼문동행정복지센터,4-2번,bus_stop,platform
35.48297656,128.7519661,삼문동행정복지센터,삼문동행정복지센터,"4-1롯데,4-1번,4-1번.,4-1용성,4-1청운,4-2번",bus_stop,platform
35.48262778,128.7531306,삼문동행정복지센터,삼문동행정복지센터,"10롯데,1초동,4구기,4대항1,4대항2,4대항3,4대항4,4대항5,4대항6,4대항7,4대항8,4대항9,4번,4퇴로1,4퇴로2,4퇴로3,4퇴로4,4퇴로5,4퇴로6,4퇴로7,4퇴로8,9롯데,9번,감물리1,국전1,남산2,대흥동1,수산1,얼음골1,초동면소,초동면소.,표충사1",bus_stop,platform
35.48451111,128.7512806,삼문주공아파트,삼문주공아파트,"7-1번,9롯데,9번,남산2,대흥동1,수산1,초동3,초동공단.",bus_stop,platform
35.48428333,128.7517917,삼문주공아파트,삼문주공아파트,"1초동,4구기,4대항1,4대항2,4대항3,4대항4,4대항5,4대항6,4대항7,4대항8,4대항9,4번,4초동,4퇴로1,4퇴로2,4퇴로3,4퇴로5,4퇴로6,4퇴로7,4퇴로8,9롯데,9번,감물리1,국전1,남산2,대흥동1,수산1,얼음골1,초동면소,초동면소.,표충사1",bus_stop,platform
35.49815,128.7468611,삼성전자서비스,삼성전자서비스,10롯데,bus_stop,platform
35.49273888,128.7483861,삼우아파트,삼우아파트,"4-2번,7-1번,9롯데,9번,서가정5,영신3",bus_stop,platform
35.49264444,128.7484778,삼우아파트,삼우아파트,"4-1번,4-1번.,4-1용성,4-2번,9롯데,9번,서가정5,영신3",bus_stop,platform
35.48941667,128.6553361,삼태,삼태,"구기3,대촌1,대촌2,두곡,소태,조천,조천2",bus_stop,platform
35.48938055,128.6551778,삼태,삼태,"구기3,대촌1,대촌2,두곡,소태,조천,조천1",bus_stop,platform
35.44890278,128.7535028,상남면사무소,상남면사무소,"1-2금동,1금동,5금동,5밀성고,5번,5시청,남산1,남산2,삼랑진,수산1,수산2,초동3,초동공단.,해동1",bus_stop,platform
35.44898333,128.7536806,상남면사무소,상남면사무소,"1초동,2금동,5밀성고,5번,5시청,금동1,금동1-2,금동2,금동4,금동7-1,남산1,남산2,삼랑진,수산1,수산2,초동면소,초동면소.,해동1",bus_stop,platform
35.55546389,128.7615361,상동역,상동역,"도곡1,도곡2,도곡4,상동,신곡1,신곡3,신곡4,신곡5,신곡6,신곡7,옥산,옥산1,옥산2",bus_stop,platform
35.55540555,128.7613833,상동역,상동역,"3상동,6상동,6상동1,6상동2,도곡1,도곡2,도곡4,상동,신곡1,신곡3,신곡4,신곡5,신곡6,신곡7,옥산,옥산1,옥산2",bus_stop,platform
35.473575,128.8524167,상봉,상봉,"감물리2,감물리3,감물리4,감물리5",bus_stop,platform
35.47360556,128.8524917,상봉,상봉,"감물리,감물리1,감물리2,감물리4,감물리5",bus_stop,platform
35.48519508,128.7493699,새미리벌로,새미리벌로,"7롯데,7번,7지동",bus_stop,platform
35.4851486,128.7494681,새미리벌로,새미리벌로,"10롯데,4-1롯데,4-1번,4-1번.,4-1용성,4-1청운,4-2번",bus_stop,platform
35.48646076,128.6007731,새터,새터,"1서가정,서가정1,서가정7",bus_stop,platform
35.48635748,128.6007462,새터,새터,"서가정2,서가정3,서가정4,서가정5",bus_stop,platform
35.48908333,128.5903056,서가정종점,서가정종점,"1서가정,서가정1,서가정2,서가정3,서가정4,서가정5,서가정6,서가정7",bus_stop,platform
35.504175,128.738025,서원유통,서원유통,"4구기,4대항1,4대항2,4대항3,4대항4,4대항6,4대항7,4대항8,4부산대,4퇴로1,4퇴로2,4퇴로4,4퇴로5,4퇴로6,4퇴로7,4퇴로8,7-1번,7롯데,7번,7삼랑,7지동,구기1,조천2,청운",bus_stop,platform
35.50419722,128.7383806,서원유통,서원유통,"4-1롯데,4-1번,4-1번.,4-1용성,4구기,4대항1,4대항2,4대항3,4대항5,4대항6,4대항7,4대항8,4대항9,4퇴로1,4퇴로2,4퇴로3,4퇴로5,4퇴로6,4퇴로8,7-1번,7롯데,7번,7삼랑,7지동,구기1,조천1",bus_stop,platform
35.52613889,128.8974611,석전,석전,"고례1,고례2,고례3,표충사,표충사1,표충사2,표충사3",bus_stop,platform
35.52607222,128.8974111,석전,석전,"고례1,고례2,고례3,표충사,표충사1,표충사2,표충사3",bus_stop,platform
35.40799444,128.6954944,성만상회,성만상회,"초동3,초동공단.",bus_stop,platform
35.40796944,128.6953361,성만상회,성만상회,"1초동,초동면소,초동면소.",bus_stop,platform
35.486225,128.7497444,세광아파트,세광아파트,"7-1번,7롯데,7번,7삼랑,7지동,9롯데,9번,남산2,수산1",bus_stop,platform
35.48648056,128.7499861,세광아파트,세광아파트,"10롯데,4-1롯데,4-1번,4-1번.,4-1용성,4-1청운,4-2번,4구기,4대항1,4대항2,4대항3,4대항4,4대항5,4대항6,4대항7,4대항8,4대항9,4번,4초동,4퇴로1,4퇴로2,4퇴로3,4퇴로4,4퇴로5,4퇴로6,4퇴로7,4퇴로8,9롯데,9번,감물리1,국전1,남산2,대흥동1,수산1,얼음골1,표충사1",bus_stop,platform
35.48460278,128.7575917,세무서,세무서,"1-2가곡,1-2금동,1-2번,1-2부산대,1가곡,1금동,1번,1부산대,1서가정,1용성,1칠성,1칠성.,2가곡,2번,2부산대,2용성,2초동,2초동.,2칠성,3-1번,3-1부산대,3금곡,3번,3상동,4-1롯데,4-1번,4-1번.,4-1용성,4-1청운,4-2번,4구기,4대항1,4대항2,4대항3,4대항4,4대항5,4대항6,4대항7,4대항8,4대항9,4부산대,4퇴로1,4퇴로2,4퇴로3,4퇴로4,4퇴로5,4퇴로6,4퇴로7,4퇴로8,5금동,5밀성고,5번,5시청,6-1번,6번,6부산대,6상동,6상동2,6엄광,6활성,가곡,감물리1,국전1,수산2,얼음골1,용성1,표충사1,화봉1",bus_stop,platform
35.47344166,128.763325,세종고교(뚝길),세종고교(뚝길),"9롯데,감물리1,국전1,수산2,얼음골1,표충사1",bus_stop,platform
35.4761,128.7660111,세종병원,세종병원,"1-2가곡,1-2금동,1-2번,1-2부산대,1가곡,1금동,1번,1부산대,1서가정,1용성,1초동,1칠성,2가곡,2금동,2번,2부산대,2용성,2청운,2초동,2칠성,3-1번,3-1부산대,3금곡,3번,3상동,4-2번,5번,6-1번,6번,6부산대,6상동,6상동1,6상동2,6엄광,6활성,6활성1,7-1번,7롯데,수산2,화봉1",bus_stop,platform
35.40445277,128.7603528,세천,세천,"1초동,초동3,초동공단.,초동면소,초동면소.",bus_stop,platform
35.57319167,128.8742667,소고,소고,"발례1,발례1,발례2,발례2,얼음골,얼음골1,얼음골2,얼음골3",bus_stop,platform
35.57314444,128.8744083,소고,소고,"발례1,발례1,발례2,발례2,얼음골,얼음골1,얼음골2,얼음골3",bus_stop,platform
35.56631389,128.6194944,소태종점,소태종점,소태,bus_stop,platform
35.56394444,128.8107944,솔방입구,솔방입구,신곡1,bus_stop,platform
35.51717778,128.7745361,송림휴게소,송림휴게소,"3-1번,3-1부산대,3번,3상동,6-1번,6번,6부산대,6상동,6상동1,6상동2,상동",bus_stop,platform
35.58626111,128.8814611,송백,송백,"발례,발례,얼음골,얼음골1,얼음골2,얼음골3",bus_stop,platform
35.58631111,128.8813944,송백,송백,"발례1,발례1,발례2,발례2,얼음골,얼음골1,얼음골2,얼음골3",bus_stop,platform
35.37431944,128.7067361,수산정류소종점,수산정류소종점,"상촌,상촌,수산1,수산2,오산,오산",bus_stop,platform
35.52717222,128.7979778,숲촌,숲촌,"6엄광,엄광1,엄광2",bus_stop,platform
35.52718333,128.7979,숲촌,숲촌,"6엄광,엄광1,엄광2",bus_stop,platform
35.48683333,128.7556778,시립도서관,시립도서관,"1-2가곡,1-2금동,1-2번,1-2부산대,10롯데,1가곡,1금동,1번,1부산대,1서가정,1용성,1칠성,1칠성.,2가곡,2번,2부산대,2용성,2초동,2초동.,2칠성,3-1번,3-1부산대,3금곡,3번,3상동,4-1롯데,4-1번,4-1번.,4-1용성,4-1청운,4구기,4대항1,4대항2,4대항3,4대항4,4대항5,4대항6,4대항7,4대항8,4대항9,4부산대,4퇴로1,4퇴로2,4퇴로3,4퇴로4,4퇴로5,4퇴로6,4퇴로7,4퇴로8,5금동,5밀성고,5번,5시청,6-1번,6번,6부산대,6상동,6상동2,6엄광,6활성,가곡,감물리1,국전1,수산2,얼음골1,용성1,표충사1,화봉1",bus_stop,platform
35.49258403,128.7514337,시민약국맞은편,시민약국맞은편,"1-2가곡,1-2금동,1-2번,1-2부산대,1가곡,1금동,1번,1부산대,1서가정,1용성,1초동,1칠성,3-1번,3-1부산대,3금곡,3번,3상동,7-1번,7롯데,7번,7삼랑,7지동,가곡,화봉1",bus_stop,platform
35.49813889,128.7438111,시외버스터미널,시외버스터미널,"1-2가곡,1-2금동,1-2번,1-2부산대,10롯데,1가곡,1금동,1번,1부산대,1용성,1초동,1칠성,1칠성.,2청운,3-1번,3-1부산대,3상동,4-1번.,4-1용성,4-2번,4구기,4대항1,4대항3,4대항7,4대항9,4번,4부산대,4초동,4퇴로2,4퇴로4,4퇴로5,4퇴로6,4퇴로7,5시청,6번,6부산대,6상동,6상동1,6상동2,6엄광,6활성,6활성1,7-1번,7롯데,7삼랑,9롯데,9번,가곡,감물리1,감물리2,감물리3,감물리5,감물리5,고례1,고례3,고례3,구기1,구기3,국전,국전1,국전3,국전3,남산2,대촌1,대촌2,대흥동1,도곡2,두곡,발례,발례1,발례2,상동,서가정1,서가정2,서가정3,서가정4,서가정5,서가정6,소태,수산1,수산2,신곡6,신곡7,얼음골1,얼음골3,얼음골3,엄광1,영신2,영신3,옥산,용성1,조천,조천1,조천2,청운,청운.,초동2,초동공단.,초동면소,초동면소,초동면소.,표충사1,표충사3,표충사3,화봉1",bus_stop,platform
35.49821389,128.7437028,시외버스터미널,시외버스터미널,"1서가정,1서가정,1초동,2가곡,2금동,2번,2부산대,2용성,2청운,2청운,2초동,2초동,2칠성,4-1번,4-1번.,4-1용성,4-1청운,4구기,4대항1,4대항2,4대항2,4대항3,4대항4,4대항4,4대항5,4대항5,4대항6,4대항6,4대항7,4대항8,4대항8,4대항9,4퇴로1,4퇴로2,4퇴로3,4퇴로3,4퇴로4,4퇴로5,4퇴로6,4퇴로7,4퇴로8,4퇴로8,5금동,5번,6-1번,6번,6부산대,6상동,6상동1,6상동2,6엄광,6활성,6활성1,7롯데,감물리,감물리,감물리1,감물리2,감물리3,감물리4,감물리4,고례1,고례2,고례2,구기1,구기3,국전,국전1,국전2,국전2,국전4,국전4,남산2,대촌1,대촌2,대흥동1,도곡1,도곡1,도곡2,도곡4,도곡4,두곡,발례,발례1,발례2,상동,서가정1,서가정2,서가정3,서가정4,서가정5,서가정6,소태,수산1,수산2,신곡1,신곡1,신곡3,신곡3,신곡4,신곡4,신곡5,신곡5,신곡6,신곡7,얼음골,얼음골,얼음골1,얼음골2,얼음골2,엄광1,엄광2,엄광2,영신2,영신3,옥산,옥산1,옥산1,옥산2,옥산2,조천,조천1,조천2,청운,청운.,청운.,초동2,초동3,초동공단,초동공단.,초동면소,초동면소.,표충사,표충사,표충사1,표충사2,표충사2,화봉1",bus_stop,platform
35.50218056,128.7459472,시청,시청,"10롯데,1서가정,2가곡,2번,2부산대,2용성,2청운,2초동,2초동,2초동.,2칠성,4-1롯데,4-1번,4-1청운,4-1청운,4구기,4대항2,4대항4,4대항5,4대항6,4대항8,4퇴로1,4퇴로3,4퇴로6,4퇴로8,5금동,5번,6-1번,6번,6부산대,6상동,6상동1,6상동2,6엄광,6활성,6활성1,감물리,감물리1,감물리2,감물리3,감물리4,고례1,고례2,국전,국전1,국전2,국전4,도곡1,도곡4,발례,발례1,상동,신곡1,신곡3,신곡4,신곡5,신곡7,얼음골,얼음골1,얼음골2,엄광1,엄광2,옥산,옥산1,옥산2,청운.,초동공단.,초동면소,표충사,표충사1,표충사2",bus_stop,platform
35.50241111,128.7458694,시청,시청,"1-2가곡,1-2금동,1-2번,1-2부산대,1가곡,1금동,1번,1부산대,1용성,1초동,1칠성,3-1번,3-1부산대,3상동,4-2번,5시청,6번,6부산대,6상동,6상동1,6상동2,6엄광,6활성,6활성1,7-1번,7롯데,7번,7삼랑,7지동,9롯데,9번,가곡,감물리2,감물리3,감물리5,고례1,고례3,국전,국전3,발례,발례2,상동,신곡7,얼음골3,엄광1,옥산,청운.,초동공단.,초동면소,표충사3,화봉1",bus_stop,platform
35.50341111,128.7449556,시청서문,시청서문,"4-1번.,4-1용성,4대항5,4대항9,4퇴로3",bus_stop,platform
35.50330556,128.7452083,시청서문,시청서문,"4대항4,4퇴로4,4퇴로7",bus_stop,platform
35.49409444,128.7442417,식량과학원사거리,식량과학원사거리,"10롯데,1서가정,1초동,2초동,2초동.,4-1롯데,4-1청운,4구기,4대항1,4대항2,4대항3,4대항4,4대항5,4대항6,4대항7,4대항8,4대항9,4번,4초동,4퇴로1,4퇴로2,4퇴로3,4퇴로4,4퇴로5,4퇴로6,4퇴로7,4퇴로8,7롯데,감물리1,구기3,국전1,남산2,대촌1,대촌2,대흥동1,두곡,서가정1,서가정2,서가정3,서가정4,서가정6,소태,수산1,얼음골1,영신2,조천,조천1,초동2,초동면소,초동면소.,표충사1,화봉1",bus_stop,platform
35.49276389,128.7444639,식량과학원사거리,식량과학원사거리,"1서가정,1초동,2청운,2초동,4-1청운,7롯데,7롯데,7번,7삼랑,7지동,구기3,남산2,대촌1,대촌2,대흥동1,두곡,서가정1,서가정2,서가정3,서가정4,서가정6,소태,수산1,조천,조천2,청운,청운.,초동2,초동3,초동공단,초동공단.,초동면소,초동면소.,화봉1",bus_stop,platform
35.58716111,128.8176,신곡회관,신곡회관,"신곡1,신곡3,신곡4,신곡5,신곡6,신곡7",bus_stop,platform
35.58723055,128.8175,신곡회관,신곡회관,"신곡1,신곡3,신곡4,신곡5,신곡6,신곡7",bus_stop,platform
35.50298056,128.8039361,신기,신기,"감물리,감물리1,감물리2,감물리3,감물리4,감물리5,고례1,고례2,고례3,국전,국전1,국전2,국전3,국전4,발례,발례1,발례2,얼음골,얼음골1,얼음골2,얼음골3,표충사,표충사1,표충사2,표충사3",bus_stop,platform
35.50309167,128.8039528,신기,신기,"감물리,감물리1,감물리2,감물리3,감물리4,감물리5,고례1,고례2,고례3,국전,국전1,국전2,국전3,국전4,발례,발례1,발례2,얼음골,얼음골1,얼음골2,얼음골3,표충사,표충사1,표충사2,표충사3",bus_stop,platform
35.58292778,128.9681611,신명,신명,"얼음골,얼음골1,얼음골2,얼음골3",bus_stop,platform
35.58300556,128.9682194,신명,신명,"얼음골,얼음골1,얼음골2,얼음골3",bus_stop,platform
35.48228056,128.6559472,신법,신법,소태,bus_stop,platform
35.48226944,128.6558639,신법,신법,"대촌1,소태,화봉1",bus_stop,platform
35.47840278,128.6569833,신법삼거리,신법삼거리,"1서가정,2초동,구기3,구기3,대촌1,대촌2,대촌2,두곡,두곡,서가정1,서가정2,서가정3,서가정4,서가정5,서가정6,서가정7,서가정7,소태,영신2,영신2,영신3,영신3,조천,조천,조천1,조천2,초동2,초동3,초동공단,초동공단.,화봉1",bus_stop,platform
35.47845,128.6568972,신법삼거리,신법삼거리,"1서가정,1초동,2초동,구기3,구기3,대촌1,대촌2,대촌2,두곡,두곡,서가정1,서가정2,서가정3,서가정4,서가정5,서가정6,소태,영신2,영신2,영신3,영신3,조천,조천,조천1,조천2,초동2,초동공단,초동면소,초동면소.,화봉1",bus_stop,platform
35.49069166,128.6898583,신생,신생,"1서가정,1초동,2초동,구기3,대촌1,대촌2,두곡,서가정1,서가정2,서가정3,서가정4,서가정5,서가정6,소태,영신2,영신3,조천,조천2,초동2,초동공단,초동면소,초동면소.,화봉1",bus_stop,platform
35.49063056,128.6898861,신생,신생,"1서가정,2초동,구기3,대촌1,대촌2,두곡,서가정1,서가정2,서가정3,서가정4,서가정5,서가정6,소태,영신2,영신3,조천,조천1,초동2,초동3,초동공단,초동공단.,화봉1",bus_stop,platform
35.42341111,128.6834389,신월,신월,초동공단,bus_stop,platform
35.418075,128.6809278,신월,신월,"2초동,초동2,초동3,초동공단,초동공단.",bus_stop,platform
35.41794722,128.6807833,신월,신월,"1초동,2초동,초동2,초동면소,초동면소.",bus_stop,platform
35.51372222,128.7277139,신전,신전,"2청운,4-1청운,4구기,4대항1,4대항2,4대항3,4대항4,4대항6,4대항7,4대항8,4부산대,4퇴로1,4퇴로2,4퇴로4,4퇴로5,4퇴로6,4퇴로7,4퇴로8,7-1번,7롯데,7번,7삼랑,7지동,구기1,청운,청운.",bus_stop,platform
35.51382222,128.7277556,신전,신전,"4구기,4대항1,4대항2,4대항3,4대항5,4대항6,4대항7,4대항8,4대항9,4퇴로1,4퇴로2,4퇴로3,4퇴로5,4퇴로6,4퇴로8,7롯데,구기1",bus_stop,platform
35.36081496,128.7488383,신촌,신촌,"상촌,수산1,수산2,오산",bus_stop,platform
35.47868333,128.6319278,신촌,신촌,"1서가정,서가정1,서가정2,서가정3,서가정4,서가정5,서가정6",bus_stop,platform
35.47875833,128.6321722,신촌,신촌,"1서가정,서가정1,서가정2,서가정3,서가정4,서가정5,서가정6",bus_stop,platform
35.36075278,128.7487944,신촌,신촌,"상촌,수산1,수산2,오산",bus_stop,platform
35.500825,128.7417306,신촌오거리,신촌오거리,"1서가정,2가곡,2번,2부산대,2용성,2청운,2초동,2초동,2초동.,2칠성,4-1청운,4대항2,4대항4,4대항5,4대항6,4대항8,4퇴로3,4퇴로4,4퇴로6,4퇴로8,5금동,5번,6-1번,6번,6부산대,6상동,6상동1,6상동2,6활성1,도곡1,도곡4,상동,신곡1,신곡3,신곡4,신곡5,신곡7,얼음골1,얼음골2,엄광1,엄광2,옥산,옥산1,옥산2,청운.,초동공단.,초동면소,표충사,표충사1,표충사2",bus_stop,platform
35.50033056,128.7416194,신촌오거리,신촌오거리,"1-2가곡,1-2금동,1-2번,1-2부산대,1가곡,1금동,1번,1부산대,1용성,1초동,1칠성,2청운,3-1번,3-1부산대,3상동,4-1번.,4-1용성,4-2번,4대항2,4대항3,4부산대,4퇴로6,5시청,6번,6부산대,6상동,6상동1,6상동2,7-1번,7롯데,7번,7삼랑,7지동,9롯데,9번,가곡,상동,옥산,청운,청운.,청운.,초동공단.,초동면소",bus_stop,platform
35.41223056,128.6904556,신호,신호,"초동3,초동공단.",bus_stop,platform
35.41203611,128.6902139,신호,신호,"1초동,초동면소,초동면소.",bus_stop,platform
35.48759444,128.7348472,신흥,신흥,"1서가정,2초동,구기3,대촌1,대촌2,두곡,서가정1,서가정2,서가정3,서가정4,서가정5,서가정6,소태,영신2,영신3,조천,조천1,초동2,초동3,초동공단,초동공단.,화봉1",bus_stop,platform
35.48768333,128.7346833,신흥,신흥,"1서가정,1초동,2청운,2초동,4-1청운,구기3,대촌1,대촌2,두곡,서가정1,서가정2,서가정3,서가정4,서가정5,서가정6,소태,영신2,영신3,조천,청운,청운.,초동2,초동공단,초동면소,초동면소.,화봉1",bus_stop,platform
35.50595,128.7571444,아리랑아트센터,아리랑아트센터,"2가곡,2번,2부산대,2용성,2청운,2초동,2칠성,3-1번,3-1부산대,3금곡,3번,3상동,5금동,5번,6-1번,6번,6상동,6상동1,6상동2,6엄광,6활성,6활성1,감물리2,감물리3,감물리4,감물리5,고례1,국전,국전1,국전2,국전3,국전4,도곡1,도곡2,도곡4,발례,발례1,발례2,상동,신곡1,신곡3,신곡4,신곡5,신곡6,신곡7,얼음골,얼음골1,얼음골2,얼음골3,엄광1,엄광2,옥산,옥산1,옥산2,청운.,초동공단.,초동면소,표충사,표충사1,표충사2,표충사3",bus_stop,platform
35.52362778,128.9089528,아불,아불,"고례1,고례2,고례3,표충사,표충사1,표충사2,표충사3",bus_stop,platform
35.52352222,128.9090333,아불,아불,"고례1,고례2,고례3,표충사,표충사1,표충사2,표충사3",bus_stop,platform
35.48173889,128.5914389,아치실,아치실,"서가정2,서가정3,서가정4,서가정5",bus_stop,platform
35.48179722,128.5913667,아치실,아치실,"1서가정,서가정1",bus_stop,platform
35.56603333,128.6538944,안곡동,안곡동,"대촌1,대촌2",bus_stop,platform
35.56601389,128.6540444,안곡동,안곡동,"대촌1,대촌2",bus_stop,platform
35.48649444,128.8496167,안법,안법,"감물리,감물리1,감물리2,감물리3,감물리4,감물리5",bus_stop,platform
35.486525,128.8497111,안법,안법,"감물리,감물리1,감물리2,감물리3,감물리4,감물리5",bus_stop,platform
35.48920278,128.8473778,안포동,안포동,"감물리,감물리1,감물리2,감물리3,감물리4,감물리5",bus_stop,platform
35.48926944,128.8474444,안포동,안포동,"감물리,감물리1,감물리2,감물리3,감물리4,감물리5",bus_stop,platform
35.59979444,128.90735,야촌,야촌,"얼음골,얼음골1,얼음골2,얼음골3",bus_stop,platform
35.59985556,128.9073278,야촌,야촌,"얼음골,얼음골1,얼음골2,얼음골3",bus_stop,platform
35.51095278,128.7985444,양덕,양덕,엄광1,bus_stop,platform
35.51096111,128.7984472,양덕,양덕,엄광2,bus_stop,platform
35.50422778,128.7926639,양덕입구,양덕입구,"6엄광,감물리,감물리1,감물리2,감물리3,감물리4,감물리5,고례1,고례2,고례3,국전,국전1,국전2,국전3,국전4,발례,발례1,발례2,얼음골,얼음골1,얼음골2,얼음골3,엄광2,표충사,표충사1,표충사2,표충사3",bus_stop,platform
35.50411667,128.7926389,양덕입구,양덕입구,"감물리,감물리1,감물리2,감물리3,감물리4,감물리5,고례1,고례2,고례3,국전,국전1,국전2,국전3,국전4,발례,발례1,발례2,얼음골,얼음골1,얼음골2,얼음골3,엄광1,표충사,표충사1,표충사2,표충사3",bus_stop,platform
35.58899444,128.8222889,양지,양지,"신곡5,신곡6,신곡7",bus_stop,platform
35.58898754,128.8222842,양지,양지,"신곡1,신곡3,신곡4",bus_stop,platform
35.51647222,128.6483722,양효,양효,"구기3,대촌1,대촌2,두곡,소태,조천,조천2",bus_stop,platform
35.51640833,128.6482222,양효,양효,"구기3,대촌1,대촌2,두곡,소태,조천,조천1",bus_stop,platform
35.58000833,128.9844028,얼음골종점,얼음골종점,"얼음골,얼음골1,얼음골2,얼음골3",bus_stop,platform
35.53823889,128.8059778,엄광종점,엄광종점,"6엄광,엄광1,엄광2",bus_stop,platform
35.46140555,128.6620917,연상,연상,"1초동,2초동,초동2,초동공단,초동면소,초동면소.",bus_stop,platform
35.46151389,128.6621111,연상,연상,"2초동,초동2,초동3,초동공단,초동공단.",bus_stop,platform
35.49148461,128.7539139,영남루,영남루,"1-2가곡,1-2금동,1-2번,1-2부산대,10롯데,1가곡,1금동,1번,1부산대,1서가정,1용성,1칠성,1칠성.,2가곡,2번,2부산대,2용성,2초동,2초동.,2칠성,3-1번,3-1부산대,3금곡,3번,3상동,4-1롯데,4-1번,4-1번.,4-1용성,4-1청운,4구기,4대항1,4대항2,4대항3,4대항4,4대항5,4대항6,4대항7,4대항8,4대항9,4부산대,4퇴로1,4퇴로2,4퇴로3,4퇴로4,4퇴로5,4퇴로6,4퇴로7,4퇴로8,5금동,5밀성고,5번,5시청,6-1번,6번,6부산대,6상동,6상동2,6엄광,6활성,가곡,감물리1,국전1,수산2,얼음골1,용성1,표충사1,화봉1",bus_stop,platform
35.49204444,128.7540306,영남루입구,영남루입구,"2가곡,2금동,2번,2부산대,2용성,2청운,2초동,2칠성,5번,6-1번,6번,6부산대,6상동,6상동1,6상동2,6엄광,6활성,6활성1,수산2",bus_stop,platform
35.49842222,128.7426222,영남병원,영남병원,"2청운,2초동,2초동,2초동.,4-1롯데,4-1청운,청운.",bus_stop,platform
35.49850833,128.7423333,영남병원,영남병원,"7번,7지동",bus_stop,platform
35.49795832,128.7462333,영남아파트,영남아파트,"1-2가곡,1-2금동,1-2번,1-2부산대,1가곡,1금동,1번,1부산대,1용성,1칠성,1칠성.,3-1번,3-1부산대,3상동,4-1번.,4-1용성,4-2번,4대항1,4대항3,4대항7,4대항9,4부산대,4퇴로2,4퇴로4,4퇴로5,4퇴로7,5시청,6번,6부산대,6상동,6상동2,6엄광,6활성,7-1번,9롯데,9번,가곡,감물리5,고례3,국전3,도곡2,발례2,서가정5,수산2,신곡6,얼음골3,영신3,용성1,표충사3,화봉1",bus_stop,platform
35.49827778,128.7462167,영남아파트,영남아파트,"2가곡,2금동,2번,2부산대,2용성,2청운,2청운,2초동,2초동,2칠성,4-1번,4-1번.,4-1용성,4-1청운,5번,6-1번,6번,6부산대,6상동,6상동1,6상동2,6엄광,6활성,6활성1,감물리,감물리4,고례2,국전2,국전4,도곡1,도곡2,도곡4,발례1,서가정5,수산2,신곡1,신곡3,신곡4,신곡5,신곡6,얼음골,얼음골2,엄광2,영신3,옥산1,옥산2,표충사,표충사2",bus_stop,platform
35.51138056,128.6265222,영신,영신,"영신2,영신3",bus_stop,platform
35.51142222,128.6267139,영신,영신,"영신2,영신3",bus_stop,platform
35.51293611,128.6148472,영안종점,영안종점,"영신2,영신3",bus_stop,platform
35.54183056,128.7192722,영포,영포,"4대항5,4대항9,4퇴로3",bus_stop,platform
35.54183889,128.7192972,영포,영포,"4대항4,4퇴로2,4퇴로4,4퇴로7",bus_stop,platform
35.35731682,128.7796471,예동,예동,"수산1,수산2,오산",bus_stop,platform
35.35738056,128.7796361,예동,예동,"수산1,수산2,오산",bus_stop,platform
35.46604444,128.7592611,예림오거리,예림오거리,"1-2금동,1금동,5금동,5밀성고,5번,5시청,7-1번,남산1,남산2,대흥동1,대흥동2,삼랑진,수산1,수산2,초동3,초동공단.,해동1",bus_stop,platform
35.46562222,128.7593,예림오거리,예림오거리,"대흥동1,대흥동2",bus_stop,platform
35.46543889,128.758875,예림오거리,예림오거리,"1초동,2금동,5밀성고,5번,5시청,7-1번,금동1,금동1-2,금동2,금동4,금동7-1,남산1,남산2,삼랑진,수산1,수산2,초동면소,초동면소.,해동1",bus_stop,platform
35.50112778,128.7233056,오례,오례,"2청운,4-1청운,청운,청운.",bus_stop,platform
35.37077172,128.788937,오산,오산,"수산1,수산2,해동1",bus_stop,platform
35.37085981,128.7889224,오산,오산,"수산1,수산2,오산,해동1",bus_stop,platform
35.56572778,128.7654556,옥산,옥산,"옥산,옥산1,옥산2",bus_stop,platform
35.56576111,128.7652889,옥산,옥산,"옥산,옥산1,옥산2",bus_stop,platform
35.57978056,128.801275,외매화,외매화,"신곡1,신곡3,신곡4,신곡5,신곡6,신곡7",bus_stop,platform
35.57979167,128.8011417,외매화,외매화,"신곡1,신곡3,신곡4,신곡5,신곡6,신곡7",bus_stop,platform
35.37989444,128.7824417,외산,외산,"수산1,수산2,해동1",bus_stop,platform
35.38009522,128.7823316,외산,외산,"수산1,수산2,해동1",bus_stop,platform
35.44565,128.6908917,외송,외송,"2초동,초동공단",bus_stop,platform
35.44569166,128.6906694,외송,외송,"2초동,초동공단",bus_stop,platform
35.55814444,128.6503722,요고리,요고리,"대촌1,대촌2",bus_stop,platform
35.55822778,128.6504639,요고리,요고리,"대촌1,대촌2",bus_stop,platform
35.4808,128.7619639,용두교,용두교,"1-2가곡,1-2금동,1-2번,1-2부산대,1가곡,1금동,1번,1부산대,1서가정,1용성,1초동,1칠성,2가곡,2금동,2번,2부산대,2용성,2청운,2초동,2칠성,3-1번,3-1부산대,3금곡,3번,3상동,4-2번,5번,6-1번,6번,6부산대,6상동,6상동1,6상동2,6엄광,6활성,6활성1,7-1번,7롯데,7번,7삼랑,7지동,가곡,수산2,화봉1",bus_stop,platform
35.44581388,128.8058167,용성,용성,"6용성,삼랑1,삼랑2,삼랑3-1,삼랑4,삼랑4-1,삼랑7,용성0,용성2,용성7,칠성1-2,칠성2",bus_stop,platform
35.44566944,128.8057611,용성,용성,"1용성,1칠성,1칠성.,2용성,2칠성,4-1용성,7롯데,7삼랑,용성,용성1,칠성",bus_stop,platform
35.45408333,128.8760278,용소종점,용소종점,"감물리,감물리1,감물리2,감물리3,감물리4,감물리5",bus_stop,platform
35.49511111,128.7267278,용재,용재,"2청운,4-1청운,청운,청운.",bus_stop,platform
35.56330136,128.8615734,용전,용전,"발례,발례1,발례2,얼음골,얼음골1,얼음골2,얼음골3",bus_stop,platform
35.56352934,128.8609611,용전,용전,"발례,발례1,발례2,얼음골,얼음골1,얼음골2,얼음골3",bus_stop,platform
35.50166389,128.882975,용포동,용포동,"국전,국전1,국전2,국전3,국전4",bus_stop,platform
35.501825,128.8831639,용포동,용포동,"국전,국전1,국전2,국전3,국전4",bus_stop,platform
35.51638056,128.7361028,용포마을,용포마을,"4대항4,4퇴로4,4퇴로7",bus_stop,platform
35.51633611,128.7359972,용포마을,용포마을,"4대항5,4대항9,4퇴로3",bus_stop,platform
35.48316278,128.7458029,우리마트,우리마트,"4-2번,7롯데,7번,7삼랑,7지동",bus_stop,platform
35.48317548,128.7460153,우리마트맞은편,우리마트맞은편,"10롯데,4-1롯데,4-1번,4-1번.,4-1용성,4-1청운,4-2번",bus_stop,platform
35.50939571,128.7524959,우신아파트,우신아파트,"2가곡,2번,2부산대,2용성,2청운,2초동,2칠성,5금동,5밀성고,5번,청운.,초동공단.,초동면소",bus_stop,platform
35.50920548,128.7525634,우신아파트,우신아파트,"1-2가곡,1-2금동,1-2번,1-2부산대,1가곡,1금동,1번,1부산대,1서가정,1용성,1초동,1칠성,4-2번,9롯데,9번,가곡,화봉1",bus_stop,platform
35.46420278,128.7571556,운내,운내,"1초동,2금동,5번,7-1번,금동1,금동1-2,금동2,금동4,금동7-1,남산1,남산2,삼랑진,수산1,수산2,초동면소,초동면소.,해동1",bus_stop,platform
35.46461389,128.757325,운내,운내,"1-2금동,1금동,5금동,5밀성고,5번,5시청,7-1번,남산1,남산2,삼랑진,수산1,수산2,초동3,초동공단.,해동1",bus_stop,platform
35.49523056,128.6792028,운정,운정,"1초동,2초동,구기3,대촌1,대촌2,두곡,서가정1,서가정2,서가정3,서가정4,서가정5,서가정6,소태,영신2,영신3,조천,조천2,초동2,초동공단,초동면소,초동면소.,화봉1",bus_stop,platform
35.49516667,128.6790917,운정,운정,"1서가정,1서가정,2초동,구기3,대촌1,대촌2,두곡,서가정1,서가정2,서가정3,서가정4,서가정5,서가정6,소태,영신2,영신3,조천,조천1,초동2,초동3,초동공단,초동공단.,화봉1",bus_stop,platform
35.47191389,128.5982611,웅동,웅동,"서가정2,서가정3,서가정4,서가정5",bus_stop,platform
35.47185833,128.5982528,웅동,웅동,"1서가정,서가정1",bus_stop,platform
35.60370278,128.9209333,원서,원서,"얼음골,얼음골1,얼음골2,얼음골3",bus_stop,platform
35.60361388,128.9208861,원서,원서,"얼음골,얼음골1,얼음골2,얼음골3",bus_stop,platform
35.53760278,128.7106806,월산,월산,"4퇴로2,4퇴로3",bus_stop,platform
35.54088056,128.7103694,월산,월산,4퇴로1,bus_stop,platform
35.53756944,128.7105333,월산,월산,"4대항3,4대항4,4대항6,4퇴로4,4퇴로6,4퇴로7",bus_stop,platform
35.55068888,128.7161,위양,위양,"4대항3,4대항4,4대항7,4퇴로2,4퇴로4,4퇴로5,4퇴로6,4퇴로7,4퇴로8",bus_stop,platform
35.55059722,128.7161417,위양,위양,"4대항2,4대항5,4대항9,4퇴로1,4퇴로3",bus_stop,platform
35.54852222,128.7733167,유산,유산,"3상동,6상동,6상동1,6상동2,도곡1,도곡2,도곡4,상동,신곡1,신곡3,신곡4,신곡5,신곡6,신곡7,옥산,옥산1,옥산2",bus_stop,platform
35.54859444,128.7734472,유산,유산,"3상동,6상동,6상동1,6상동2,도곡1,도곡2,도곡4,상동,신곡1,신곡3,신곡4,신곡5,신곡6,신곡7,옥산,옥산1,옥산2",bus_stop,platform
35.47845556,128.7550139,유한강변아파트,유한강변아파트,"4-1롯데,4-1번,4-1번.,4-1용성,4-1청운,4구기,4대항1,4대항2,4대항3,4대항4,4대항5,4대항6,4대항7,4대항8,4대항9,4번,4초동,4퇴로1,4퇴로2,4퇴로3,4퇴로4,4퇴로5,4퇴로6,4퇴로7,4퇴로8,9롯데,9번,감물리1,국전1,남산2,대흥동1,수산1,얼음골1,표충사1",bus_stop,platform
35.47843056,128.7548111,유한강변아파트,유한강변아파트,"7-1번,7롯데,7번,7삼랑,7지동,9롯데,9번,남산2,대흥동1,수산1",bus_stop,platform
35.4945,128.8127139,율전,율전,"6활성,6활성1",bus_stop,platform
35.49443056,128.8127417,율전,율전,"6활성,6활성1",bus_stop,platform
35.40496111,128.7451167,은산,은산,"초동3,초동공단.",bus_stop,platform
35.40485833,128.7449861,은산,은산,"1초동,초동면소,초동면소.",bus_stop,platform
35.58254167,128.8307861,음지종점,음지종점,"신곡1,신곡3,신곡4,신곡5,신곡6,신곡7",bus_stop,platform
35.44063611,128.7571639,이연,이연,"1-2금동,1금동,5금동,5밀성고,5번,5시청,남산1,남산2,삼랑진,수산1,수산2,초동3,초동공단.,해동1",bus_stop,platform
35.44092778,128.7571611,이연,이연,"1초동,2금동,5밀성고,5번,5시청,금동1,금동1-2,금동2,금동4,금동7-1,남산1,남산2,삼랑진,수산1,수산2,초동면소,초동면소.,해동1",bus_stop,platform
35.59720013,128.8912211,인곡,인곡,"얼음골,얼음골1,얼음골2,얼음골3",bus_stop,platform
35.59711628,128.8912522,인곡,인곡,"얼음골,얼음골1,얼음골2,얼음골3",bus_stop,platform
35.54450555,128.638425,인산,인산,"4구기,구기1,구기3,대촌1,대촌1,대촌2,두곡,소태,조천,조천1,조천2",bus_stop,platform
35.54459444,128.6385139,인산,인산,"4구기,구기1,구기3,대촌1,대촌1,대촌2,두곡,소태,조천,조천1,조천2",bus_stop,platform
35.39443611,128.7781972,인산,인산,"수산1,수산2,해동1",bus_stop,platform
35.39436625,128.7783011,인산,인산,"수산1,수산2,해동1",bus_stop,platform
35.56878611,128.8781056,임고정,임고정,"발례1,발례2",bus_stop,platform
35.56868333,128.8780639,임고정,임고정,"발례1,발례2",bus_stop,platform
35.57547778,128.8756222,임고정,임고정,"발례1,발례1,발례2,발례2,얼음골,얼음골1,얼음골2,얼음골3",bus_stop,platform
35.57541944,128.8757583,임고정,임고정,"발례1,발례1,발례2,발례2,얼음골,얼음골1,얼음골2,얼음골3",bus_stop,platform
35.45285,128.7974972,임천,임천,"1-2부산대,1부산대,1용성,1칠성,1칠성.,2부산대,2용성,2칠성,3-1부산대,4-1용성,4부산대,4퇴로2,6부산대,6상동2,7롯데,7삼랑,용성,용성1,칠성",bus_stop,platform
35.45294722,128.797425,임천,임천,"4부산대,6용성,부산대1,부산대1-2,부산대2,부산대3,부산대4,부산대4-1,부산대6,부산대7,부산대7-1,삼랑1,삼랑2,삼랑3-1,삼랑4,삼랑4-1,삼랑7,용성0,용성2,용성7,칠성1-2,칠성2",bus_stop,platform
35.56880833,128.8715306,작평,작평,"발례,발례,발례1,발례2,얼음골,얼음골1,얼음골2,얼음골3",bus_stop,platform
35.56885833,128.8714333,작평,작평,"발례,발례,발례1,발례2,얼음골,얼음골1,얼음골2,얼음골3",bus_stop,platform
35.48444722,128.6108389,장재기,장재기,"1서가정,서가정1,서가정4,서가정5,서가정6,서가정7",bus_stop,platform
35.48428056,128.6109139,장재기,장재기,"서가정2,서가정3,서가정4,서가정5,서가정6",bus_stop,platform
35.52196944,128.7105389,적항,적항,"청운,청운.",bus_stop,platform
35.4938804,128.7538502,전통시장,전통시장,"1-2가곡,1-2금동,1-2번,1-2부산대,10롯데,1가곡,1금동,1번,1부산대,1용성,1칠성,1칠성.,3-1번,3-1부산대,3상동,4-1번.,4-1용성,4대항1,4대항3,4대항7,4대항9,4부산대,4퇴로2,4퇴로4,4퇴로5,4퇴로7,5금동,5밀성고,5번,5시청,6번,6부산대,6상동,6상동2,6엄광,6활성,가곡,감물리1,국전1,수산2,얼음골1,얼음골3,용성1,표충사1,화봉1",bus_stop,platform
35.49431389,128.7530944,전통시장입구,전통시장입구,"2가곡,2금동,2번,2부산대,2용성,2청운,2초동,2칠성,5번,6-1번,6번,6부산대,6상동,6상동1,6상동2,6엄광,6활성,6활성1,감물리4,고례2,국전2,도곡1,도곡4,발례1,수산2,신곡3,신곡4,얼음골2,엄광2,옥산2,표충사2",bus_stop,platform
35.58778611,128.8305806,절골,절골,"신곡5,신곡6,신곡7",bus_stop,platform
35.58781389,128.8306028,절골,절골,"신곡1,신곡3,신곡4",bus_stop,platform
35.48720278,128.6667722,정곡,정곡,"1서가정,2초동,구기3,대촌1,대촌2,두곡,서가정1,서가정2,서가정3,서가정4,서가정5,서가정6,소태,영신2,영신3,조천,조천1,초동2,초동3,초동공단,초동공단.,화봉1",bus_stop,platform
35.48721944,128.6666361,정곡,정곡,"1서가정,1초동,2초동,구기3,대촌1,대촌2,두곡,서가정1,서가정2,서가정3,서가정4,서가정5,서가정6,소태,영신2,영신3,조천,조천2,초동2,초동공단,초동면소,초동면소.,화봉1",bus_stop,platform
35.49222222,128.6700278,정곡,정곡,서가정6,bus_stop,platform
35.50875278,128.7858722,정문,정문,"3금곡,6엄광,6활성,6활성1,감물리,감물리1,감물리2,감물리3,감물리4,감물리5,고례1,고례2,고례3,국전,국전1,국전2,국전3,국전4,발례,발례1,발례2,얼음골,얼음골1,얼음골2,얼음골3,엄광1,엄광2,표충사,표충사1,표충사2,표충사3",bus_stop,platform
35.50879722,128.7859139,정문,정문,"3금곡,6엄광,6활성,6활성1,감물리,감물리1,감물리2,감물리3,감물리4,감물리5,고례1,고례2,고례3,국전,국전1,국전2,국전3,국전4,발례,발례1,발례2,얼음골,얼음골1,얼음골2,얼음골3,엄광1,엄광2,표충사,표충사1,표충사2,표충사3",bus_stop,platform
35.48628889,128.7302306,제대사거리,제대사거리,"1서가정,1초동,2초동,구기3,대촌1,대촌2,두곡,서가정1,서가정2,서가정3,서가정4,서가정5,서가정6,소태,영신2,영신3,조천2,초동2,초동공단,초동면소,초동면소.,화봉1",bus_stop,platform
35.48619444,128.7302361,제대사거리,제대사거리,"1서가정,2초동,구기3,두곡,서가정1,서가정2,서가정3,서가정4,서가정5,서가정6,소태,영신2,영신3,조천1,초동3,초동공단,초동공단.,화봉1",bus_stop,platform
35.49657778,128.7484889,제일병원,제일병원,"1-2가곡,1-2금동,1-2번,1-2부산대,1가곡,1금동,1번,1부산대,1용성,1칠성,1칠성.,3-1번,3-1부산대,3상동,4-1번.,4-1용성,4-2번,4대항1,4대항3,4대항7,4대항9,4부산대,4퇴로2,4퇴로4,4퇴로5,4퇴로7,5시청,6번,6부산대,6상동,6상동2,6엄광,6활성,7-1번,9롯데,9번,가곡,감물리5,고례3,국전3,도곡2,발례2,서가정5,수산2,신곡6,얼음골3,영신3,용성1,표충사3,화봉1",bus_stop,platform
35.49671389,128.7483389,제일병원,제일병원,"2가곡,2금동,2번,2부산대,2용성,2청운,2청운,2초동,2초동,2칠성,4-1번,4-1번.,4-1용성,4-1청운,5번,6-1번,6번,6부산대,6상동,6상동1,6상동2,6엄광,6활성,6활성1,감물리,감물리4,고례2,국전2,국전4,도곡1,도곡2,도곡4,발례1,서가정5,수산2,신곡1,신곡3,신곡4,신곡5,신곡6,얼음골,얼음골2,엄광2,영신3,옥산1,표충사,표충사2",bus_stop,platform
35.4959,128.747425,제일병원후문,제일병원후문,10롯데,bus_stop,platform
35.48221944,128.7532056,제일훼미리,제일훼미리,"7-1번,7롯데,7번,7삼랑,7지동,9롯데,9번,남산2,대흥동1,수산1",bus_stop,platform
35.41208333,128.7467111,조음,조음,"남산1,남산2",bus_stop,platform
35.41224722,128.7468306,조음,조음,"남산1,남산2",bus_stop,platform
35.524075,128.6174167,조천종점,조천종점,"조천,조천1,조천2",bus_stop,platform
35.50338889,128.8252361,죽남,죽남,"3금곡,감물리,감물리1,감물리2,감물리3,감물리4,감물리5,고례1,고례2,고례3,국전,국전1,국전2,국전3,국전4,발례,발례1,발례2,얼음골,얼음골1,얼음골2,얼음골3,표충사,표충사1,표충사2,표충사3",bus_stop,platform
35.50347777,128.8252389,죽남,죽남,"3금곡,감물리,감물리1,감물리2,감물리3,감물리4,감물리5,고례1,고례2,고례3,국전,국전1,국전2,국전3,국전4,발례,발례1,발례2,얼음골,얼음골1,얼음골2,얼음골3,표충사,표충사1,표충사2,표충사3",bus_stop,platform
35.50635278,128.6515361,죽월,죽월,"구기3,대촌1,대촌2,두곡,소태,조천,조천2",bus_stop,platform
35.50621944,128.6514722,죽월,죽월,"구기3,대촌1,대촌2,두곡,소태,조천,조천1",bus_stop,platform
35.46015833,128.8763944,중리,중리,"감물리,감물리1,감물리2,감물리4,감물리5",bus_stop,platform
35.47809925,128.6222454,중산,중산,"1서가정,서가정1,서가정2,서가정3,서가정4,서가정5,서가정6,서가정7",bus_stop,platform
35.47805793,128.6223024,중산,중산,"1서가정,서가정1,서가정2,서가정3,서가정4,서가정5,서가정6",bus_stop,platform
35.54259722,128.6858278,중항,중항,"4구기,4구기,4대항3,4대항4,4대항6,4대항7,4퇴로2,4퇴로5,4퇴로6,4퇴로7,4퇴로8",bus_stop,platform
35.54267222,128.6859167,중항,중항,"4구기,4구기,4대항3,4대항4,4대항6,4대항7,4퇴로2,4퇴로5,4퇴로6,4퇴로7,4퇴로8",bus_stop,platform
35.50829444,128.7461639,지동마을,지동마을,"4대항4,4퇴로4,4퇴로7,7지동",bus_stop,platform
35.50830833,128.745975,지동마을,지동마을,"4대항5,4대항9,4퇴로3,7지동",bus_stop,platform
35.50601389,128.7443444,지동입구,지동입구,"4대항5,4대항9,4퇴로3,7지동",bus_stop,platform
35.50596667,128.7444556,지동입구,지동입구,"4대항4,4퇴로4,4퇴로7,7지동",bus_stop,platform
35.49128056,128.8916778,지시동,지시동,"국전,국전1,국전2,국전3,국전4",bus_stop,platform
35.49119722,128.8916111,지시동,지시동,"국전,국전1,국전2,국전3,국전4",bus_stop,platform
35.48527778,128.8972056,진주동,진주동,"국전,국전1,국전2,국전3,국전4",bus_stop,platform
35.48533333,128.8972333,진주동,진주동,"국전,국전1,국전2,국전3,국전4",bus_stop,platform
35.52613611,128.7282306,참숮가마 찜질방,참숮가마 찜질방,"4대항5,4대항9,4퇴로3",bus_stop,platform
35.52624444,128.7282472,참숮가마 찜질방,참숮가마 찜질방,"4대항4,4퇴로4,4퇴로7",bus_stop,platform
35.48476389,128.7576472,청구아파트,청구아파트,"1-2가곡,1-2금동,1-2번,1-2부산대,1가곡,1금동,1번,1부산대,1서가정,1용성,1초동,1칠성,2가곡,2금동,2번,2부산대,2용성,2청운,2초동,2칠성,3-1번,3-1부산대,3금곡,3번,3상동,4-2번,5번,6-1번,6번,6부산대,6상동,6상동1,6상동2,6엄광,6활성,6활성1,7-1번,7롯데,7번,7삼랑,7지동,가곡,수산2,화봉1",bus_stop,platform
35.49380556,128.7542361,청소년문화의집,청소년문화의집,"감물리5,고례3,국전3,도곡2,발례2,신곡6,표충사3",bus_stop,platform
35.52469444,128.7092306,청운,청운,"2청운,4-1청운,4대항5,4대항9,4퇴로2,4퇴로2,4퇴로5,청운,청운.",bus_stop,platform
35.52868055,128.7117694,청운마을입구,청운마을입구,"2청운,4-1청운,4구기,4대항1,4대항3,4대항4,4대항6,4대항7,4대항8,4퇴로4,4퇴로6,4퇴로7,4퇴로8,구기1,조천2,청운.",bus_stop,platform
35.528775,128.7118444,청운마을입구,청운마을입구,"4구기,4대항1,4대항2,4대항5,4대항6,4대항8,4대항9,4퇴로1,4퇴로3,구기1,조천1",bus_stop,platform
35.49171944,128.7532472,청학서점,청학서점,"1-2가곡,1-2금동,1-2번,1-2부산대,1가곡,1금동,1번,1부산대,1서가정,1용성,1초동,1칠성,3-1번,3-1부산대,3금곡,3번,3상동,7-1번,7롯데,7번,7삼랑,7지동,가곡,화봉1",bus_stop,platform
35.42123889,128.6728139,초동,초동,"1초동,초동3,초동공단.,초동면소",bus_stop,platform
35.42113611,128.6726667,초동,초동,"초동2,초동3,초동공단.,초동면소.",bus_stop,platform
35.42218611,128.6568056,초동농공공단,초동농공공단,"2초동,초동3,초동공단,초동공단.",bus_stop,platform
35.49475,128.7515667,축협,축협,"1-2가곡,1-2금동,1-2번,1-2부산대,1가곡,1금동,1번,1부산대,1서가정,1용성,1초동,1칠성,3-1번,3-1부산대,3금곡,3번,3상동,4-1번,4-1번.,4-1용성,4-2번,7-1번,7롯데,7번,7삼랑,7지동,9롯데,9번,가곡,서가정5,영신3,화봉1",bus_stop,platform
35.49473888,128.7514083,축협,축협,"1서가정,2가곡,2번,2부산대,2용성,2초동,2초동.,2칠성,3금곡,3번,4-1롯데,4-1번,4-1청운,4-2번,4구기,4대항2,4대항4,4대항5,4대항6,4대항8,4퇴로1,4퇴로3,4퇴로6,4퇴로8,6-1번,7-1번,9롯데,9번,서가정5,영신3",bus_stop,platform
35.52114722,128.7246556,춘기,춘기,"2청운,4-1청운,4구기,4대항1,4대항2,4대항3,4대항4,4대항6,4대항7,4대항8,4부산대,4퇴로1,4퇴로2,4퇴로4,4퇴로5,4퇴로6,4퇴로7,4퇴로8,7-1번,7롯데,7번,7지동,구기1,청운,청운.",bus_stop,platform
35.52117222,128.7248722,춘기,춘기,"4구기,4대항1,4대항2,4대항3,4대항6,4대항7,4대항8,4퇴로1,4퇴로2,4퇴로3,4퇴로5,4퇴로6,4퇴로8,7롯데,7삼랑,구기1",bus_stop,platform
35.51202606,128.7556667,춘복타워,춘복타워,"2가곡,2번,2부산대,2용성,2청운,2초동,2칠성,5금동,5밀성고,5번,청운.,초동공단.,초동면소",bus_stop,platform
35.51185417,128.7557125,춘복타워,춘복타워,"1-2가곡,1-2금동,1-2번,1-2부산대,1가곡,1금동,1번,1부산대,1서가정,1용성,1초동,1칠성,4-2번,9롯데,9번,가곡,화봉1",bus_stop,platform
35.43652124,128.8065112,칠성,칠성,"삼랑1,삼랑2,삼랑3-1,삼랑4,삼랑4-1,삼랑7,칠성1-2,칠성2",bus_stop,platform
35.43671667,128.8063,칠성,칠성,"1칠성,1칠성.,2칠성,7롯데,7삼랑,칠성",bus_stop,platform
35.36847932,128.7490119,칠정,칠정,"수산1,수산2,오산",bus_stop,platform
35.36853523,128.7490406,칠정,칠정,"수산1,수산2,오산",bus_stop,platform
35.50881667,128.8758917,태동,태동,"국전,국전1,국전2,국전3,국전4",bus_stop,platform
35.50880833,128.8757944,태동,태동,"국전,국전1,국전2,국전3,국전4",bus_stop,platform
35.514975,128.8755,태룡,태룡,"고례1,고례2,고례3,국전,국전1,국전2,국전3,국전4,표충사,표충사1,표충사2,표충사3",bus_stop,platform
35.51505,128.8755722,태룡,태룡,"고례1,고례2,고례3,국전,국전1,국전2,국전3,국전4,표충사,표충사1,표충사2,표충사3",bus_stop,platform
35.54923611,128.7010111,퇴로,퇴로,"4대항3,4대항4,4대항7,4퇴로2,4퇴로5,4퇴로6,4퇴로7,4퇴로8",bus_stop,platform
35.54923056,128.7012139,퇴로,퇴로,"4대항2,4대항3,4대항4,4대항5,4대항6,4대항9,4퇴로6,4퇴로7",bus_stop,platform
35.54712222,128.7059083,퇴로마을,퇴로마을,"4퇴로1,4퇴로3",bus_stop,platform
35.54736667,128.7057556,퇴로마을,퇴로마을,4퇴로4,bus_stop,platform
35.54194444,128.7752389,평능,평능,"3상동,6상동,6상동1,6상동2,도곡1,도곡2,도곡4,상동,신곡1,신곡3,신곡4,신곡5,신곡6,신곡7,옥산,옥산1,옥산2",bus_stop,platform
35.54203056,128.7753583,평능,평능,"3상동,6상동,6상동1,6상동2,도곡1,도곡2,도곡4,상동,신곡1,신곡3,신곡4,신곡5,신곡6,신곡7,옥산,옥산1,옥산2",bus_stop,platform
35.42726111,128.7371278,평리,평리,"남산1,남산2",bus_stop,platform
35.49921944,128.9267139,평리,평리,"고례1,고례2,고례3",bus_stop,platform
35.42722777,128.7369611,평리,평리,"남산1,남산2",bus_stop,platform
35.49928888,128.9266556,평리,평리,"고례1,고례2,고례3",bus_stop,platform
35.54325,128.6419278,평지,평지,"4구기,구기1,구기3,대촌1,대촌1,대촌2,두곡,소태,조천,조천1,조천2",bus_stop,platform
35.54335,128.641975,평지,평지,"4구기,구기1,구기3,대촌1,대촌1,대촌2,두곡,소태,조천,조천1,조천2",bus_stop,platform
35.41322222,128.7771028,평촌,평촌,삼랑진,bus_stop,platform
35.41081388,128.7754722,평촌,평촌,"수산1,수산2,해동1",bus_stop,platform
35.41332778,128.7771444,평촌,평촌,삼랑진,bus_stop,platform
35.41295556,128.7745778,평촌,평촌,"1초동,남산1,남산2,초동면소,초동면소.",bus_stop,platform
35.41301389,128.7744722,평촌,평촌,"남산1,남산2,초동3,초동공단.",bus_stop,platform
35.41079722,128.7753806,평촌,평촌,"수산1,수산2,해동1",bus_stop,platform
35.53088611,128.9430944,표충사상가,표충사상가,"표충사,표충사1,표충사2,표충사3",bus_stop,platform
35.53092222,128.9430056,표충사상가,표충사상가,"표충사,표충사1,표충사2,표충사3",bus_stop,platform
35.53291389,128.9516194,표충사종점,표충사종점,"표충사,표충사1,표충사2,표충사3",bus_stop,platform
35.48176111,128.7464861,푸르지오입구,푸르지오입구,"4-2번,7롯데,7번,7삼랑,7지동",bus_stop,platform
35.48158333,128.7467167,푸르지오입구,푸르지오입구,"10롯데,4-1롯데,4-1번,4-1번.,4-1용성,4-1청운,4-2번",bus_stop,platform
35.48581389,128.7284667,한골,한골,"1서가정,2초동,구기3,대촌1,대촌2,두곡,서가정1,서가정2,서가정3,서가정4,서가정5,서가정6,소태,영신2,영신3,조천,조천1,초동공단,화봉1",bus_stop,platform
35.48592778,128.7284639,한골,한골,"1서가정,1초동,2초동,구기3,대촌1,대촌2,두곡,서가정1,서가정2,서가정3,서가정4,서가정5,서가정6,소태,영신2,영신3,조천,조천2,초동공단,초동면소.,화봉1",bus_stop,platform
35.50966667,128.7425889,한국화이바뒤,한국화이바뒤,"4대항5,4대항9,4퇴로3,7지동",bus_stop,platform
35.50978056,128.7425889,한국화이바뒤,한국화이바뒤,"4대항4,4퇴로4,4퇴로7,7지동",bus_stop,platform
35.53666111,128.6874472,한목,한목,"4대항1,4대항8,4퇴로8",bus_stop,platform
35.53675556,128.6876778,한목,한목,"4대항1,4대항2,4대항5,4대항6,4대항7,4대항8,4대항9",bus_stop,platform
35.53695278,128.6886611,한목,한목,"4대항2,4대항5,4대항6,4대항7,4대항9",bus_stop,platform
35.53704722,128.6886944,한목,한목,4퇴로8,bus_stop,platform
35.50620556,128.7350806,한솔병원,한솔병원,"2청운,4-1청운,4구기,4대항1,4대항2,4대항3,4대항4,4대항6,4대항7,4대항8,4부산대,4퇴로1,4퇴로2,4퇴로4,4퇴로5,4퇴로6,4퇴로7,4퇴로8,7-1번,7롯데,7번,7삼랑,7지동,구기1,조천2,청운,청운.",bus_stop,platform
35.50616944,128.7355556,한솔병원,한솔병원,"4-1롯데,4-1번,4-1번.,4-1용성,4구기,4대항1,4대항2,4대항3,4대항5,4대항6,4대항7,4대항8,4대항9,4퇴로1,4퇴로2,4퇴로3,4퇴로5,4퇴로6,4퇴로8,7-1번,7롯데,7번,7삼랑,7지동,구기1,조천1",bus_stop,platform
35.50640556,128.7519528,한울아파트,한울아파트,"1-2가곡,1-2금동,1-2번,1-2부산대,1가곡,1금동,1번,1부산대,1서가정,1용성,1초동,1칠성,4-2번,9롯데,9번,가곡,화봉1",bus_stop,platform
35.50657765,128.7516962,한울아파트,한울아파트,"2가곡,2번,2부산대,2용성,2청운,2초동,2칠성,5금동,5밀성고,5번,청운.,초동공단.,초동면소",bus_stop,platform
35.47314444,128.7656972,한전지점,한전지점,"1-2금동,1금동,4-1롯데,4-1번,4-1번.,4-1용성,4-1청운,4구기,4대항1,4대항2,4대항3,4대항4,4대항5,4대항6,4대항7,4대항8,4대항9,4번,4초동,4퇴로1,4퇴로2,4퇴로3,4퇴로4,4퇴로5,4퇴로6,4퇴로7,4퇴로8,5금동,5밀성고,5번,5시청,9롯데,9번,남산1,대흥동2,삼랑진,해동1",bus_stop,platform
35.35922645,128.7839849,해동,해동,"수산1,수산2,오산",bus_stop,platform
35.35916077,128.7840082,해동,해동,"수산1,수산2,오산,해동1",bus_stop,platform
35.50519694,128.7421856,현대아파트,현대아파트,"4-1롯데,4-1번,4-1번.,4-1용성",bus_stop,platform
35.50485556,128.7412972,현대아파트,현대아파트,"4-1청운,4퇴로1",bus_stop,platform
35.50488056,128.7411833,현대아파트,현대아파트,"1-2가곡,1-2금동,1-2번,1-2부산대,7-1번,7롯데,7번,7삼랑,7지동",bus_stop,platform
35.53363611,128.6171083,호음동,호음동,"조천,조천1,조천2",bus_stop,platform
35.53351944,128.6170222,호음동,호음동,"조천,조천1,조천2",bus_stop,platform
35.50978888,128.8512222,홍제중학교,홍제중학교,"고례1,고례2,고례3,국전,국전1,국전2,국전3,국전4,표충사,표충사1,표충사2,표충사3",bus_stop,platform
35.50971111,128.8513194,홍제중학교,홍제중학교,"고례1,고례2,고례3,국전,국전1,국전2,국전3,국전4,표충사,표충사1,표충사2,표충사3",bus_stop,platform
35.53387778,128.6910444,화남,화남,"4구기,4대항1,4대항2,4대항5,4대항6,4대항8,4대항9,구기1",bus_stop,platform
35.53375833,128.6909389,화남,화남,"4구기,4대항1,4대항7,4대항8,4퇴로2,4퇴로5,4퇴로8,구기1",bus_stop,platform
35.50563889,128.7889889,화동,화동,"6엄광,감물리,감물리1,감물리2,감물리3,감물리4,감물리5,고례1,고례2,고례3,국전,국전1,국전2,국전3,국전4,발례,발례1,발례2,얼음골,얼음골1,얼음골2,얼음골3,엄광2,표충사,표충사1,표충사2,표충사3",bus_stop,platform
35.505525,128.7889639,화동,화동,"감물리,감물리1,감물리2,감물리3,감물리4,감물리5,고례1,고례2,고례3,국전,국전1,국전2,국전3,국전4,발례,발례1,발례2,얼음골,얼음골1,얼음골2,얼음골3,엄광1,표충사,표충사1,표충사2,표충사3",bus_stop,platform
35.49906944,128.6306778,화봉,화봉,"영신2,영신3,화봉1",bus_stop,platform
35.49896388,128.6305667,화봉,화봉,"영신2,영신3,화봉1",bus_stop,platform
35.52573056,128.731725,화산마을,화산마을,"4대항4,4퇴로4,4퇴로7",bus_stop,platform
35.52563889,128.7316472,화산마을,화산마을,"4대항5,4대항9,4퇴로3",bus_stop,platform
35.40699444,128.8013778,화성,화성,삼랑진,bus_stop,platform
35.40694722,128.801225,화성,화성,삼랑진,bus_stop,platform
35.48493611,128.8060222,활성,활성,"6활성,6활성1",bus_stop,platform
35.57742778,128.6732583,횟골종점,횟골종점,"대촌1,대촌2",bus_stop,platform
