위도,경도,ref,정류장유형,name,short_name,name:ko,highway,public_transport
34.816688,126.393072,324000058,0,연산백련로입구,연산백련로입구,연산백련로입구,bus_stop,platform
34.816714,126.393,324000059,0,연산백련로입구,연산백련로입구,연산백련로입구,bus_stop,platform
34.815591,126.390976,324000060,0,목포청호중학교,목포청호중학교,목포청호중학교,bus_stop,platform
34.815663,126.390975,324000061,0,목포청호중학교,목포청호중학교,목포청호중학교,bus_stop,platform
34.816149,126.388875,324000062,0,행복모아,행복모아,행복모아,bus_stop,platform
34.816159,126.388951,324000063,0,행복모아,행복모아,행복모아,bus_stop,platform
34.81875,126.389316,324000064,0,백련초등학교,백련초등학교,백련초등학교,bus_stop,platform
34.818767,126.389233,324000065,0,백련초등학교,백련초등학교,백련초등학교,bus_stop,platform
34.820084,126.390205,324000066,0,골드클래스9차,골드클래스9차,골드클래스9차,bus_stop,platform
34.82015,126.39009,324000067,0,골드클래스9차,골드클래스9차,골드클래스9차,bus_stop,platform
34.78246,126.392742,324000078,0,김대중노벨기념관,김대중노벨기념관,김대중노벨기념관,bus_stop,platform
34.782627,126.392729,324000079,0,김대중노벨기념관,김대중노벨기념관,김대중노벨기념관,bus_stop,platform
34.781314,126.388637,324000080,0,항구포차,항구포차,항구포차,bus_stop,platform
34.797588,126.380978,101503040,0,양동우체국,양동우체국,양동우체국,bus_stop,platform
34.796802,126.384555,101503041,0,목포여고,목포여고,목포여고,bus_stop,platform
34.79807,126.379109,101503039,0,햇빛약국,햇빛약국,햇빛약국,bus_stop,platform
34.800905,126.383648,100200067,0,대성동주민센터,대성동주민센터,대성동주민센터,bus_stop,platform
34.800177,126.380678,102000054,0,대성초등학교,대성초등학교,대성초등학교,bus_stop,platform
34.800623,126.383558,102000052,0,대성동주민센터,대성동주민센터,대성동주민센터,bus_stop,platform
34.798288,126.382743,101000044,0,대성농협,대성농협,대성농협,bus_stop,platform
34.797114,126.384437,100200066,0,목포여고,목포여고,목포여고,bus_stop,platform
34.800345,126.38011,103002041,0,대성초등학교,대성초등학교,대성초등학교,bus_stop,platform
34.801254,126.379431,106000020,0,대성천주교,대성천주교,대성천주교,bus_stop,platform
34.796185,126.378783,100600044,0,북교초등학교,북교초등학교,북교초등학교,bus_stop,platform
34.7977,126.380183,100701035,0,양동우체국,양동우체국,양동우체국,bus_stop,platform
34.798057,126.382765,100701034,0,대성농협,대성농협,대성농협,bus_stop,platform
34.801765,126.382698,102000051,0,구용꿈여인숙,구용꿈여인숙,구용꿈여인숙,bus_stop,platform
34.797513,126.703527,341000001,1,영암터미널,영암터미널,영암터미널,bus_stop,platform
35.062129,126.52324,340000001,1,함평공영터미널,함평공영터미널,함평공영터미널,bus_stop,platform
35.062096,126.523093,340000002,1,함평공영터미널,함평공영터미널,함평공영터미널,bus_stop,platform
34.993038,126.482277,340000032,1,제일병원앞,제일병원앞,제일병원앞,bus_stop,platform
34.991645,126.481209,340000033,1,성동2리,성동2리,성동2리,bus_stop,platform
34.791157,126.392883,110800007,0,동명농협,동명농협,동명농협,bus_stop,platform
34.792309,126.395869,100701052,0,한흥맨션,한흥맨션,한흥맨션,bus_stop,platform
34.79251,126.393107,111200066,0,중앙새마을금고,중앙새마을금고,중앙새마을금고,bus_stop,platform
34.788414,126.395831,101503047,0,삼학우체국,삼학우체국,삼학우체국,bus_stop,platform
34.790168,126.389568,101503045,0,목포남초등학교입구,목포남초등학교,목포남초등학교입구,bus_stop,platform
34.793299,126.397199,101503050,0,목포복음교회,목포복음교회,목포복음교회,bus_stop,platform
34.787308,126.39728,180000003,0,4차입구,4차입구,4차입구,bus_stop,platform
34.786968,126.400108,100800082,0,삼학파출소,삼학파출소,삼학파출소,bus_stop,platform
34.787028,126.396633,100800081,0,4차입구,4차입구,4차입구,bus_stop,platform
34.7881,126.392483,100800080,0,동명동사거리(물양장),동명동사거리,동명동사거리(물양장),bus_stop,platform
34.78747,126.390402,100100017,0,동명동어시장,동명동어시장,동명동어시장,bus_stop,platform
34.78729,126.394483,120000004,0,삼학도입구,삼학도입구,삼학도입구,bus_stop,platform
34.788002,126.398817,100600086,0,현악서예학원,현악서예학원,현악서예학원,bus_stop,platform
34.789913,126.39888,100600085,0,은혜슈퍼,은혜슈퍼,은혜슈퍼,bus_stop,platform
34.792525,126.39888,100600084,0,삼학한옥입구,삼학한옥입구,삼학한옥입구,bus_stop,platform
34.788279,126.391025,106000006,0,동명동어시장,동명동어시장,동명동어시장,bus_stop,platform
34.790744,126.39569,100702007,0,종원빌라트,종원빌라트,종원빌라트,bus_stop,platform
34.792301,126.395703,100702006,0,한흥맨션,한흥맨션,한흥맨션,bus_stop,platform
34.788673,126.395675,100702008,0,삼학우체국,삼학우체국,삼학우체국,bus_stop,platform
34.787933,126.398972,100600020,0,현악서예학원,현악서예학원,현악서예학원,bus_stop,platform
34.792683,126.399004,100600022,0,삼학한옥입구,삼학한옥입구,삼학한옥입구,bus_stop,platform
34.78969,126.39281,115000018,0,동명농협,동명농협,동명농협,bus_stop,platform
34.789385,126.3911,100101017,0,동명동사거리,동명동사거리,동명동사거리,bus_stop,platform
34.789779,126.395835,100701051,0,종원빌라트,종원빌라트,종원빌라트,bus_stop,platform
34.790456,126.389542,180000166,0,목포남초등학교,목포남초등학교,목포남초등학교,bus_stop,platform
34.757664,126.454003,339000009,0,대불마트,대불마트,대불마트,bus_stop,platform
34.757502,126.454136,339000010,0,대불마트,대불마트,대불마트,bus_stop,platform
34.757461,126.449296,339000008,0,목포대대불캠퍼스,목포대대불캠퍼스,목포대대불캠퍼스,bus_stop,platform
34.75744,126.448936,339000007,0,목포대대불캠퍼스,목포대대불캠퍼스,목포대대불캠퍼스,bus_stop,platform
34.759873,126.450828,339000005,0,삼성식품세화산업,삼성식품세화산업,삼성식품세화산업,bus_stop,platform
34.759496,126.451117,339000006,0,삼성식품세화산업,삼성식품세화산업,삼성식품세화산업,bus_stop,platform
34.728001,126.542487,339000011,0,장수촌,장수촌,장수촌,bus_stop,platform
34.781844,126.381565,100100058,0,국제여객선터미널,국제여객선터미널,국제여객선터미널,bus_stop,platform
34.785003,126.38144,111200059,0,신안군교육청,신안군교육청,신안군교육청,bus_stop,platform
34.7829,126.38257,100702015,0,초원주차장,초원주차장,초원주차장,bus_stop,platform
34.785294,126.382347,100702016,0,상공회의소,상공회의소,상공회의소,bus_stop,platform
34.788577,126.38618,100103065,0,목포문화원,목포문화원,목포문화원,bus_stop,platform
34.784932,126.386447,100103016,0,항동시장,항동시장,항동시장,bus_stop,platform
34.782585,126.382715,100200033,0,초원주차장,초원주차장,초원주차장,bus_stop,platform
34.787248,126.3863,100200062,0,인수당한약방,인수당한약방,인수당한약방,bus_stop,platform
34.780925,126.38002,100100013,0,목포수협공판장,목포수협공판장,목포수협공판장,bus_stop,platform
34.783335,126.385337,100800077,0,목포여객선터미널,목포여객선터미널,목포여객선터미널,bus_stop,platform
34.784385,126.381368,101302029,0,신안군교육청,신안군교육청,신안군교육청,bus_stop,platform
34.787008,126.388308,100103017,0,목포요양병원,목포요양병원,목포요양병원,bus_stop,platform
34.780968,126.379492,100101122,0,목포수협공판장,목포수협공판장,목포수협공판장,bus_stop,platform
34.785329,126.382193,100800011,0,상공회의소,상공회의소,상공회의소,bus_stop,platform
34.786477,126.388207,115000109,0,목포요양병원,목포요양병원,목포요양병원,bus_stop,platform
34.785496,126.386516,115000110,0,항동시장,항동시장,항동시장,bus_stop,platform
34.782594,126.383708,115000112,0,여객선터미널,여객선터미널,여객선터미널,bus_stop,platform
34.783508,126.385056,115000111,0,아구촌상가,아구촌상가,아구촌상가,bus_stop,platform
34.782282,126.382094,115000113,0,국제여객선터미널,국제여객선터미널,국제여객선터미널,bus_stop,platform
34.781747,126.379295,100100060,0,송광아파트,송광아파트,송광아파트,bus_stop,platform
34.797846,126.38858,120000109,0,호남동119안전센터,호남동119센터,호남동119안전센터,bus_stop,platform
34.789142,126.384066,100701041,0,유달산등구,유달산등구,유달산등구,bus_stop,platform
34.791093,126.383348,100701040,0,로데오광장,로데오광장,로데오광장,bus_stop,platform
34.794112,126.379558,100701038,0,북교동교회앞,북교동교회앞,북교동교회앞,bus_stop,platform
34.791159,126.386002,100101019,0,목포역,목포역,목포역,bus_stop,platform
34.793952,126.380085,101301030,0,북교동교회앞,북교동교회앞,북교동교회앞,bus_stop,platform
34.791618,126.38428,101301049,0,차없는거리,차없는거리,차없는거리,bus_stop,platform
34.792755,126.382295,101301048,0,목포남교트윈스타,목포남교트윈스타,목포남교트윈스타,bus_stop,platform
34.791774,126.386196,101301050,0,목포역,목포역,목포역,bus_stop,platform
34.794152,126.387013,101301051,0,1호광장,1호광장,1호광장,bus_stop,platform
34.796648,126.38818,100600068,0,호남119안전센터,호남119안전센터,호남119안전센터,bus_stop,platform
34.792735,126.382145,100600064,0,목포남교트윈스타,목포남교트윈스타,목포남교트윈스타,bus_stop,platform
34.794706,126.386895,106000104,0,1호광장,1호광장,1호광장,bus_stop,platform
34.788463,126.384683,106000106,0,목포YMCA,목포YMCA,목포YMCA,bus_stop,platform
34.793741,126.384827,100302008,0,목포세무서,목포세무서,목포세무서,bus_stop,platform
34.794689,126.380281,100302009,0,목포중앙식료시장,목포중앙식료시장,목포중앙식료시장,bus_stop,platform
34.790675,126.383633,100702019,0,로데오광장,로데오광장,로데오광장,bus_stop,platform
34.78928,126.384144,100702018,0,유달산등구,유달산등구,유달산등구,bus_stop,platform
34.788383,126.384758,100200030,0,목포YMCA,목포YMCA,목포YMCA,bus_stop,platform
34.795992,126.378722,100800069,0,북교초등학교,북교초등학교,북교초등학교,bus_stop,platform
34.791585,126.385084,100800014,0,차없는거리,차없는거리,차없는거리,bus_stop,platform
34.791843,126.385922,101503043,0,목포역,목포역,목포역,bus_stop,platform
34.790152,126.386893,101503044,0,원광한의원,원광한의원,원광한의원,bus_stop,platform
34.788788,126.385947,100103018,0,목포문화원,목포문화원,목포문화원,bus_stop,platform
34.793802,126.384045,100301047,0,목포세무서,목포세무서,목포세무서,bus_stop,platform
34.794717,126.379897,100301046,0,목포중앙식료시장,목포중앙식료시장,목포중앙식료시장,bus_stop,platform
34.811367,126.459532,102000101,0,주공회룡마을,주공회룡마을,주공회룡마을,bus_stop,platform
34.809881,126.439217,102000107,0,옥암주공1차아파트,옥암주공1차,옥암주공1차아파트,bus_stop,platform
34.80802,126.437831,102000108,0,목포옥암코아루ⓐ,목포옥암코아루ⓐ,목포옥암코아루ⓐ,bus_stop,platform
34.805251,126.445502,103002001,0,한국아델리움107동,한국아델리움107동,한국아델리움107동,bus_stop,platform
34.811067,126.438148,103002011,0,시민문화체육센터,시민문화체육센터,시민문화체육센터,bus_stop,platform
34.806115,126.44736,103002066,0,한국아델리움,한국아델리움,한국아델리움,bus_stop,platform
34.810372,126.460082,103001051,0,회룡마을,회룡마을,회룡마을,bus_stop,platform
34.807848,126.460088,103001052,0,오룡시장,오룡시장,오룡시장,bus_stop,platform
34.805547,126.45683,103001057,0,목포대평생교육원,목포대평생교육원,목포대평생교육원,bus_stop,platform
34.806762,126.456365,103001058,0,애향중학교,애향중학교,애향중학교,bus_stop,platform
34.810686,126.439405,103001029,0,시민문화체육센터,시민문화체육센터,시민문화체육센터,bus_stop,platform
34.805177,126.457348,103001038,0,목포대평생교육원,목포대평생교육원,목포대평생교육원,bus_stop,platform
34.807293,126.456313,103001037,0,애향중학교,애향중학교,애향중학교,bus_stop,platform
34.808358,126.458052,103001036,0,남악상록아파트,남악상록아파트,남악상록아파트,bus_stop,platform
34.811443,126.45929,103001033,0,주공회룡마을,주공회룡마을,주공회룡마을,bus_stop,platform
34.810295,126.445052,106000066,0,옥암푸르지오,옥암푸르지오,옥암푸르지오,bus_stop,platform
34.8119,126.451223,103002009,0,옥암중학교,옥암중학교,옥암중학교,bus_stop,platform
34.803938,126.438677,111900092,0,만남의폭포,만남의폭포,만남의폭포,bus_stop,platform
34.808016,126.435825,130001111,0,사랑으로부영,사랑으로부영,사랑으로부영,bus_stop,platform
34.804862,126.445507,102000026,0,한국아델리움107동,한국아델리움107동,한국아델리움107동,bus_stop,platform
34.807513,126.451246,102000024,0,영산초등학교,영산초등학교,영산초등학교,bus_stop,platform
34.807583,126.455598,102000023,0,한라비발디아파트,한라비발디아파트,한라비발디아파트,bus_stop,platform
34.809879,126.438982,102000013,0,옥암주공1차,옥암주공1차,옥암주공1차,bus_stop,platform
34.808195,126.437741,102000012,0,목포옥암코아루ⓐ,목포옥암코아루ⓐ,목포옥암코아루ⓐ,bus_stop,platform
34.812339,126.446782,102000015,0,법원검찰청,법원검찰청,법원검찰청,bus_stop,platform
34.811671,126.45121,102000017,0,옥암중학교,옥암중학교,옥암중학교,bus_stop,platform
34.810173,126.444868,102000016,0,옥암푸르지오,옥암푸르지오,옥암푸르지오,bus_stop,platform
34.81512,126.454884,200000051,0,남악출장소,남악출장소,남악출장소,bus_stop,platform
34.807438,126.455652,100101050,0,한라비발디,한라비발디,한라비발디,bus_stop,platform
34.8081,126.458033,100101051,0,옥암모아엘가,옥암모아엘가,옥암모아엘가,bus_stop,platform
34.808636,126.453757,100101049,0,목포우미파렌하이트,목포우미파렌하이트,목포우미파렌하이트,bus_stop,platform
34.81122,126.454878,100101048,0,남악아이파크,남악아이파크,남악아이파크,bus_stop,platform
34.811548,126.445828,100101047,0,전남보훈협회,전남보훈협회,전남보훈협회,bus_stop,platform
34.81307,126.445655,100101085,0,법원검찰청,법원검찰청,법원검찰청,bus_stop,platform
34.814503,126.453082,100101084,0,근화옥암베아체,근화옥암베아체,근화옥암베아체,bus_stop,platform
34.808558,126.454179,100101082,0,목포우미파렌하이트,목포우미파렌하이트,목포우미파렌하이트,bus_stop,platform
34.807356,126.451259,102000098,0,영산초등학교,영산초등학교,영산초등학교,bus_stop,platform
34.80631,126.447593,102000097,0,골드클레스아파트,골드클레스아파트,골드클레스아파트,bus_stop,platform
34.813212,126.445573,324000010,1,법원검찰청,법원검찰청,법원검찰청,bus_stop,platform
34.814185,126.456584,324000011,0,오룡마을,오룡마을,오룡마을,bus_stop,platform
34.811894,126.453546,324000031,1,근화옥암베아채,근화옥암베아채,근화옥암베아채,bus_stop,platform
34.811692,126.454178,324000032,1,옥암골드디움3차,옥암골드디움3차,옥암골드디움3차,bus_stop,platform
34.793578,126.36721,324000057,0,해양대후문,해양대후문,해양대후문,bus_stop,platform
34.798663,126.405124,324000082,0,용해광신프로그레스,용해광신프로그레스,용해광신프로그레스,bus_stop,platform
34.803982,126.430793,101301013,0,부영2차아파트,부영2차아파트,부영2차아파트,bus_stop,platform
34.804947,126.432908,101301012,0,부영1차아파트,부영1차아파트,부영1차아파트,bus_stop,platform
34.801134,126.434634,200000036,0,옥암동우체국,옥암동우체국,옥암동우체국,bus_stop,platform
34.801353,126.434222,200000049,0,옥암동우체국,옥암동우체국,옥암동우체국,bus_stop,platform
34.8005,126.436773,102000028,0,우미블루빌,우미블루빌,우미블루빌,bus_stop,platform
34.804452,126.437696,130001032,0,만남의폭포,만남의폭포,만남의폭포,bus_stop,platform
34.799943,126.434937,101501010,0,우미블루빌(후문),우미블루빌후문,우미블루빌(후문),bus_stop,platform
34.802173,126.4369,150000026,0,해양수산청,해양수산청,해양수산청,bus_stop,platform
34.803663,126.4346,150000025,0,부흥동주민센터,부흥동주민센터,부흥동주민센터,bus_stop,platform
34.803848,126.430937,101000010,0,부영2차아파트,부영2차아파트,부영2차아파트,bus_stop,platform
34.798304,126.436405,111200011,0,우미오션빌,우미오션빌,우미오션빌,bus_stop,platform
34.804868,126.433068,102000110,0,부영1차아파트,부영1차아파트,부영1차아파트,bus_stop,platform
34.802505,126.436732,150000093,0,해양수산청,해양수산청,해양수산청,bus_stop,platform
34.800462,126.43709,101503066,0,우미블루빌,우미블루빌,우미블루빌,bus_stop,platform
34.804353,126.434332,101503067,0,부흥동주민센터,부흥동주민센터,부흥동주민센터,bus_stop,platform
34.798226,126.436783,101503065,0,우미오션빌,우미오션빌,우미오션빌,bus_stop,platform
34.80397,126.429093,102000112,0,태양주유소,태양주유소,태양주유소,bus_stop,platform
34.772686,126.362002,324000056,0,고하도케이블카승강장,고하도케이블카승강장,고하도케이블카승강장,bus_stop,platform
34.831096,126.400408,324000068,0,서울퍼니처,서울퍼니처,서울퍼니처,bus_stop,platform
34.830996,126.400344,324000069,0,서울퍼니처,서울퍼니처,서울퍼니처,bus_stop,platform
34.833321,126.396682,324000070,0,성민건설,성민건설,성민건설,bus_stop,platform
34.833238,126.396519,324000071,0,송원이엔지,송원이엔지,송원이엔지,bus_stop,platform
34.833871,126.391754,324000072,0,이로중계펌프장,이로중계펌프장,이로중계펌프장,bus_stop,platform
34.833906,126.3916,324000073,0,이로중계펌프장,이로중계펌프장,이로중계펌프장,bus_stop,platform
34.83615,126.39291,324000074,0,삽진항입구,삽진항입구,삽진항입구,bus_stop,platform
34.836211,126.392745,324000075,0,삽진항입구,삽진항입구,삽진항입구,bus_stop,platform
34.834407,126.40114,324000076,0,이천산업,이천산업,이천산업,bus_stop,platform
34.833385,126.40128,324000077,0,이천산업,이천산업,이천산업,bus_stop,platform
34.770596,126.372346,324000081,0,고하도윗마을,고하도윗마을,고하도윗마을,bus_stop,platform
34.806109,126.369985,101501041,0,신안비치1차아파트,신안비치1차,신안비치1차아파트,bus_stop,platform
34.80543,126.368742,100800025,0,신안비치3차아파트,신안비치3차,신안비치3차아파트,bus_stop,platform
34.807165,126.372225,100800062,0,농협북항지점,농협북항지점,농협북항지점,bus_stop,platform
34.804025,126.367184,100302016,0,북항회어시장,북항회어시장,북항회어시장,bus_stop,platform
34.804831,126.3686,101301037,0,북항회어시장,북항회어시장,북항회어시장,bus_stop,platform
34.803824,126.376015,100701031,0,보건소사거리,보건소사거리,보건소사거리,bus_stop,platform
34.806107,126.373488,100600056,0,국제볼링장,국제볼링장,국제볼링장,bus_stop,platform
34.805053,126.374673,100600057,0,보건소사거리,보건소사거리,보건소사거리,bus_stop,platform
34.802492,126.377582,100701032,0,중앙하이츠입구,중앙하이츠입구,중앙하이츠입구,bus_stop,platform
34.807617,126.371129,102000059,0,신안비치1차아파트,신안비치1차,신안비치1차아파트,bus_stop,platform
34.804564,126.375521,106000022,0,보건소사거리,보건소사거리,보건소사거리,bus_stop,platform
34.805233,126.385118,103001011,0,일신아파트,일신아파트,일신아파트,bus_stop,platform
34.804563,126.386448,100600036,0,기쁜소식목포교회,기쁜소식목포교회,기쁜소식목포교회,bus_stop,platform
34.807778,126.385665,100200022,0,종원나이스빌,종원나이스빌,종원나이스빌,bus_stop,platform
34.81204,126.385372,106100066,0,연산근화아파트,연산근화아파트,연산근화아파트,bus_stop,platform
34.805365,126.384903,103001088,0,일신아파트,일신아파트,일신아파트,bus_stop,platform
34.801928,126.381408,102000050,0,대성LH아파트정문,대성LH아파트정문,대성LH아파트정문,bus_stop,platform
34.809687,126.386565,103001086,0,산정동주민센터,산정동주민센터,산정동주민센터,bus_stop,platform
34.80269,126.382382,100200068,0,대성LH아파트,대성LH아파트,대성LH아파트,bus_stop,platform
34.807842,126.385858,100200070,0,종원나이스빌,종원나이스빌,종원나이스빌,bus_stop,platform
34.809005,126.386177,100200071,0,산정동주민센터,산정동주민센터,산정동주민센터,bus_stop,platform
34.809506,126.388182,160000074,0,목포동초등학교,목포동초등학교,목포동초등학교,bus_stop,platform
34.807702,126.378925,101501046,0,산정동교회,산정동교회,산정동교회,bus_stop,platform
34.802522,126.38175,100200069,0,대성동LH아파트,대성동LH아파트,대성동LH아파트,bus_stop,platform
34.789265,126.405108,100600089,0,동백아파트,동백아파트,동백아파트,bus_stop,platform
34.794622,126.40203,100600082,0,삼학타운,삼학타운,삼학타운,bus_stop,platform
34.793637,126.39667,150000005,0,목포복음교회,목포복음교회,목포복음교회,bus_stop,platform
34.786988,126.402284,110800001,0,삼학도차고지,삼학도차고지,삼학도차고지,bus_stop,platform
34.793364,126.400316,110800090,0,삼학하이츠,삼학하이츠,삼학하이츠,bus_stop,platform
34.789338,126.401903,110800092,0,한울웨딩홀,한울웨딩홀,한울웨딩홀,bus_stop,platform
34.793539,126.40027,150000114,0,삼학타운,삼학타운,삼학타운,bus_stop,platform
34.794111,126.402293,100301004,0,삼학타운,삼학타운,삼학타운,bus_stop,platform
34.789431,126.40224,100301002,0,한울웨딩홀,한울웨딩홀,한울웨딩홀,bus_stop,platform
34.789992,126.403424,101503053,0,근화황제아파트,근화황제아파트,근화황제아파트,bus_stop,platform
34.792634,126.401968,101503052,0,자유시장,자유시장,자유시장,bus_stop,platform
34.792673,126.40229,101501022,0,자유시장,자유시장,자유시장,bus_stop,platform
34.790164,126.404029,101501021,0,근화황제아파트,근화황제아파트,근화황제아파트,bus_stop,platform
34.789408,126.404813,100702059,0,동백아파트,동백아파트,동백아파트,bus_stop,platform
34.7912,126.406451,100702058,0,남해환경사업소,남해환경사업소,남해환경사업소,bus_stop,platform
34.787318,126.400476,120000002,0,삼학파출소,삼학파출소,삼학파출소,bus_stop,platform
34.790963,126.406717,100701003,0,남해환경사업소,남해환경사업소,남해환경사업소,bus_stop,platform
34.787193,126.40256,324000002,0,삼학도차고지,삼학도차고지,삼학도차고지,bus_stop,platform
34.789918,126.398995,324000007,1,은혜슈퍼,,은혜슈퍼,bus_stop,platform
34.826597,126.421808,120000023,0,카톨릭대학교,카톨릭대학교,카톨릭대학교,bus_stop,platform
34.82273,126.427391,100101095,0,목포미래병원,목포미래병원,목포미래병원,bus_stop,platform
34.837591,126.421883,100102054,0,대양검문소,대양검문소,대양검문소,bus_stop,platform
34.837432,126.422238,100102040,0,대양검문소,대양검문소,대양검문소,bus_stop,platform
34.8274,126.402037,106100030,0,목포국제축구센터,목포국제축구센터,목포국제축구센터,bus_stop,platform
34.822097,126.428068,100101036,0,목포미래병원,목포미래병원,목포미래병원,bus_stop,platform
34.836825,126.423312,200000053,0,중앙고입구,중앙고입구,중앙고입구,bus_stop,platform
34.821662,126.432558,110800028,0,태원골프연습장,태원골프연습장,태원골프연습장,bus_stop,platform
34.821835,126.432637,110800065,0,태원골프연습장,태원골프연습장,태원골프연습장,bus_stop,platform
34.821882,126.437697,110800064,0,임성역,임성역,임성역,bus_stop,platform
34.836787,126.423247,200000052,0,중앙고입구,중앙고입구,중앙고입구,bus_stop,platform
34.831518,126.418093,100103037,0,영신그린빌,영신그린빌,영신그린빌,bus_stop,platform
34.831387,126.417767,100103045,0,영신그린빌,영신그린빌,영신그린빌,bus_stop,platform
34.835745,126.425458,100103040,0,중앙고등학교,중앙고등학교,중앙고등학교,bus_stop,platform
34.83577,126.425688,100103042,0,중앙고등학교,중앙고등학교,중앙고등학교,bus_stop,platform
34.837215,126.428052,100103041,0,근화희망타운,근화희망타운,근화희망타운,bus_stop,platform
34.834232,126.418355,120000092,0,거북정,거북정,거북정,bus_stop,platform
34.828165,126.420603,120000024,0,세종병원,세종병원,세종병원,bus_stop,platform
34.824758,126.424221,100101096,0,보호관찰소,보호관찰소,보호관찰소,bus_stop,platform
34.831603,126.4036,106100046,0,대양산단자동차매매단지,대양산단자동차매매단지,대양산단자동차매매단지,bus_stop,platform
34.831624,126.403485,106100054,0,대양산단자동차매매단지,대양산단자동차매매단지,대양산단자동차매매단지,bus_stop,platform
34.827453,126.401851,106100053,0,목포국제축구센터,목포국제축구센터,목포국제축구센터,bus_stop,platform
34.834252,126.418853,120000026,0,고속주유소,고속주유소,고속주유소,bus_stop,platform
34.815278,126.412947,111200081,0,항도여중,항도여중,항도여중,bus_stop,platform
34.813378,126.413788,100600099,0,상동초등학교,상동초등학교,상동초등학교,bus_stop,platform
34.813613,126.413902,111200080,0,상동초등학교,상동초등학교,상동초등학교,bus_stop,platform
34.810983,126.418009,101000090,0,버스터미널,버스터미널,버스터미널,bus_stop,platform
34.82223,126.422875,101503075,0,석현동차고지,석현동차고지,석현동차고지,bus_stop,platform
34.819042,126.421578,102000116,0,대성사랑으로,대성사랑으로,대성사랑으로,bus_stop,platform
34.822116,126.422718,101503001,0,석현동차고지,석현동차고지,석현동차고지,bus_stop,platform
34.817387,126.411595,111200027,0,성신고등학교,성신고등학교,성신고등학교,bus_stop,platform
34.815118,126.41952,101503004,0,호반리젠시빌,호반리젠시빌,호반리젠시빌,bus_stop,platform
34.818778,126.42118,101503003,0,우진아트빌,우진아트빌,우진아트빌,bus_stop,platform
34.8173,126.411668,100301017,0,성신고등학교,성신고등학교,성신고등학교,bus_stop,platform
34.806277,126.411937,100100030,0,목포과학대학교,목포과학대학교,목포과학대학교,bus_stop,platform
34.825367,126.408261,106100045,0,실내체육관,실내체육관,실내체육관,bus_stop,platform
34.829912,126.418155,106100042,0,삼향동주민센터,삼향동주민센터,삼향동주민센터,bus_stop,platform
34.807277,126.415953,120000018,0,한국병원,한국병원,한국병원,bus_stop,platform
34.827837,126.416843,106100034,0,푸른주유소,푸른주유소,푸른주유소,bus_stop,platform
34.827161,126.413146,106100033,0,도룡마을,도룡마을,도룡마을,bus_stop,platform
34.82643,126.421567,106100036,0,카톨릭대학교,카톨릭대학교,카톨릭대학교,bus_stop,platform
34.82918,126.418647,106100035,0,삼향동주민센터,삼향동주민센터,삼향동주민센터,bus_stop,platform
34.80729,126.415352,110800073,0,한국병원,한국병원,한국병원,bus_stop,platform
34.812672,126.416785,101301006,0,버스터미널후문,버스터미널후문,버스터미널후문,bus_stop,platform
34.811788,126.416742,100200084,0,버스터미널(상동입구),버스터미널,버스터미널(상동입구),bus_stop,platform
34.826938,126.412947,200000015,0,도룡마을,도룡마을,도룡마을,bus_stop,platform
34.82799,126.415517,200000014,0,푸른주유소,푸른주유소,푸른주유소,bus_stop,platform
34.806538,126.411503,100101103,0,목포과학대학교,목포과학대학교,목포과학대학교,bus_stop,platform
34.81497,126.419902,101502075,0,호반리젠시빌,호반리젠시빌,호반리젠시빌,bus_stop,platform
34.822096,126.422528,101502077,0,석현동,석현동,석현동,bus_stop,platform
34.821776,126.422006,120000096,0,중앙병원,중앙병원,중앙병원,bus_stop,platform
34.812988,126.416708,101301072,0,버스터미널후문,버스터미널후문,버스터미널후문,bus_stop,platform
34.815638,126.412488,100600006,0,항도여중,항도여중,항도여중,bus_stop,platform
34.811092,126.417615,100600008,0,버스터미널,버스터미널,버스터미널,bus_stop,platform
34.825211,126.422372,101504078,0,석현삼거리,석현삼거리,석현삼거리,bus_stop,platform
34.824397,126.424149,101501002,0,석현삼거리,석현삼거리,석현삼거리,bus_stop,platform
34.82508,126.408028,106100032,0,실내체육관,실내체육관,실내체육관,bus_stop,platform
34.811651,126.41785,200000057,0,시외버스터미널,시외버스터미널,시외버스터미널,bus_stop,platform
34.821592,126.422578,324000005,0,석현동차고지,석현동차고지,석현동차고지,bus_stop,platform
34.799853,126.434747,101503064,0,우미블루빌(후문),우미블루빌후문,우미블루빌(후문),bus_stop,platform
34.796515,126.433338,102000090,0,평화광장,평화광장,평화광장,bus_stop,platform
34.799421,126.430983,101503063,0,롯데마트,롯데마트,롯데마트,bus_stop,platform
34.798151,126.428103,111200015,0,하이마트,하이마트,하이마트,bus_stop,platform
34.795985,126.429005,111200014,0,우미파크빌5차,우미파크빌5차,우미파크빌5차,bus_stop,platform
34.796503,126.432475,111200012,0,평화광장,평화광장,평화광장,bus_stop,platform
34.802823,126.427153,101000012,0,보석사우나,보석사우나,보석사우나,bus_stop,platform
34.802661,126.428378,101000011,0,로고스교회,로고스교회,로고스교회,bus_stop,platform
34.804173,126.426092,101000013,0,한솔문고,한솔문고,한솔문고,bus_stop,platform
34.800473,126.421929,101302014,0,목포고용노동부,목포고용노동부,목포고용노동부,bus_stop,platform
34.801926,126.420588,111200089,0,우성아파트,우성아파트,우성아파트,bus_stop,platform
34.800868,126.424543,111200091,0,초원아파트,초원아파트,초원아파트,bus_stop,platform
34.804573,126.425553,101000095,0,한솔문고,한솔문고,한솔문고,bus_stop,platform
34.802938,126.426694,101000096,0,보석사우나,보석사우나,보석사우나,bus_stop,platform
34.800347,126.421723,100702051,0,목포고용노동부,목포고용노동부,목포고용노동부,bus_stop,platform
34.797973,126.426743,102000033,0,갓바위터널,갓바위터널,갓바위터널,bus_stop,platform
34.798518,126.423272,102000034,0,목포교육지원청,목포교육지원청,목포교육지원청,bus_stop,platform
34.797727,126.427033,102000088,0,갓바위터널,갓바위터널,갓바위터널,bus_stop,platform
34.798425,126.423025,102000087,0,목포교육지원청,목포교육지원청,목포교육지원청,bus_stop,platform
34.795813,126.428888,102000089,0,우미파크빌5차,우미파크빌5차,우미파크빌5차,bus_stop,platform
34.800655,126.428598,101501012,0,유달정보신문사,유달정보신문사,유달정보신문사,bus_stop,platform
34.799701,126.430495,101501011,0,롯데마트,롯데마트,롯데마트,bus_stop,platform
34.801175,126.425027,101501013,0,초원아파트,초원아파트,초원아파트,bus_stop,platform
34.802349,126.423604,130001028,0,하당동동아아파트,하당동동아아파트,하당동동아아파트,bus_stop,platform
34.802363,126.424079,130001114,0,하당동동아아파트,하당동동아아파트,하당동동아아파트,bus_stop,platform
34.804424,126.422156,130001116,0,동신대학교한방병원,동신한방병원,동신대학교한방병원,bus_stop,platform
34.806243,126.425976,130001117,0,포르모,포르모,포르모,bus_stop,platform
34.804247,126.428688,102000008,0,태양주유소건너,태양주유소건너,태양주유소건너,bus_stop,platform
34.802527,126.418229,101301060,0,중앙여중,중앙여중,중앙여중,bus_stop,platform
34.802817,126.428192,101301064,0,로고스교회,로고스교회,로고스교회,bus_stop,platform
34.80171,126.416326,101301059,0,신세계볼링장,신세계볼링장,신세계볼링장,bus_stop,platform
34.802144,126.420776,100701011,0,우성아파트,우성아파트,우성아파트,bus_stop,platform
34.800401,126.428481,101503062,0,유달정보,유달정보,유달정보,bus_stop,platform
34.79366,126.394265,110800006,0,구자유시장,구자유시장,구자유시장,bus_stop,platform
34.798912,126.391082,150000105,0,연동육거리,연동육거리,연동육거리,bus_stop,platform
34.794452,126.393105,106100007,0,구청호시장,구청호시장,구청호시장,bus_stop,platform
34.80182,126.392281,100103023,0,2호광장,2호광장,2호광장,bus_stop,platform
34.799834,126.390471,100103022,0,산정초등학교입구,산정초등학교입구,산정초등학교입구,bus_stop,platform
34.799062,126.394273,102000042,0,제일정보고,제일정보고,제일정보고,bus_stop,platform
34.794752,126.392861,101000037,0,구청호시장,구청호시장,구청호시장,bus_stop,platform
34.798683,126.391202,150000013,0,연동육거리,연동육거리,연동육거리,bus_stop,platform
34.798787,126.39391,150000014,0,제일정보고,제일정보고,제일정보고,bus_stop,platform
34.800934,126.393031,101000074,0,2호광장,2호광장,2호광장,bus_stop,platform
34.796732,126.393175,101000073,0,연동초등학교,연동초등학교,연동초등학교,bus_stop,platform
34.797308,126.392967,115000105,0,연동초등학교,연동초등학교,연동초등학교,bus_stop,platform
34.800348,126.392777,102000077,0,2호광장,2호광장,2호광장,bus_stop,platform
34.811688,126.386303,100301032,0,연산동근화아파트,연산동근화아파트,연산동근화아파트,bus_stop,platform
34.819843,126.384549,101501050,0,삽진산단건너,삽진산단건너,삽진산단건너,bus_stop,platform
34.82023,126.384462,101503025,0,삽진산단입구,삽진산단입구,삽진산단입구,bus_stop,platform
34.821378,126.389785,101503024,0,신동마을앞,신동마을앞,신동마을앞,bus_stop,platform
34.817861,126.383336,101503026,0,목포기상대,목포기상대,목포기상대,bus_stop,platform
34.815709,126.382632,101501049,0,목포기상대,목포기상대,목포기상대,bus_stop,platform
34.813416,126.376967,101504029,0,목포자동차등록사업소,자동차등록사업소,목포자동차등록사업소,bus_stop,platform
34.815863,126.374359,101504028,0,산정농공단지 사거리,산정농공사거리,산정농공단지 사거리,bus_stop,platform
34.818831,126.377404,101504027,0,농공단지소방서,농공단지소방서,농공단지소방서,bus_stop,platform
34.822995,126.380277,101504026,0,삽진산단사거리,삽진산단사거리,삽진산단사거리,bus_stop,platform
34.821757,126.383218,101504025,0,삽진산단입구,삽진산단입구,삽진산단입구,bus_stop,platform
34.814775,126.380746,160000054,0,연산주공5차아파트,연산주공5차,연산주공5차아파트,bus_stop,platform
34.813223,126.384069,160000053,0,연산주공아파트,연산주공아파트,연산주공아파트,bus_stop,platform
34.809378,126.373406,106000095,0,종합사회복지관,종합사회복지관,종합사회복지관,bus_stop,platform
34.820945,126.385893,115000036,0,삽진공단입구,삽진공단입구,삽진공단입구,bus_stop,platform
34.812347,126.377482,170000055,0,산정농공단지,산정농공단지,산정농공단지,bus_stop,platform
34.821143,126.389892,115000091,0,신동마을,신동마을,신동마을,bus_stop,platform
34.822829,126.380387,101502053,0,삽진산단 사거리,삽진산단 사거리,삽진산단 사거리,bus_stop,platform
34.818756,126.377499,101502052,0,농공단지 소방서,농공단지 소방서,농공단지 소방서,bus_stop,platform
34.821999,126.382552,101502054,0,삽진산단입구,삽진산단입구,삽진산단입구,bus_stop,platform
34.816048,126.37444,101502051,0,산정농공단지 사거리,산정농공단지,산정농공단지 사거리,bus_stop,platform
34.819107,126.391862,200000016,0,백련동,백련동,백련동,bus_stop,platform
34.818262,126.393055,324000012,0,포미4단지아파트,,포미4단지아파트,bus_stop,platform
34.81817,126.392838,324000013,0,포미4단지아파트,,포미4단지아파트,bus_stop,platform
34.813482,126.377278,101502055,0,목포자동차등록사업소,자동차등록사업소,목포자동차등록사업소,bus_stop,platform
34.817947,126.42962,101501004,0,하나로마트,하나로마트,하나로마트,bus_stop,platform
34.81042,126.429333,101301010,0,하당중학교,하당중학교,하당중학교,bus_stop,platform
34.812982,126.428202,111200100,0,제일3차아파트,제일3차아파트,제일3차아파트,bus_stop,platform
34.812116,126.427834,111900024,0,제일3차후문,제일3차후문,제일3차후문,bus_stop,platform
34.807929,126.429523,111900032,0,목포소방서육교,목포소방서육교,목포소방서육교,bus_stop,platform
34.807593,126.431785,101000100,0,제일여고,제일여고,제일여고,bus_stop,platform
34.81346,126.429944,101503070,0,부주산 입구,부주산 입구,부주산 입구,bus_stop,platform
34.818368,126.430105,101503071,0,하나로마트,하나로마트,하나로마트,bus_stop,platform
34.805164,126.429552,130001029,0,초원2차아파트,초원2차아파트,초원2차아파트,bus_stop,platform
34.810983,126.429132,101301068,0,하당중학교,하당중학교,하당중학교,bus_stop,platform
34.816617,126.42771,180000023,0,하나로마트입구,하나로마트입구,하나로마트입구,bus_stop,platform
34.806839,126.435337,102000011,0,옥암동성당,옥암동성당,옥암동성당,bus_stop,platform
34.810955,126.425398,111900101,0,이마트,이마트,이마트,bus_stop,platform
34.808282,126.426127,102000113,0,포르모,포르모,포르모,bus_stop,platform
34.813258,126.427862,111200006,0,제일3차아파트,제일3차아파트,제일3차아파트,bus_stop,platform
34.811717,126.423975,111200024,0,이마트,이마트,이마트,bus_stop,platform
34.804997,126.429582,130001113,0,초원2차아파트,초원2차아파트,초원2차아파트,bus_stop,platform
34.807024,126.435247,102000109,0,옥암동성당,옥암동성당,옥암동성당,bus_stop,platform
34.807593,126.431552,130001112,0,제일여고,제일여고,제일여고,bus_stop,platform
34.808241,126.429109,111900094,0,목포소방서육교,목포소방서육교,목포소방서육교,bus_stop,platform
34.810761,126.425529,101301008,0,이마트,이마트,이마트,bus_stop,platform
34.812039,126.428224,101301009,0,제일3차아파트,제일3차아파트,제일3차아파트,bus_stop,platform
34.816766,126.427954,200000001,0,하나로마트입구,하나로마트입구,하나로마트입구,bus_stop,platform
34.820859,126.435058,100101038,0,임성리역,임성리역,임성리역,bus_stop,platform
34.817971,126.453453,100101044,0,구옥남초등학교,구옥남초등학교,구옥남초등학교,bus_stop,platform
34.818115,126.453473,100101088,0,구옥남초교앞(건너),구옥남초교앞건너,구옥남초교앞(건너),bus_stop,platform
34.812442,126.429984,106000046,0,부주산입구,부주산입구,부주산입구,bus_stop,platform
34.808483,126.434627,130001031,0,사랑으로부영,사랑으로부영,사랑으로부영,bus_stop,platform
34.764367,126.394208,338000800,0,해군3함대앞,해군3함대앞,해군3함대앞,bus_stop,platform
34.762589,126.394499,338000801,0,해군3함대건너,해군3함대건너,해군3함대건너,bus_stop,platform
34.803424,126.46587,339000550,0,남악롯데아울렛,남악롯데아울렛,남악롯데아울렛,bus_stop,platform
34.801588,126.46844,339000551,0,동부센트레빌,동부센트레빌,동부센트레빌,bus_stop,platform
34.80177,126.468684,339000552,0,동부센트레빌,동부센트레빌,동부센트레빌,bus_stop,platform
34.803399,126.466187,339000553,0,남악롯데아울렛,남악롯데아울렛,남악롯데아울렛,bus_stop,platform
34.80745,126.471745,339000554,0,남악베아채비올레,남악베아채비올레,남악베아채비올레,bus_stop,platform
34.807987,126.474499,339000555,0,오룡중학교,오룡중학교,오룡중학교,bus_stop,platform
34.803718,126.387152,100600070,0,기쁜소식목포교회,기쁜소식목포교회,기쁜소식목포교회,bus_stop,platform
34.808815,126.398902,101000026,0,용당아파트,용당아파트,용당아파트,bus_stop,platform
34.812038,126.395887,101000029,0,마리아회고등학교,마리아회고등학교,마리아회고등학교,bus_stop,platform
34.80676,126.389747,160000050,0,목포고등학교,목포고등학교,목포고등학교,bus_stop,platform
34.806043,126.402673,100101105,0,문화방송,문화방송,문화방송,bus_stop,platform
34.80566,126.399576,100101106,0,홈플러스,홈플러스,홈플러스,bus_stop,platform
34.806672,126.398478,101503011,0,한일시장,한일시장,한일시장,bus_stop,platform
34.804227,126.391713,106100010,0,동부시장,동부시장,동부시장,bus_stop,platform
34.80173,126.391769,110800080,0,2호광장,2호광장,2호광장,bus_stop,platform
34.804938,126.396946,130001128,0,목상고등학교,목상고등학교,목상고등학교,bus_stop,platform
34.810603,126.389294,100200072,0,구.상하수도사업단,구.상하수도사업단,구.상하수도사업단,bus_stop,platform
34.810841,126.389252,100200020,0,구.상하수도사업단,구.상하수도사업단,구.상하수도사업단,bus_stop,platform
34.811002,126.391994,115000027,0,목포시청,목포시청,목포시청,bus_stop,platform
34.803955,126.39504,120000106,0,연동파출소,연동파출소,연동파출소,bus_stop,platform
34.811491,126.393196,115000099,0,목포시청,목포시청,목포시청,bus_stop,platform
34.801395,126.38837,100600069,0,산정초등학교후문,산정초등학교후문,산정초등학교후문,bus_stop,platform
34.801325,126.388166,100600037,0,산정초등학교후문,산정초등학교후문,산정초등학교후문,bus_stop,platform
34.799553,126.389808,130001010,0,산정초등학교입구,산정초등학교입구,산정초등학교입구,bus_stop,platform
34.809648,126.388465,101000077,0,동초등학교,동초등학교,동초등학교,bus_stop,platform
34.806987,126.398392,101000084,0,한일시장,한일시장,한일시장,bus_stop,platform
34.809198,126.398765,101000083,0,KT동목포지점,KT동목포지점,KT동목포지점,bus_stop,platform
34.806723,126.3896,106000089,0,목포고등학교,목포고등학교,목포고등학교,bus_stop,platform
34.803257,126.392098,106000032,0,유달중학교,유달중학교,유달중학교,bus_stop,platform
34.806133,126.403285,200000058,0,문화방송,문화방송,문화방송,bus_stop,platform
34.805975,126.402138,200000059,0,문화방송,문화방송,문화방송,bus_stop,platform
34.803473,126.399657,100600028,0,유달제일교회,유달제일교회,유달제일교회,bus_stop,platform
34.80137,126.400798,100600027,0,시립도서관,시립도서관,시립도서관,bus_stop,platform
34.799558,126.40174,100600026,0,문태중고등학교,문태중고등학교,문태중고등학교,bus_stop,platform
34.79907,126.397988,101301022,0,목포경찰서,목포경찰서,목포경찰서,bus_stop,platform
34.799004,126.400873,101301021,0,유달경기장,유달경기장,유달경기장,bus_stop,platform
34.804825,126.397467,100100026,0,목포우체국,목포우체국,목포우체국,bus_stop,platform
34.805918,126.403173,100103027,0,문화방송,문화방송,문화방송,bus_stop,platform
34.803825,126.395469,100103024,0,연동파출소,연동파출소,연동파출소,bus_stop,platform
34.796993,126.402353,100301005,0,목포공업고등학교,목포공업고등학교,목포공업고등학교,bus_stop,platform
34.80551,126.400223,180000014,0,홈플러스,홈플러스,홈플러스,bus_stop,platform
34.798714,126.398275,102000079,0,목포경찰서,목포경찰서,목포경찰서,bus_stop,platform
34.797323,126.402004,100600081,0,목포공업고등학교,목포공업고등학교,목포공업고등학교,bus_stop,platform
34.801002,126.400755,100600079,0,시립도서관,시립도서관,시립도서관,bus_stop,platform
34.798634,126.400894,103002048,0,유달경기장,유달경기장,유달경기장,bus_stop,platform
34.799697,126.40135,103001021,0,문태중고등학교,문태중고등학교,문태중고등학교,bus_stop,platform
34.803318,126.399462,103001018,0,유달제일교회,유달제일교회,유달제일교회,bus_stop,platform
34.803296,126.399457,103001019,0,유달제일교회,유달제일교회,유달제일교회,bus_stop,platform
34.817162,126.395445,106100019,0,용해호반리젠시빌,용해호반리젠시빌,용해호반리젠시빌,bus_stop,platform
34.817883,126.397457,101503020,0,포미103동,포미103동,포미103동,bus_stop,platform
34.812428,126.39849,100200075,0,용해2단지아파트,용해2단지아파트,용해2단지아파트,bus_stop,platform
34.822138,126.401828,115000033,0,금호장례식장,금호장례식장,금호장례식장,bus_stop,platform
34.81966,126.39167,200000013,0,백련동,백련동,백련동,bus_stop,platform
34.821763,126.393857,115000034,0,용해펌프장,용해펌프장,용해펌프장,bus_stop,platform
34.81433,126.400185,115000030,0,구.목포경찰서,구.목포경찰서,구.목포경찰서,bus_stop,platform
34.81183,126.395939,115000028,0,마리아회고등학교,마리아회고등학교,마리아회고등학교,bus_stop,platform
34.806403,126.407438,100101104,0,청해사,청해사,청해사,bus_stop,platform
34.811283,126.39915,101000082,0,용해하이츠,용해하이츠,용해하이츠,bus_stop,platform
34.8173,126.396279,101503017,0,포미타운105동,포미타운105동,포미타운105동,bus_stop,platform
34.81141,126.39938,101503013,0,용해하이츠,용해하이츠,용해하이츠,bus_stop,platform
34.816192,126.399945,101503015,0,용해동주민센터,용해동주민센터,용해동주민센터,bus_stop,platform
34.819525,126.396067,100302033,0,용해초등학교,용해초등학교,용해초등학교,bus_stop,platform
34.818992,126.399185,101503022,0,대연초등학교,대연초등학교,대연초등학교,bus_stop,platform
34.819011,126.401549,106100021,0,목포보훈지청,목포보훈지청,목포보훈지청,bus_stop,platform
34.820486,126.400136,106100022,0,대연초등학교,대연초등학교,대연초등학교,bus_stop,platform
34.817248,126.39649,106100059,0,포미타운105동,포미타운105동,포미타운105동,bus_stop,platform
34.819275,126.401901,106100057,0,목포보훈지청,목포보훈지청,목포보훈지청,bus_stop,platform
34.820227,126.400675,106100056,0,대연초등학교,대연초등학교,대연초등학교,bus_stop,platform
34.817188,126.398538,100301025,0,포미타운입구,포미타운입구,포미타운입구,bus_stop,platform
34.816725,126.399528,100301026,0,용해동주민센터,용해동주민센터,용해동주민센터,bus_stop,platform
34.819507,126.39887,115000094,0,대연초등학교,대연초등학교,대연초등학교,bus_stop,platform
34.817417,126.394797,101501056,0,용해호반리젠시빌,용해호반리젠시빌,용해호반리젠시빌,bus_stop,platform
34.817788,126.397662,101501058,0,포미타운103호,포미타운103호,포미타운103호,bus_stop,platform
34.821455,126.393724,101501052,0,용해펌프장,용해펌프장,용해펌프장,bus_stop,platform
34.817278,126.398628,101501054,0,포미타운입구,포미타운입구,포미타운입구,bus_stop,platform
34.814473,126.400052,101501061,0,구.목포경찰서,구.목포경찰서,구.목포경찰서,bus_stop,platform
34.822203,126.401702,115000093,0,금호장례식장,금호장례식장,금호장례식장,bus_stop,platform
34.812544,126.398121,101000028,0,용해2단지아파트,용해2단지아파트,용해2단지아파트,bus_stop,platform
34.820108,126.391806,324000029,1,용해골드디움6차,용해골드디움6차,용해골드디움6차,bus_stop,platform
34.820102,126.391604,324000030,1,용해골드디움6차,용해골드디움6차,용해골드디움6차,bus_stop,platform
34.808475,126.375825,100600055,0,라인아파트,라인아파트,라인아파트,bus_stop,platform
34.80668,126.373023,102000058,0,농협북항지점,농협북항지점,농협북항지점,bus_stop,platform
34.809855,126.374632,160000069,0,종합사회복지관,종합사회복지관,종합사회복지관,bus_stop,platform
34.81395,126.380216,160000071,0,연산주공5차아파트,연산주공5차,연산주공5차아파트,bus_stop,platform
34.810715,126.38263,100702032,0,연산주공후문,연산주공후문,연산주공후문,bus_stop,platform
34.807728,126.378835,100702031,0,산정동교회,산정동교회,산정동교회,bus_stop,platform
34.80268,126.377633,100702028,0,중앙하이츠입구,중앙하이츠입구,중앙하이츠입구,bus_stop,platform
34.807925,126.372067,113000032,0,신안비치팔레스,신안비치팔레스,신안비치팔레스,bus_stop,platform
34.811305,126.383086,101503028,0,연산주공후문,연산주공후문,연산주공후문,bus_stop,platform
34.805423,126.376112,101503030,0,행운타워,행운타워,행운타워,bus_stop,platform
34.809588,126.376133,100600054,0,중앙시장,중앙시장,중앙시장,bus_stop,platform
34.805482,126.376014,100701030,0,행운타워,행운타워,행운타워,bus_stop,platform
34.809975,126.377879,101000057,0,중앙시장,중앙시장,중앙시장,bus_stop,platform
34.810782,126.380117,101000056,0,연산초등학교,연산초등학교,연산초등학교,bus_stop,platform
34.812147,126.377813,170000070,0,산정농공단지,산정농공단지,산정농공단지,bus_stop,platform
34.812978,126.383913,100301033,0,연산주공APT,연산주공APT,연산주공APT,bus_stop,platform
34.780412,126.373464,100101125,0,아리랑고개입구,아리랑고개입구,아리랑고개입구,bus_stop,platform
34.780591,126.37091,100200054,0,온금동,온금동,온금동,bus_stop,platform
34.787876,126.367378,113000005,0,유달유원지,유달유원지,유달유원지,bus_stop,platform
34.78693,126.382963,100701042,0,유달산우체국,유달산우체국,유달산우체국,bus_stop,platform
34.780519,126.375736,115000011,0,서산초등학교,서산초등학교,서산초등학교,bus_stop,platform
34.789993,126.366128,115000004,0,해양대학교,해양대학교,해양대학교,bus_stop,platform
34.785858,126.370029,113000006,0,공생원,공생원,공생원,bus_stop,platform
34.765308,126.370252,100800031,0,고하마을,고하마을,고하마을,bus_stop,platform
34.762094,126.368102,100800030,0,구.서산초충무분교,구.서산초충무분교,구.서산초충무분교,bus_stop,platform
34.765323,126.370167,100800032,0,고하마을,고하마을,고하마을,bus_stop,platform
34.791797,126.367262,115000125,0,용전마을,용전마을,용전마을,bus_stop,platform
34.780672,126.371373,115000118,0,온금동,온금동,온금동,bus_stop,platform
34.781974,126.368803,115000119,0,인어바위,인어바위,인어바위,bus_stop,platform
34.78823,126.367445,100200044,0,유달유원지,유달유원지,유달유원지,bus_stop,platform
34.785853,126.370305,100200042,0,공생원,공생원,공생원,bus_stop,platform
34.762119,126.36796,100200047,0,구.서산초충무분교,구.서산초충무분교,구.서산초충무분교,bus_stop,platform
34.790202,126.366425,100200045,0,해양대학교,해양대학교,해양대학교,bus_stop,platform
34.762088,126.368003,100800049,0,서산초등학교충무분교,서산초등학교분교,서산초등학교충무분교,bus_stop,platform
34.796091,126.368414,103001003,0,어민동산,어민동산,어민동산,bus_stop,platform
34.759519,126.364149,100800048,0,고하도입구,고하도입구,고하도입구,bus_stop,platform
34.765338,126.370217,100800050,0,고하도복지회관,고하도복지회관,고하도복지회관,bus_stop,platform
34.786387,126.381262,106000012,0,유달초등학교입구,유달초등학교입구,유달초등학교입구,bus_stop,platform
34.786897,126.383747,106000013,0,유달산우체국,유달산우체국,유달산우체국,bus_stop,platform
34.795592,126.368103,103002031,0,어민동산,어민동산,어민동산,bus_stop,platform
34.784892,126.369403,113000007,0,신안비치호텔,신안비치호텔,신안비치호텔,bus_stop,platform
34.780294,126.373405,100100010,0,아리랑고개입구,아리랑고개입구,아리랑고개입구,bus_stop,platform
34.780803,126.377745,100100012,0,목포수협,목포수협,목포수협,bus_stop,platform
34.79165,126.366977,100100003,0,용전마을,용전마을,용전마을,bus_stop,platform
34.784708,126.369543,100100066,0,신안비치호텔,신안비치호텔,신안비치호텔,bus_stop,platform
34.79349,126.365235,100103002,0,해양대후문,해양대후문,해양대후문,bus_stop,platform
34.780651,126.377785,100103012,0,목포수협,목포수협,목포수협,bus_stop,platform
34.784503,126.376585,111200053,0,아리랑고개,아리랑고개,아리랑고개,bus_stop,platform
34.78638,126.378543,111200052,0,유달산입구,유달산입구,유달산입구,bus_stop,platform
34.782467,126.373938,111200054,0,서산초등학교후문,서산초등학교후문,서산초등학교후문,bus_stop,platform
34.786946,126.368183,100101130,0,낙조대,낙조대,낙조대,bus_stop,platform
34.781124,126.37736,100103072,0,목포수협,목포수협,목포수협,bus_stop,platform
34.793562,126.364983,100100073,0,해양대후문,해양대후문,해양대후문,bus_stop,platform
34.780589,126.375562,100100062,0,서산초등학교,서산초등학교,서산초등학교,bus_stop,platform
34.780945,126.369145,113000008,0,인어바위,인어바위,인어바위,bus_stop,platform
34.759653,126.364093,324000001,0,고하도입구,고하도입구,고하도입구,bus_stop,platform
34.786324,126.381382,324000003,1,유달초등학교입구,유달초등학교입구,유달초등학교입구,bus_stop,platform
34.806066,126.407546,100200081,0,청해사,청해사,청해사,bus_stop,platform
34.801119,126.409122,100701014,0,용해동금호아파트,용해동금호아파트,용해동금호아파트,bus_stop,platform
34.802988,126.408802,100600012,0,신안인스빌,신안인스빌,신안인스빌,bus_stop,platform
34.796363,126.408597,100600015,0,제일중학교,제일중학교,제일중학교,bus_stop,platform
34.797773,126.408728,100600014,0,용해동동아아파트,용해동동아아파트,용해동동아아파트,bus_stop,platform
34.80538,126.408875,100600011,0,용해교,용해교,용해교,bus_stop,platform
34.794265,126.424623,101501015,0,중바위,중바위,중바위,bus_stop,platform
34.7992,126.411117,103001023,0,이로동주민센터,이로동주민센터,이로동주민센터,bus_stop,platform
34.798572,126.407988,150000017,0,용해동동아아파트,용해동동아아파트,용해동동아아파트,bus_stop,platform
34.795147,126.40938,100701004,0,제일중학교,제일중학교,제일중학교,bus_stop,platform
34.793585,126.412288,100702056,0,남해하수펌프장,남해하수펌프장,남해하수펌프장,bus_stop,platform
34.792593,126.417073,100702055,0,문화예술회관,문화예술회관,문화예술회관,bus_stop,platform
34.794568,126.407987,100702057,0,한성주택,한성주택,한성주택,bus_stop,platform
34.793092,126.422458,100702054,0,목포자연사박물관,목포자연사박물관,목포자연사박물관,bus_stop,platform
34.80061,126.408822,100702046,0,용해동금호아파트,용해동금호아파트,용해동금호아파트,bus_stop,platform
34.795988,126.408787,100600091,0,제일중학교정문,제일중학교정문,제일중학교정문,bus_stop,platform
34.805225,126.409232,100600095,0,용해교,용해교,용해교,bus_stop,platform
34.803124,126.409186,100600094,0,한국전력,한국전력,한국전력,bus_stop,platform
34.79786,126.409,100600092,0,용해동아아파트,용해동아아파트,용해동아아파트,bus_stop,platform
34.793875,126.424627,101503059,0,중바위,중바위,중바위,bus_stop,platform
34.792888,126.422757,101503058,0,국립해양유물전시관,해양유물전시관,국립해양유물전시관,bus_stop,platform
34.792503,126.417535,101503057,0,문화예술회관,문화예술회관,문화예술회관,bus_stop,platform
34.793272,126.412522,101503056,0,남해하수펌프장,남해하수펌프장,남해하수펌프장,bus_stop,platform
34.798942,126.408033,150000101,0,용해동동아아파트,용해동동아아파트,용해동동아아파트,bus_stop,platform
34.799292,126.410448,150000100,0,이로동주민센터,이로동주민센터,이로동주민센터,bus_stop,platform
34.800322,126.375273,101503037,0,홍일중고등학교,홍일중고등학교,홍일중고등학교,bus_stop,platform
34.798957,126.37834,101301032,0,햇빛약국,햇빛약국,햇빛약국,bus_stop,platform
34.80121,126.372053,113000027,0,서부초등학교,서부초등학교,서부초등학교,bus_stop,platform
34.801763,126.369974,113000028,0,어민동산입구,어민동산입구,어민동산입구,bus_stop,platform
34.800202,126.378557,160000063,0,삼일로,삼일로,삼일로,bus_stop,platform
34.801287,126.370953,102000063,0,어민동산입구,어민동산입구,어민동산입구,bus_stop,platform
34.802362,126.368382,102000062,0,목포대교입구,목포대교입구,목포대교입구,bus_stop,platform
34.800617,126.374657,103002028,0,홍일중고등학교,홍일중고등학교,홍일중고등학교,bus_stop,platform
34.800232,126.378083,103002026,0,삼일로,삼일로,삼일로,bus_stop,platform
34.798517,126.36791,103002030,0,목포해상케이블카,목포해상케이블카,목포해상케이블카,bus_stop,platform
34.800883,126.37322,103002037,0,서부초등학교,서부초등학교,서부초등학교,bus_stop,platform
34.798452,126.368223,103001004,0,목포해상케이블카,목포해상케이블카,목포해상케이블카,bus_stop,platform
34.799757,126.376817,113000109,0,죽교동주민센터,죽교동주민센터,죽교동주민센터,bus_stop,platform
34.800104,126.376282,101301033,0,죽교동주민센터,죽교동주민센터,죽교동주민센터,bus_stop,platform
34.797841,126.378523,100800068,0,구.제일극장,구.제일극장,구.제일극장,bus_stop,platform
34.936137,126.711605,327000003,1,죽동,죽동,죽동,bus_stop,platform
34.950663,126.711488,327000004,1,신원리,신원리,신원리,bus_stop,platform
34.954328,126.710724,327000005,1,금동,금동,금동,bus_stop,platform
34.960473,126.707215,327000006,1,신가,신가,신가,bus_stop,platform
34.971799,126.706651,327000007,1,양산,양산,양산,bus_stop,platform
34.976718,126.7053,327000008,1,천곡,천곡,천곡,bus_stop,platform
34.980357,126.704591,327000009,1,봉성,봉성,봉성,bus_stop,platform
34.986137,126.704667,327000010,1,석기네,석기네,석기네,bus_stop,platform
34.987326,126.704431,327000048,1,석기네,석기네,석기네,bus_stop,platform
34.98034,126.704131,327000049,1,봉성,봉성,봉성,bus_stop,platform
34.950282,126.682508,327000056,1,행전,행전,행전,bus_stop,platform
34.950202,126.682684,327000057,1,행전,행전,행전,bus_stop,platform
34.956212,126.686052,327000058,1,평전,평전,평전,bus_stop,platform
34.961291,126.686407,327000059,1,평전(화정1리),평전*화정1리),평전(화정1리),bus_stop,platform
34.956311,126.685996,327000060,1,평전,평전,평전,bus_stop,platform
34.961404,126.686346,327000061,1,평전(화정1리),평전(화정1리),평전(화정1리),bus_stop,platform
34.963191,126.691411,327000062,1,동산,동산,동산,bus_stop,platform
34.963281,126.691393,327000063,1,동산,동산,동산,bus_stop,platform
34.967055,126.702272,327000064,1,상사,상사,상사,bus_stop,platform
34.967181,126.702199,327000065,1,상사,상사,상사,bus_stop,platform
34.953782,126.710615,327000053,1,금동,금동,금동,bus_stop,platform
34.976712,126.705043,327000050,1,천곡,천곡,천곡,bus_stop,platform
34.936275,126.711374,327000055,1,죽동,죽동,죽동,bus_stop,platform
34.971793,126.706432,327000051,1,양산,양산,양산,bus_stop,platform
34.948955,126.711542,327000054,1,신원리,신원리,신원리,bus_stop,platform
34.960647,126.706962,327000052,1,신가,신가,신가,bus_stop,platform
34.804809,126.421884,150000098,0,동신대학교한방병원,동신한방병원,동신대학교한방병원,bus_stop,platform
34.806642,126.424128,200000035,0,하당우체국,하당우체국,하당우체국,bus_stop,platform
34.814472,126.421995,111200025,0,청호시장입구,청호시장입구,청호시장입구,bus_stop,platform
34.805592,126.418323,111200020,0,영흥중고등학교,영흥중고등학교,영흥중고등학교,bus_stop,platform
34.807241,126.418105,111200021,0,성원아트빌,성원아트빌,성원아트빌,bus_stop,platform
34.808133,126.420001,111200022,0,하당동주민센터,하당동주민센터,하당동주민센터,bus_stop,platform
34.807138,126.424091,101000014,0,하당우체국,하당우체국,하당우체국,bus_stop,platform
34.809873,126.423575,101000016,0,제일성결교회,제일성결교회,제일성결교회,bus_stop,platform
34.80814,126.423042,101000015,0,하당농협,하당농협,하당농협,bus_stop,platform
34.816268,126.423348,180000021,0,청호시장,청호시장,청호시장,bus_stop,platform
34.814522,126.421735,111200083,0,청호시장입구,청호시장입구,청호시장입구,bus_stop,platform
34.810825,126.423305,101000091,0,이마트,이마트,이마트,bus_stop,platform
34.809925,126.423342,101000092,0,제일성결교회,제일성결교회,제일성결교회,bus_stop,platform
34.808187,126.423262,101000093,0,하당농협,하당농협,하당농협,bus_stop,platform
34.804891,126.418491,111900029,0,영흥중고등학교,영흥중고등학교,영흥중고등학교,bus_stop,platform
34.807398,126.417945,111900028,0,성원아트빌,성원아트빌,성원아트빌,bus_stop,platform
34.816843,126.425787,111900022,0,하당보건소,하당보건소,하당보건소,bus_stop,platform
34.816413,126.423362,111200102,0,청호시장,청호시장,청호시장,bus_stop,platform
34.809734,126.424834,130001023,0,하당금호아파트,하당금호아파트,하당금호아파트,bus_stop,platform
34.808328,126.419913,111900099,0,하당동주민센터,하당동주민센터,하당동주민센터,bus_stop,platform
34.806632,126.425604,111900095,0,포르모,포르모,포르모,bus_stop,platform
34.807858,126.426102,102000007,0,포르모,포르모,포르모,bus_stop,platform
34.811966,126.423446,102000005,0,이마트,이마트,이마트,bus_stop,platform
34.810877,126.423787,101301071,0,이마트,이마트,이마트,bus_stop,platform
34.81694,126.425532,101000103,0,하당보건소,하당보건소,하당보건소,bus_stop,platform
34.802867,126.417875,150000099,0,영흥중고입구,영흥중고입구,영흥중고입구,bus_stop,platform
35.04513,126.534231,340000003,1,신흥동,신흥동,신흥동,bus_stop,platform
35.040361,126.534397,340000007,1,송정,송정,송정,bus_stop,platform
35.040285,126.533894,340000008,1,송정마을,송정마을,송정마을,bus_stop,platform
35.030767,126.5344,340000009,1,경화동,경화동,경화동,bus_stop,platform
35.034104,126.534405,340000010,1,율동,율동,율동,bus_stop,platform
35.036601,126.534365,340000011,1,낙천동,낙천동,낙천동,bus_stop,platform
35.036554,126.534069,340000012,1,낙천동,낙천동,낙천동,bus_stop,platform
35.034065,126.534131,340000013,1,율동,율동,율동,bus_stop,platform
35.023109,126.532835,340000015,1,원사거리,원사거리,원사거리,bus_stop,platform
35.027009,126.532318,340000016,1,청정,청정,청정,bus_stop,platform
35.022431,126.532701,340000017,1,학교터미널,학교터미널,학교터미널,bus_stop,platform
35.026979,126.53199,340000018,1,청정,청정,청정,bus_stop,platform
35.024273,126.538708,340000019,1,함평역,함평역,함평역,bus_stop,platform
34.911734,126.6582,327000066,1,반남초교,반남초교,반남초교,bus_stop,platform
34.911976,126.65799,327000067,1,반남초교,반남초교,반남초교,bus_stop,platform
34.914666,126.660896,327000068,1,신기,신기,신기,bus_stop,platform
34.919991,126.662911,327000069,1,평촌,평촌,평촌,bus_stop,platform
34.920043,126.662713,327000070,1,평촌,평촌,평촌,bus_stop,platform
34.9148,126.660752,327000071,1,신기,신기,신기,bus_stop,platform
34.888453,126.669452,327000072,1,월현,월현,월현,bus_stop,platform
35.031694,126.534159,340000014,1,영창초등학교,영창초등학교,영창초등학교,bus_stop,platform
35.04831,126.533898,340000004,1,신흥동,신흥동,신흥동,bus_stop,platform
35.048281,126.533569,340000005,1,신흥동,신흥동,신흥동,bus_stop,platform
35.045145,126.533869,340000006,1,송산마을,송산마을,송산마을,bus_stop,platform
34.954688,126.398924,339000548,0,천주교묘지입구,천주교묘지입구,천주교묘지입구,bus_stop,platform
34.954695,126.39876,339000549,0,천주교묘지입구,천주교묘지입구,천주교묘지입구,bus_stop,platform
35.018822,126.526737,340000020,1,학야,학야,학야,bus_stop,platform
35.019002,126.526658,340000021,1,학야,학야,학야,bus_stop,platform
35.012611,126.517445,340000022,1,비석동,비석동,비석동,bus_stop,platform
35.014876,126.517692,340000023,1,비석동,비석동,비석동,bus_stop,platform
35.014996,126.517477,340000024,1,비석동,비석동,비석동,bus_stop,platform
35.012596,126.517309,340000025,1,비석동,비석동,비석동,bus_stop,platform
35.009885,126.518229,340000026,1,번동,번동,번동,bus_stop,platform
35.009911,126.518102,340000027,1,번동,번동,번동,bus_stop,platform
35.009736,126.515408,340000028,1,엄다,엄다,엄다,bus_stop,platform
35.00984,126.51544,340000029,1,엄다,엄다,엄다,bus_stop,platform
35.007916,126.504537,340000030,1,송촌,송촌,송촌,bus_stop,platform
35.008073,126.50442,340000031,1,송촌,송촌,송촌,bus_stop,platform
34.857005,126.678403,343000001,1,안풍,안풍,안풍,bus_stop,platform
34.862287,126.684794,343000002,1,성덕,성덕,성덕,bus_stop,platform
35.094888,126.285334,324000037,1,발산,발산,발산,bus_stop,platform
34.724722,126.56917,339000004,1,독천터미널,독천터미널,독천터미널,bus_stop,platform
34.90114,126.504583,180000059,0,회룡정,회룡정,회룡정,bus_stop,platform
34.891919,126.503359,180000058,0,파군교,파군교,파군교,bus_stop,platform
34.922341,126.499736,180000064,0,귀학,귀학,귀학,bus_stop,platform
34.917897,126.499646,180000063,0,약곡,약곡,약곡,bus_stop,platform
34.915097,126.50518,180000062,0,몽강,몽강,몽강,bus_stop,platform
34.908878,126.506438,180000061,0,몽탄정수장,몽탄정수장,몽탄정수장,bus_stop,platform
34.903337,126.504726,180000060,0,청용,청용,청용,bus_stop,platform
34.940353,126.504213,180000069,0,호국사,호국사,호국사,bus_stop,platform
34.935163,126.504603,180000068,0,유곡,유곡,유곡,bus_stop,platform
34.932799,126.503628,180000067,0,몽탄농협,몽탄농협,몽탄농협,bus_stop,platform
34.929701,126.502762,180000066,0,몽탄역,몽탄역,몽탄역,bus_stop,platform
34.927519,126.501292,180000065,0,몽탄전화국,몽탄전화국,몽탄전화국,bus_stop,platform
34.9655,126.513793,180000076,0,사창,사창,사창,bus_stop,platform
34.946787,126.506318,180000070,0,신학동,신학동,신학동,bus_stop,platform
34.962299,126.510798,180000074,0,용뫼,용뫼,용뫼,bus_stop,platform
34.963268,126.517313,180000075,0,무안역,무안역,무안역,bus_stop,platform
34.956792,126.50876,180000072,0,인평,인평,인평,bus_stop,platform
34.959432,126.50955,180000073,0,차뫼,차뫼,차뫼,bus_stop,platform
34.96517,126.513308,180000098,0,사창,사창,사창,bus_stop,platform
34.9623,126.510687,180000099,0,용뫼,용뫼,용뫼,bus_stop,platform
34.963277,126.517243,180000097,0,무안역,무안역,무안역,bus_stop,platform
34.922252,126.499645,180000109,0,귀학리,귀학리,귀학리,bus_stop,platform
34.927723,126.501448,180000108,0,몽탄전화국,몽탄전화국,몽탄전화국,bus_stop,platform
34.929739,126.502628,180000107,0,몽탄역,몽탄역,몽탄역,bus_stop,platform
34.933032,126.503603,180000106,0,몽탄농협,몽탄농협,몽탄농협,bus_stop,platform
34.939779,126.504039,180000104,0,호국사,호국사,호국사,bus_stop,platform
34.935046,126.504518,180000105,0,유곡,유곡,유곡,bus_stop,platform
34.948503,126.507115,180000102,0,신학동,신학동,신학동,bus_stop,platform
34.959333,126.509502,180000100,0,차뫼,차뫼,차뫼,bus_stop,platform
34.956543,126.50842,180000101,0,인평,인평,인평,bus_stop,platform
34.891793,126.502933,180000115,0,파군교,파군교,파군교,bus_stop,platform
34.901089,126.50448,180000114,0,회룡정,회룡정,회룡정,bus_stop,platform
34.903438,126.504943,180000113,0,청룡1리(오갈재),청룡1리,청룡1리(오갈재),bus_stop,platform
34.9095,126.505978,180000112,0,몽탄정수장,몽탄정수장,몽탄정수장,bus_stop,platform
34.915007,126.505232,180000111,0,몽강,몽강,몽강,bus_stop,platform
34.917842,126.499564,180000110,0,약곡,약곡,약곡,bus_stop,platform
34.978043,126.500228,180000078,0,성암,성암,성암,bus_stop,platform
34.974964,126.463792,120000052,0,큰골,큰골,큰골,bus_stop,platform
34.969336,126.509622,180000077,0,도덕사,도덕사,도덕사,bus_stop,platform
34.993008,126.471847,180000087,0,금광아파트,금광아파트,금광아파트,bus_stop,platform
34.993445,126.476312,180000088,0,고전리,고전리,고전리,bus_stop,platform
34.991873,126.481099,180000082,0,무안군청,무안군청,무안군청,bus_stop,platform
34.986986,126.477818,180000083,0,무안터미널,무안터미널,무안터미널,bus_stop,platform
34.986997,126.473943,180000084,0,무안장터,무안장터,무안장터,bus_stop,platform
34.990698,126.472733,180000086,0,승달문예회관,승달문예회관,승달문예회관,bus_stop,platform
34.969225,126.50987,180000096,0,도덕사,도덕사,도덕사,bus_stop,platform
34.991663,126.488654,180000094,0,무안병원,무안병원,무안병원,bus_stop,platform
34.977908,126.500307,180000095,0,성암,성암,성암,bus_stop,platform
34.994578,126.483525,180000092,0,용산마을,용산마을,용산마을,bus_stop,platform
34.98407,126.473972,160000005,0,무안전화국,무안전화국,무안전화국,bus_stop,platform
34.977888,126.466957,200000004,0,무안농업기술센터,무안농업기술센터,무안농업기술센터,bus_stop,platform
34.980247,126.469647,120000064,0,초당대학교,초당대학교,초당대학교,bus_stop,platform
34.98407,126.473972,120000063,0,무안전화국,무안전화국,무안전화국,bus_stop,platform
34.975207,126.463808,120000066,0,큰골,큰골,큰골,bus_stop,platform
34.994447,126.483245,120000060,0,용산,용산,용산,bus_stop,platform
34.987164,126.477618,120000062,0,무안터미널,무안터미널,무안터미널,bus_stop,platform
34.998382,126.487173,120000059,0,무안교통(종점),무안교통(종점),무안교통(종점),bus_stop,platform
34.990404,126.480564,120000057,0,무안군청,무안군청,무안군청,bus_stop,platform
34.98316,126.473275,120000055,0,백제고등학교,백제고등학교,백제고등학교,bus_stop,platform
34.980297,126.470046,120000054,0,초당대학교,초당대학교,초당대학교,bus_stop,platform
34.977743,126.467098,120000053,0,무안군농업기술센터,무안농업기술센터,무안군농업기술센터,bus_stop,platform
34.991696,126.488769,180000079,0,무안병원,무안병원,무안병원,bus_stop,platform
34.998545,126.487193,324000004,0,무안교통,무안교통,무안교통,bus_stop,platform
34.81267,126.456828,102000102,0,아이파크·전남개발공사,아이파크개발공사,아이파크·전남개발공사,bus_stop,platform
34.83597,126.466162,180000137,0,죽림,죽림,죽림,bus_stop,platform
34.834635,126.471402,180000136,0,계두,계두,계두,bus_stop,platform
34.836107,126.472782,180000135,0,이동,이동,이동,bus_stop,platform
34.83093,126.461107,180000139,0,무내미,무내미,무내미,bus_stop,platform
34.834828,126.464098,110800057,0,덕치,덕치,덕치,bus_stop,platform
34.845448,126.47868,110800051,0,송산,송산,송산,bus_stop,platform
34.843438,126.477507,110800052,0,해원아파트,해원아파트,해원아파트,bus_stop,platform
34.836091,126.472917,110800054,0,이동,이동,이동,bus_stop,platform
34.845588,126.478768,110800044,0,송산,송산,송산,bus_stop,platform
34.840827,126.476911,110800042,0,월계,월계,월계,bus_stop,platform
34.843509,126.477744,110800043,0,해원아파트,해원아파트,해원아파트,bus_stop,platform
34.839803,126.475277,110800041,0,극배,극배,극배,bus_stop,platform
34.822182,126.445143,110800062,0,삼향농협,삼향농협,삼향농협,bus_stop,platform
34.821495,126.442968,110800063,0,삼향읍사무소,삼향읍사무소,삼향읍사무소,bus_stop,platform
34.825626,126.450039,110800060,0,대안동,대안동,대안동,bus_stop,platform
34.824472,126.448455,110800061,0,과동,과동,과동,bus_stop,platform
34.821181,126.438963,110800030,0,삼향우체국,삼향우체국,삼향우체국,bus_stop,platform
34.834845,126.464158,110800037,0,덕치,덕치,덕치,bus_stop,platform
34.834583,126.47141,110800039,0,계두,계두,계두,bus_stop,platform
34.828238,126.454307,110800035,0,용강,용강,용강,bus_stop,platform
34.847041,126.425878,120000028,0,전남예술고입구,전남예술고입구,전남예술고입구,bus_stop,platform
34.81469,126.468983,103001049,0,전남교육청,전남교육청,전남교육청,bus_stop,platform
34.809691,126.471756,103001044,0,남악시장,남악시장,남악시장,bus_stop,platform
34.809922,126.468782,103001043,0,남악고,남악고,남악고,bus_stop,platform
34.812037,126.476665,103001047,0,신동아파밀리에,신동아피밀리에,신동아파밀리에,bus_stop,platform
34.809966,126.475642,103001046,0,경남아너스빌,경남아너스빌,경남아너스빌,bus_stop,platform
34.814627,126.462245,103001050,0,전남도청,전남도청,전남도청,bus_stop,platform
34.805179,126.461841,103001039,0,전남도립도서관,전남도립도서관,전남도립도서관,bus_stop,platform
34.812583,126.457102,103001032,0,아이파크·전남개발공사,아이파크개발공사,아이파크·전남개발공사,bus_stop,platform
34.810457,126.460378,106000052,0,회룡마을,회룡마을,회룡마을,bus_stop,platform
34.851003,126.427175,120000029,0,삼성물류센터,삼성물류센터,삼성물류센터,bus_stop,platform
34.87564,126.425147,120000034,0,원지산,원지산,원지산,bus_stop,platform
34.866992,126.425053,120000032,0,덕산,덕산,덕산,bus_stop,platform
34.868852,126.422827,120000033,0,지산군부대,지산군부대,지산군부대,bus_stop,platform
34.854692,126.42796,120000030,0,왕산,왕산,왕산,bus_stop,platform
34.857133,126.42745,120000031,0,평산,평산,평산,bus_stop,platform
34.824278,126.448517,180000030,0,상용,상용,상용,bus_stop,platform
34.830941,126.461279,180000033,0,무내미,무내미,무내미,bus_stop,platform
34.828449,126.454635,180000032,0,용강,용강,용강,bus_stop,platform
34.835863,126.466262,180000035,0,죽림,죽림,죽림,bus_stop,platform
34.840773,126.477016,180000039,0,월계,월계,월계,bus_stop,platform
34.839745,126.475387,180000038,0,극배,극배,극배,bus_stop,platform
34.82169,126.444683,180000029,0,종월촌,종월촌,종월촌,bus_stop,platform
34.821313,126.442993,180000028,0,삼향읍사무소,삼향읍사무소,삼향읍사무소,bus_stop,platform
34.825578,126.450342,180000031,0,대안동,대안동,대안동,bus_stop,platform
34.84642,126.438653,200000005,0,유교리,유교리,유교리,bus_stop,platform
34.846443,126.438683,200000008,0,유교리,유교리,유교리,bus_stop,platform
34.850515,126.441072,200000007,0,진성원,진성원,진성원,bus_stop,platform
34.850346,126.441021,200000006,0,진성원,진성원,진성원,bus_stop,platform
34.81065,126.466689,200000050,0,남악리젠시빌,남악리젠시빌,남악리젠시빌,bus_stop,platform
34.812309,126.465693,100101054,0,남악호수,남악호수,남악호수,bus_stop,platform
34.810962,126.46866,100101055,0,남악고등학교,남악고등학교,남악고등학교,bus_stop,platform
34.814222,126.4619,100101053,0,전남도청,전남도청,전남도청,bus_stop,platform
34.815517,126.480703,100101058,0,삼향안동마을,삼향안동마을,삼향안동마을,bus_stop,platform
34.812733,126.471323,100101056,0,남악부영ⓐ,남악부영ⓐ,남악부영ⓐ,bus_stop,platform
34.823573,126.484825,100101060,0,용포1구후정,용포1구후정,용포1구후정,bus_stop,platform
34.824897,126.48407,100101061,0,용포1구후정,용포1구후정,용포1구후정,bus_stop,platform
34.828455,126.478635,100101062,0,용포2리용계,용포2리용계,용포2리용계,bus_stop,platform
34.830087,126.470465,100101063,0,용포3리원용포,용포3리원용포,용포3리원용포,bus_stop,platform
34.829358,126.475187,100101064,0,용포2리용계,용포2리용계,용포2리용계,bus_stop,platform
34.829245,126.476309,100101065,0,용포2리용계,용포2리용계,용포2리용계,bus_stop,platform
34.825963,126.482522,100101067,0,용포1구후정,용포1구후정,용포1구후정,bus_stop,platform
34.823278,126.450445,100101043,0,상용마을,상용마을,상용마을,bus_stop,platform
34.855198,126.445061,100102047,0,군산동(종점),군산동(종점),군산동(종점),bus_stop,platform
34.843148,126.433022,100102043,0,삼향초등학교,삼향초등학교,삼향초등학교,bus_stop,platform
34.845458,126.429753,100102042,0,전남예술고등학교,전남예술고등학교,전남예술고등학교,bus_stop,platform
34.843207,126.434742,100102044,0,유교삼거리,유교삼거리,유교삼거리,bus_stop,platform
34.845447,126.42969,100102052,0,전남예술고등학교,전남예술고등학교,전남예술고등학교,bus_stop,platform
34.843245,126.432948,100102051,0,삼향초등학교,삼향초등학교,삼향초등학교,bus_stop,platform
34.843278,126.434657,100102050,0,유교삼거리,유교삼거리,유교삼거리,bus_stop,platform
34.812277,126.466153,100101075,0,남악소방서,남악소방서,남악소방서,bus_stop,platform
34.811082,126.468777,100101074,0,남악고등학교,남악고등학교,남악고등학교,bus_stop,platform
34.814264,126.472732,100101071,0,무안남악부영,무안남악부영,무안남악부영,bus_stop,platform
34.815566,126.480588,100101070,0,삼향안동마을,삼향안동마을,삼향안동마을,bus_stop,platform
34.811082,126.470218,100101073,0,남악중학교,남악중학교,남악중학교,bus_stop,platform
34.812727,126.471042,100101072,0,남악근화베아체ⓐ,남악근화베아체ⓐ,남악근화베아체ⓐ,bus_stop,platform
34.823352,126.450532,100101089,0,상용마을,상용마을,상용마을,bus_stop,platform
34.81511,126.45513,100101087,0,남악출장소,남악출장소,남악출장소,bus_stop,platform
34.812872,126.455262,100101083,0,주공오룡마을,주공오룡마을,주공오룡마을,bus_stop,platform
34.803022,126.441207,102000095,0,카누경기장,카누경기장,카누경기장,bus_stop,platform
34.803408,126.441525,102000027,0,카누경기장,카누경기장,카누경기장,bus_stop,platform
34.846895,126.425628,120000090,0,전남예술고입구,전남예술고입구,전남예술고입구,bus_stop,platform
34.850995,126.426945,120000089,0,삼성물류센터,삼성물류센터,삼성물류센터,bus_stop,platform
34.87927,126.42658,120000084,0,원지산,원지산,원지산,bus_stop,platform
34.868708,126.422622,120000086,0,지산군부대,지산군부대,지산군부대,bus_stop,platform
34.875705,126.424935,120000085,0,지산,지산,지산,bus_stop,platform
34.85444,126.427738,120000088,0,왕산,왕산,왕산,bus_stop,platform
34.856375,126.427388,120000087,0,평산,평산,평산,bus_stop,platform
34.811606,126.471014,200000056,0,남악부영ⓐ,남악부영ⓐ,남악부영ⓐ,bus_stop,platform
34.812111,126.472303,200000060,1,남악부영,남악부영,남악부영,bus_stop,platform
34.811895,126.471864,200000061,1,남악부영,남악부영,남악부영,bus_stop,platform
34.810457,126.479999,200000062,1,남악제일풍경채ⓐ,남악제일풍경채ⓐ,남악제일풍경채ⓐ,bus_stop,platform
34.810411,126.479803,200000063,1,남악골드디움ⓐ,남악골드디움ⓐ,남악골드디움ⓐ,bus_stop,platform
34.807523,126.466142,324000008,0,남악모아엘가ⓐ,남악모아엘가ⓐ,남악모아엘가ⓐ,bus_stop,platform
34.809664,126.468794,324000009,1,남악고,남악고,남악고,bus_stop,platform
34.810958,126.475652,324000014,1,남악성당,남악성당,남악성당,bus_stop,platform
34.810768,126.475512,324000015,1,남악성당,남악성당,남악성당,bus_stop,platform
34.810104,126.475383,324000016,1,경남아너스빌,경남아너스빌,경남아너스빌,bus_stop,platform
34.807394,126.465742,324000017,0,남악모아엘가ⓐ,남악모아엘가ⓐ,남악모아엘가ⓐ,bus_stop,platform
34.805602,126.465032,324000018,0,남악중앙시장,남악중앙시장,남악중앙시장,bus_stop,platform
34.805175,126.464465,324000019,0,남악중앙시장,남악중앙시장,남악중앙시장,bus_stop,platform
34.805574,126.461687,324000020,0,전남도립도서관,전남도립도서관,전남도립도서관,bus_stop,platform
34.808051,126.474242,324000021,0,오룡중학교,오룡중학교,오룡중학교,bus_stop,platform
34.807665,126.471755,324000022,0,남악베아채비올레,남악베아채비올레,남악베아채비올레,bus_stop,platform
34.807877,126.470172,324000023,0,남악세영리첼,남악세영리첼,남악세영리첼,bus_stop,platform
34.808668,126.470988,324000024,0,남악세영리첼,남악세영리첼,남악세영리첼,bus_stop,platform
34.812628,126.469566,324000025,0,남악근화베아채,남악근화베아채,남악근화베아채,bus_stop,platform
34.812447,126.469421,324000026,0,남악근화베아채,남악근화베아채,남악근화베아채,bus_stop,platform
34.812985,126.463569,324000027,0,남악중앙공원,남악중앙공원,남악중앙공원,bus_stop,platform
34.812814,126.463555,324000028,0,남악중앙공원,남악중앙공원,남악중앙공원,bus_stop,platform
34.80963,126.461348,339000001,0,남악복합주민센터,남악복합주민센터,남악복합주민센터,bus_stop,platform
34.809863,126.461252,339000002,0,남악복합주민센터,남악복합주민센터,남악복합주민센터,bus_stop,platform
34.834145,126.477587,324900001,1,삼향계두,삼향계두,삼향계두,bus_stop,platform
34.83845,126.480153,324000033,1,삼향월계,삼향월계,삼향월계,bus_stop,platform
34.83881,126.480138,324000034,1,삼향월계,삼향월계,삼향월계,bus_stop,platform
34.83384,126.47718,329000001,1,삼향계두,삼향계두,삼향계두,bus_stop,platform
34.812954,126.458879,102000103,0,남악현대I파크ⓐ,남악현대I파크ⓐ,남악현대I파크ⓐ,bus_stop,platform
34.812769,126.458893,102000104,0,남악현대I파크ⓐ,남악현대I파크ⓐ,남악현대I파크ⓐ,bus_stop,platform
34.812203,126.480378,200000064,0,남악제일풍경채ⓐ후문,제일풍경채후문,남악제일풍경채ⓐ후문,bus_stop,platform
34.812051,126.480511,200000065,0,남악제일풍경채ⓐ후문,제일풍경채후문,남악제일풍경채ⓐ후문,bus_stop,platform
34.817877,126.483545,100101068,0,삼향안동,삼향안동,삼향안동,bus_stop,platform
34.817832,126.483638,100101069,0,삼향안동,삼향안동,삼향안동,bus_stop,platform
34.808844,126.474461,103001045,0,남악오룡중학교,남악오룡중학교,남악오룡중학교,bus_stop,platform
34.814602,126.45946,102000117,0,도청사거리,도청사거리,도청사거리,bus_stop,platform
34.814233,126.469103,102000118,0,전남교육청,전남교육청,전남교육청,bus_stop,platform
34.84974,126.487829,180000130,0,연소동입구,연소동입구,연소동입구,bus_stop,platform
34.879723,126.501045,180000117,0,진사동,진사동,진사동,bus_stop,platform
34.874185,126.501253,180000119,0,원광암,원광암,원광암,bus_stop,platform
34.880311,126.501348,180000056,0,상신기리,상신기리,상신기리,bus_stop,platform
34.874529,126.50144,180000054,0,원광암,원광암,원광암,bus_stop,platform
34.87659,126.501135,180000055,0,청운동,청운동,청운동,bus_stop,platform
34.87187,126.500608,180000053,0,등림,등림,등림,bus_stop,platform
34.849338,126.487145,180000043,0,감돈리입구,감돈리입구,감돈리입구,bus_stop,platform
34.884053,126.502577,180000116,0,농공단지,농공단지,농공단지,bus_stop,platform
34.871771,126.500481,180000120,0,등림,등림,등림,bus_stop,platform
34.849581,126.487667,339000003,0,연소동입구,연소동입구,연소동입구,bus_stop,platform
34.969188,126.457623,120000051,0,청천리,청천리,청천리,bus_stop,platform
34.9649,126.454553,120000050,0,화설당,화설당,화설당,bus_stop,platform
34.90032,126.433252,120000080,0,청계고개,청계고개,청계고개,bus_stop,platform
34.889635,126.43011,120000082,0,구암삼거리,구암삼거리,구암삼거리,bus_stop,platform
34.894998,126.432253,120000081,0,법천사입구,법천사입구,법천사입구,bus_stop,platform
34.956483,126.44675,120000069,0,청계북초등학교,청계북초등학교,청계북초등학교,bus_stop,platform
34.964542,126.454202,120000068,0,화설당,화설당,화설당,bus_stop,platform
34.96887,126.45717,120000067,0,청천리,청천리,청천리,bus_stop,platform
34.9072,126.430963,120000038,0,목포대학교,목포대학교,목포대학교,bus_stop,platform
34.91103,126.429637,120000039,0,청계면사무소,청계면사무소,청계면사무소,bus_stop,platform
34.889627,126.430383,120000035,0,구암삼거리,구암삼거리,구암삼거리,bus_stop,platform
34.894683,126.432405,120000036,0,법천사입구,법천사입구,법천사입구,bus_stop,platform
34.900728,126.433273,120000037,0,청계고개,청계고개,청계고개,bus_stop,platform
34.929824,126.430919,120000044,0,초원농장,초원농장,초원농장,bus_stop,platform
34.924755,126.427637,120000043,0,한국폴리텍대학,한국폴리텍대학,한국폴리텍대학,bus_stop,platform
34.92162,126.42645,120000042,0,상마삼거리,상마삼거리,상마삼거리,bus_stop,platform
34.917297,126.427533,120000041,0,월암마을,월암마을,월암마을,bus_stop,platform
34.887548,126.429305,120000083,0,장부다리,장부다리,장부다리,bus_stop,platform
34.956635,126.447218,120000049,0,청계북초등학교,청계북초등학교,청계북초등학교,bus_stop,platform
34.943335,126.441918,120000047,0,청계농공단지,청계농공단지,청계농공단지,bus_stop,platform
34.949173,126.443558,120000048,0,태봉리,태봉리,태봉리,bus_stop,platform
34.932138,126.432488,120000045,0,대성동,대성동,대성동,bus_stop,platform
34.939517,126.439263,120000046,0,서씨묘역입구,서씨묘역입구,서씨묘역입구,bus_stop,platform
34.929669,126.430636,120000074,0,초원농장,초원농장,초원농장,bus_stop,platform
34.924028,126.426922,120000075,0,한국폴리텍대학,한국폴리텍대학,한국폴리텍대학,bus_stop,platform
34.91988,126.42642,120000076,0,상마삼거리,상마삼거리,상마삼거리,bus_stop,platform
34.91365,126.428527,120000077,0,청계중학교,청계중학교,청계중학교,bus_stop,platform
34.94824,126.44315,120000070,0,태봉리,태봉리,태봉리,bus_stop,platform
34.94328,126.441675,120000071,0,청계농공단지,청계농공단지,청계농공단지,bus_stop,platform
34.93942,126.43892,120000072,0,서씨묘역입구,서씨묘역입구,서씨묘역입구,bus_stop,platform
34.932548,126.43264,120000073,0,대성동,대성동,대성동,bus_stop,platform
34.90715,126.430703,120000079,0,목포대학교,목포대학교,목포대학교,bus_stop,platform
34.910928,126.429438,120000078,0,청계,청계,청계,bus_stop,platform
34.914673,126.428432,120000040,0,청계중학교,청계중학교,청계중학교,bus_stop,platform
34.849363,126.239627,200000029,0,대촌,대촌,대촌,bus_stop,platform
34.844383,126.349497,113000046,0,하장천,하장천,하장천,bus_stop,platform
34.84633,126.347735,200000055,0,상장천,상장천,상장천,bus_stop,platform
34.846703,126.347047,200000030,0,상장천,상장천,상장천,bus_stop,platform
34.839422,126.354428,115000082,0,압해동교,압해동교,압해동교,bus_stop,platform
34.84253,126.264188,115000064,0,수락,수락,수락,bus_stop,platform
34.842343,126.2523,115000063,0,분재공원,분재공원,분재공원,bus_stop,platform
34.858227,126.254592,115000061,0,장밖,장밖,장밖,bus_stop,platform
34.852818,126.263277,115000066,0,송공산등산로입구,송공산등산로입구,송공산등산로입구,bus_stop,platform
34.844177,126.265043,115000065,0,수락리,수락리,수락리,bus_stop,platform
34.858357,126.29323,115000072,0,소무골,소무골,소무골,bus_stop,platform
34.865177,126.306503,115000075,0,동서,동서,동서,bus_stop,platform
34.858728,126.30091,115000074,0,신안군농업기술센터,신안농업기술센터,신안군농업기술센터,bus_stop,platform
34.86022,126.333805,115000079,0,용강,용강,용강,bus_stop,platform
34.86071,126.28562,115000070,0,조천,조천,조천,bus_stop,platform
34.854117,126.340348,115000047,0,신기,신기,신기,bus_stop,platform
34.863048,126.317828,115000049,0,신안군군립도서관,신안군군립도서관,신안군군립도서관,bus_stop,platform
34.833445,126.350272,115000043,0,신안군의회,신안군의회,신안군의회,bus_stop,platform
34.839477,126.354492,115000044,0,압해동교,압해동교,압해동교,bus_stop,platform
34.831149,126.350682,115000042,0,신안군청정문,신안군청정문,신안군청정문,bus_stop,platform
34.857263,126.297463,115000054,0,광립,광립,광립,bus_stop,platform
34.865227,126.306438,115000052,0,동서,동서,동서,bus_stop,platform
34.864948,126.314053,115000050,0,중앙,중앙,중앙,bus_stop,platform
34.833457,126.350228,113000092,0,신안군의회,신안군의회,신안군의회,bus_stop,platform
34.84436,126.34942,113000088,0,하장천,하장천,하장천,bus_stop,platform
34.854083,126.34029,113000086,0,신기,신기,신기,bus_stop,platform
34.8601,126.333803,113000085,0,용강,용강,용강,bus_stop,platform
34.864888,126.314045,113000083,0,중앙,중앙,중앙,bus_stop,platform
34.862933,126.317833,113000084,0,신안군립도서관,신안군립도서관,신안군립도서관,bus_stop,platform
34.858753,126.30105,113000080,0,신안군농업기술센터,신안농업기술센터,신안군농업기술센터,bus_stop,platform
34.862032,126.277155,113000075,0,미곡종합처리장,미곡종합처리장,미곡종합처리장,bus_stop,platform
34.86167,126.272165,113000074,0,반월,반월,반월,bus_stop,platform
34.86069,126.285628,113000076,0,조천,조천,조천,bus_stop,platform
34.857213,126.297587,113000079,0,광립,광립,광립,bus_stop,platform
34.849547,126.244832,113000071,0,상촌,상촌,상촌,bus_stop,platform
34.858593,126.265208,113000073,0,송공산입구,송공산입구,송공산입구,bus_stop,platform
34.849917,126.232179,113000064,0,솔꼬지,솔꼬지,솔꼬지,bus_stop,platform
34.84959,126.244712,113000063,0,상촌,상촌,상촌,bus_stop,platform
34.849727,126.232225,113000068,0,솔꼬지,솔꼬지,솔꼬지,bus_stop,platform
34.848287,126.226957,113000067,0,송공항,송공항,송공항,bus_stop,platform
34.858672,126.26522,113000061,0,송공산입구,송공산입구,송공산입구,bus_stop,platform
34.858288,126.254552,113000062,0,장밖,장밖,장밖,bus_stop,platform
34.861698,126.272023,113000060,0,반월,반월,반월,bus_stop,platform
34.858415,126.293287,113000056,0,소무골,소무골,소무골,bus_stop,platform
34.862083,126.277213,113000059,0,미곡종합처리장,미곡종합처리장,미곡종합처리장,bus_stop,platform
34.849052,126.240708,200000028,0,대촌,대촌,대촌,bus_stop,platform
35.016574,126.714226,327000019,1,나주시청,나주시청,나주시청,bus_stop,platform
35.021073,126.713553,327000020,1,문화예술회관,문화예술회관,문화예술회관,bus_stop,platform
35.023844,126.713186,327000021,1,송월부영아파트,송원부영아파트,송월부영아파트,bus_stop,platform
35.026643,126.711767,327000022,1,소방삼거리,소방삼거리,소방삼거리,bus_stop,platform
35.026767,126.711284,327000034,1,소방삼거리,소방삼거리,소방삼거리,bus_stop,platform
35.023792,126.712842,327000035,1,부영아파트,부영아파트,부영아파트,bus_stop,platform
35.022716,126.713098,327000036,1,문화예술회관,문화예술회관,문화예술회관,bus_stop,platform
35.021063,126.713295,327000037,1,문화예술회관,문화예술회관,문화예술회관,bus_stop,platform
35.016982,126.713888,327000038,1,나주시청,나주시청,나주시청,bus_stop,platform
35.01448,126.71395,327000039,1,나주교육청,나주교육청,나주교육청,bus_stop,platform
35.005875,126.710816,327000016,1,영강삼거리,영산대교,영강삼거리,bus_stop,platform
35.00643,126.710794,327000017,1,영강사거리,영산대교,영강사거리,bus_stop,platform
35.008583,126.711847,327000018,1,대덕아파트,대덕아파트,대덕아파트,bus_stop,platform
35.008658,126.711567,327000040,1,대덕아파트,대덕아파트,대덕아파트,bus_stop,platform
35.006459,126.710487,327000041,1,영강사거리,영강사거리,영강사거리,bus_stop,platform
35.028693,126.710081,327000023,1,나주고후문,나주고후문,나주고후문,bus_stop,platform
35.03095,126.709813,327000024,1,백민원,백민원,백민원,bus_stop,platform
35.028561,126.709929,327000033,1,나주고후문,나주고후문,나주고후문,bus_stop,platform
35.035796,126.716646,327000025,1,천주교사거리/성북육교,천주교사거리,천주교사거리/성북육교,bus_stop,platform
35.035792,126.716706,327000026,1,성북육교,성북육교,성북육교,bus_stop,platform
35.035722,126.719908,327000027,1,나주경찰서/중앙병원,나주경찰서,나주경찰서/중앙병원,bus_stop,platform
35.034313,126.721566,327000028,1,나주터미널,나주터미널,나주터미널,bus_stop,platform
35.033447,126.721569,327000029,1,나주터미널,나주터미널,나주터미널,bus_stop,platform
35.033566,126.721167,327000030,1,나주터미널,나주터미널,나주터미널,bus_stop,platform
35.035915,126.720432,327000031,1,나주경찰서/성북아파트,나주경찰서,나주경찰서/성북아파트,bus_stop,platform
35.035963,126.716693,327000032,1,천주교사거리,천주교사거리,천주교사거리,bus_stop,platform
34.803097,126.382469,324000048,0,대성동LH아파트,대성동LH아파트,대성동LH아파트,bus_stop,platform
34.999609,126.713627,327000015,1,노인복지회관,노인복지회관,노인복지회관,bus_stop,platform
34.99958,126.713386,327000042,1,노인복지회관,노인복지회관,노인복지회관,bus_stop,platform
34.99208,126.709606,327000011,1,풍물시장,풍물시장,풍물시장,bus_stop,platform
34.992849,126.710705,327000012,1,제일병원,제일병원,제일병원,bus_stop,platform
34.993952,126.712437,327000013,1,영산포터미널,영산포터미널,영산포터미널,bus_stop,platform
34.996741,126.714235,327000014,1,남교동,남교동,남교동,bus_stop,platform
34.997059,126.713908,327000043,1,남교동,남교동,남교동,bus_stop,platform
34.994327,126.712636,327000044,1,영산포터미널,영산포터미널,영산포터미널,bus_stop,platform
34.992811,126.70967,327000045,1,풍물시장,영산교방면,풍물시장,bus_stop,platform
34.992711,126.70954,327000046,1,풍물시장,풍물시장,풍물시장,bus_stop,platform
34.991391,126.708292,327000047,1,풍물시장,풍물시장,풍물시장,bus_stop,platform
34.724092,126.564684,150000061,0,비례부락,비례부락,비례부락,bus_stop,platform
34.724719,126.569329,150000058,0,독천터미널,독천터미널,독천터미널,bus_stop,platform
34.729072,126.538237,150000054,0,원서창,원서창,원서창,bus_stop,platform
34.729173,126.532702,150000053,0,서창초등학교,서창초등학교,서창초등학교,bus_stop,platform
34.735882,126.509917,150000050,0,매자리,매자리,매자리,bus_stop,platform
34.724201,126.564781,150000059,0,비례부락,비례부락,비례부락,bus_stop,platform
34.761708,126.452455,150000080,0,원당중공업,원당중공업,원당중공업,bus_stop,platform
34.764152,126.451075,150000081,0,보원엠앤피,보원엠앤피,보원엠앤피,bus_stop,platform
34.778993,126.45335,150000086,0,영산호휴게소,영산호휴게소,영산호휴게소,bus_stop,platform
34.768897,126.448248,150000084,0,미포조선,미포조선,미포조선,bus_stop,platform
34.775801,126.452152,150000085,0,염업조합,염업조합,염업조합,bus_stop,platform
34.76714,126.465318,130001099,0,동양자동차학원,동양자동차학원,동양자동차학원,bus_stop,platform
34.764502,126.470433,130001098,0,보리밭사잇길,보리밭사잇길,보리밭사잇길,bus_stop,platform
34.763467,126.472358,130001097,0,대촌,대촌,대촌,bus_stop,platform
34.760013,126.475543,130001096,0,중촌,중촌,중촌,bus_stop,platform
34.756063,126.475623,130001095,0,영암신호정,영암신호정,영암신호정,bus_stop,platform
34.748948,126.475842,130001093,0,종원아파트,종원아파트,종원아파트,bus_stop,platform
34.746087,126.477388,130001092,0,삼호터미널,삼호터미널,삼호터미널,bus_stop,platform
34.745377,126.47342,130001091,0,중앙촌,중앙촌,중앙촌,bus_stop,platform
34.745167,126.381015,130002068,0,한마음회관,한마음회관,한마음회관,bus_stop,platform
34.744157,126.383438,130002067,0,현대삼호아파트2차,현대삼호2차,현대삼호아파트2차,bus_stop,platform
34.762696,126.395368,130002064,0,용당사거리,용당사거리,용당사거리,bus_stop,platform
34.753591,126.388274,130002065,0,모밀항,모밀항,모밀항,bus_stop,platform
34.758212,126.400688,130002062,0,산음,산음,산음,bus_stop,platform
34.760026,126.398327,130002063,0,아산,아산,아산,bus_stop,platform
34.751052,126.411472,130002060,0,가내항,가내항,가내항,bus_stop,platform
34.753527,126.408568,130002061,0,상촌,상촌,상촌,bus_stop,platform
34.733838,126.39348,130002077,0,낚시점,낚시점,낚시점,bus_stop,platform
34.742702,126.407122,130002079,0,대동,대동,대동,bus_stop,platform
34.73341,126.3896,130002076,0,삼호중공업남문,삼호중공업남문,삼호중공업남문,bus_stop,platform
34.748261,126.376047,130002071,0,현대삼호아파트3차,현대삼호3차,현대삼호아파트3차,bus_stop,platform
34.748708,126.413903,130002059,0,에프원경주장입구,에프원경주장입구,에프원경주장입구,bus_stop,platform
34.747391,126.41146,130002080,0,하촌,하촌,하촌,bus_stop,platform
34.76859,126.44817,150000035,0,미포조선,미포조선,미포조선,bus_stop,platform
34.764598,126.450495,150000036,0,보원엠앤피,보원엠앤피,보원엠앤피,bus_stop,platform
34.77583,126.451862,150000033,0,염업조합,염업조합,염업조합,bus_stop,platform
34.772753,126.445767,150000034,0,휴스틸,휴스틸,휴스틸,bus_stop,platform
34.753119,126.457241,150000039,0,영암삼호금호아파트,영암삼호금호,영암삼호금호아파트,bus_stop,platform
34.757175,126.454905,150000038,0,잔디구장,잔디구장,잔디구장,bus_stop,platform
34.750238,126.386182,111900044,0,현대삼호중공업입구,현대삼호중공업,현대삼호중공업입구,bus_stop,platform
34.720267,126.385775,111900048,0,해남광장,해남광장,해남광장,bus_stop,platform
34.771135,126.404348,111900041,0,용당부두,용당부두,용당부두,bus_stop,platform
34.773117,126.418677,111900040,0,대불역,대불역,대불역,bus_stop,platform
34.753733,126.388037,111900043,0,모밀항,모밀항,모밀항,bus_stop,platform
34.769057,126.39905,111900042,0,용당부두입구,용당부두입구,용당부두입구,bus_stop,platform
34.720328,126.385952,111900077,0,해남광장,해남광장,해남광장,bus_stop,platform
34.775972,126.456467,130001102,0,농업박물관,농업박물관,농업박물관,bus_stop,platform
34.768633,126.399256,111900082,0,용당부두입구,용당부두입구,용당부두입구,bus_stop,platform
34.770663,126.406004,111900083,0,용당부두,용당부두,용당부두,bus_stop,platform
34.773043,126.419142,111900084,0,대불역,대불역,대불역,bus_stop,platform
34.77067,126.460885,130001101,0,자유무역지구,자유무역지구,자유무역지구,bus_stop,platform
34.743872,126.383447,100800040,0,현대삼호아파트2차,현대삼호2차,현대삼호아파트2차,bus_stop,platform
34.746853,126.377718,100800038,0,삼호서초등학교,삼호서초등학교,삼호서초등학교,bus_stop,platform
34.744857,126.381012,100800039,0,한마음회관,한마음회관,한마음회관,bus_stop,platform
34.748052,126.375832,100800037,0,현대삼호아파트3차,현대삼호3차,현대삼호아파트3차,bus_stop,platform
34.74,126.500442,150000069,0,송죽정,송죽정,송죽정,bus_stop,platform
34.736082,126.509958,150000068,0,매자리,매자리,매자리,bus_stop,platform
34.73306,126.519867,150000067,0,망산,망산,망산,bus_stop,platform
34.729236,126.532728,150000064,0,서창초등학교,서창초등학교,서창초등학교,bus_stop,platform
34.729185,126.538809,150000063,0,서창,서창,서창,bus_stop,platform
34.7573,126.454985,150000078,0,잔디구장,잔디구장,잔디구장,bus_stop,platform
34.752994,126.457477,150000077,0,영암삼호금호A,영암삼호금호A,영암삼호금호A,bus_stop,platform
34.745433,126.468913,150000074,0,삼호농협,삼호농협,삼호농협,bus_stop,platform
34.745445,126.473302,150000073,0,중앙촌,중앙촌,중앙촌,bus_stop,platform
34.748474,126.463334,150000076,0,한양파크빌건너,한양파크빌건너,한양파크빌건너,bus_stop,platform
34.746084,126.466892,150000075,0,퀸스빌ⓐ건너,퀸스빌ⓐ건너,퀸스빌ⓐ건너,bus_stop,platform
34.745185,126.482825,150000071,0,세한대학교,세한대학교,세한대학교,bus_stop,platform
34.745422,126.468652,150000043,0,삼호농협,삼호농협,삼호농협,bus_stop,platform
34.746173,126.466329,150000042,0,퀸스빌ⓐ앞,퀸스빌ⓐ앞,퀸스빌ⓐ앞,bus_stop,platform
34.748253,126.463255,150000041,0,한양파크빌,한양파크빌,한양파크빌,bus_stop,platform
34.742528,126.486535,150000047,0,동암마을,동암마을,동암마을,bus_stop,platform
34.744993,126.482637,150000046,0,세한대학교,세한대학교,세한대학교,bus_stop,platform
34.73972,126.500892,150000049,0,송죽정,송죽정,송죽정,bus_stop,platform
34.732867,126.51998,150000051,0,망산마을,망산마을,망산마을,bus_stop,platform
34.76415,126.470408,200000023,0,보리밭사잇길,보리밭사잇길,보리밭사잇길,bus_stop,platform
34.773191,126.445833,200000022,0,휴스틸,휴스틸,휴스틸,bus_stop,platform
34.74223,126.487657,200000021,0,동암마을,동암마을,동암마을,bus_stop,platform
34.725104,126.559656,200000020,0,신기마을,신기마을,신기마을,bus_stop,platform
34.750343,126.475017,200000027,0,길촌파크빌,길촌파크빌,길촌파크빌,bus_stop,platform
34.769992,126.448475,200000010,0,미포조선후문,미포조선후문,미포조선후문,bus_stop,platform
34.73364,126.526735,200000018,0,망산주유소,망산주유소,망산주유소,bus_stop,platform
34.761587,126.452243,200000017,0,원당중공업,원당중공업,원당중공업,bus_stop,platform
34.724958,126.559577,200000019,0,신기마을,신기마을,신기마을,bus_stop,platform
34.740398,126.395943,200000002,0,영호정,영호정,영호정,bus_stop,platform
34.733814,126.526697,200000054,0,망산주유소,망산주유소,망산주유소,bus_stop,platform
34.764815,126.424817,200000041,0,푸른중공업,푸른중공업,푸른중공업,bus_stop,platform
34.761505,126.42694,200000040,0,보워터코리아,보워터코리아,보워터코리아,bus_stop,platform
34.77124,126.452142,200000048,0,미포조선,미포조선,미포조선,bus_stop,platform
34.767582,126.442857,200000046,0,한국산업단지공단,한국산업단지공단,한국산업단지공단,bus_stop,platform
34.76978,126.448452,200000047,0,미포조선후문,미포조선후문,미포조선후문,bus_stop,platform
34.76464,126.424733,200000044,0,푸른중공업,푸른중공업,푸른중공업,bus_stop,platform
34.76135,126.427283,200000045,0,보워터코리아,보워터코리아,보워터코리아,bus_stop,platform
34.768957,126.422435,200000042,0,KC,KC,KC,bus_stop,platform
34.768648,126.422432,200000043,0,KC,KC,KC,bus_stop,platform
34.767708,126.442617,200000039,0,한국산업단지공단,한국산업단지공단,한국산업단지공단,bus_stop,platform
34.774557,126.45756,200000037,0,농업박물관,농업박물관,농업박물관,bus_stop,platform
34.771305,126.451687,200000038,0,미포조선,미포조선,미포조선,bus_stop,platform
34.739237,126.388237,200000031,0,황도,황도,황도,bus_stop,platform
34.73885,126.388587,200000032,0,황도(종어촌),황도(종어촌),황도(종어촌),bus_stop,platform
34.750343,126.475017,200000034,0,길촌파크빌,길촌파크빌,길촌파크빌,bus_stop,platform
34.76627,126.466417,130001041,0,동양자동차학원,동양자동차학원,동양자동차학원,bus_stop,platform
34.770725,126.46056,130001040,0,자유무역지구,자유무역지구,자유무역지구,bus_stop,platform
34.754267,126.474378,130001045,0,영암신호정,영암신호정,영암신호정,bus_stop,platform
34.750653,126.474543,130001046,0,호동,호동,호동,bus_stop,platform
34.762532,126.473512,130001043,0,대촌,대촌,대촌,bus_stop,platform
34.76014,126.47535,130001044,0,중촌,중촌,중촌,bus_stop,platform
34.746028,126.476552,130001048,0,삼호터미널,삼호터미널,삼호터미널,bus_stop,platform
34.748465,126.475815,130001047,0,종원아파트,종원아파트,종원아파트,bus_stop,platform
34.773238,126.458858,130001039,0,농업박물관,농업박물관,농업박물관,bus_stop,platform
34.778513,126.453447,130001038,0,영산호휴게소,영산호휴게소,영산호휴게소,bus_stop,platform
34.747445,126.41139,130001060,0,하촌마을,하촌마을,하촌마을,bus_stop,platform
34.733853,126.392505,130001063,0,낚시점,낚시점,낚시점,bus_stop,platform
34.733602,126.38992,130001064,0,현대삼호중공업남문,현대중공업남문,현대삼호중공업남문,bus_stop,platform
34.742665,126.407045,130001061,0,대동,대동,대동,bus_stop,platform
34.740545,126.395947,130001062,0,영호정,영호정,영호정,bus_stop,platform
34.747213,126.377698,130001069,0,삼호서초등학교,삼호서초등학교,삼호서초등학교,bus_stop,platform
34.7448,126.442662,130001054,0,난대부락,난대부락,난대부락,bus_stop,platform
34.74639,126.43697,130001055,0,도음전마을,도음전마을,도음전마을,bus_stop,platform
34.748697,126.434405,130001056,0,당두,당두,당두,bus_stop,platform
34.748388,126.429532,130001057,0,검길,검길,검길,bus_stop,platform
34.744774,126.46537,130001051,0,퀸스빌,퀸스빌,퀸스빌,bus_stop,platform
34.743595,126.460028,130001052,0,저두,저두,저두,bus_stop,platform
34.74406,126.450762,130001053,0,난전리,난전리,난전리,bus_stop,platform
34.747182,126.423663,130001058,0,엄포,엄포,엄포,bus_stop,platform
34.74648,126.436958,130001084,0,도음전,도음전,도음전,bus_stop,platform
34.748589,126.434429,130001083,0,당두,당두,당두,bus_stop,platform
34.744323,126.446722,130001086,0,난전리,난전리,난전리,bus_stop,platform
34.74491,126.442327,130001085,0,난대부락,난대부락,난대부락,bus_stop,platform
34.743509,126.460002,130001088,0,저두,저두,저두,bus_stop,platform
34.744888,126.465452,130001089,0,퀸스빌,퀸스빌,퀸스빌,bus_stop,platform
34.748468,126.42961,130001082,0,검길,검길,검길,bus_stop,platform
34.747212,126.423753,130001081,0,엄포,엄포,엄포,bus_stop,platform
34.762712,126.395068,130001075,0,용당사거리,용당사거리,용당사거리,bus_stop,platform
34.750777,126.386645,130001074,0,현대삼호중공업입구,현대삼호중공업,현대삼호중공업입구,bus_stop,platform
34.751002,126.41111,130001079,0,가내항,가내항,가내항,bus_stop,platform
34.753437,126.408362,130001078,0,상촌,상촌,상촌,bus_stop,platform
34.757893,126.400823,130001077,0,산음,산음,산음,bus_stop,platform
34.761002,126.396778,130001076,0,아산,아산,아산,bus_stop,platform
34.748609,126.413641,324000006,0,에프원경주장입구,에프원경주장입구,에프원경주장입구,bus_stop,platform
34.793325,126.395089,324000049,0,구자유시장,구자유시장,구자유시장,bus_stop,platform
34.786271,126.388407,115000114,0,목포요양병원,목포요양병원,목포요양병원,bus_stop,platform
34.756455,126.358782,339000013,0,목포신항만,목포신항만,목포신항만,bus_stop,platform
34.756452,126.359253,339000012,0,목포신항만,목포신항만,목포신항만,bus_stop,platform
34.759139,126.358757,324000040,0,목포신항만(임시),목포신항만(임시),목포신항만(임시),bus_stop,platform
34.759711,126.359186,324000041,0,목포신항만(임시),목포신항만(임시),목포신항만(임시),bus_stop,platform
34.759389,126.359458,324000042,0,목포신항만(임시),목포신항만(임시),목포신항만(임시),bus_stop,platform
34.753594,126.358844,324000052,0,목포신외항,목포신외항,목포신외항,bus_stop,platform
34.753553,126.359249,324000053,0,목포신외항,목포신외항,목포신외항,bus_stop,platform
34.823692,126.401802,324000046,0,신일교회앞,신일교회앞,신일교회앞,bus_stop,platform
34.82401,126.402115,324000047,0,신일교회앞,신일교회앞,신일교회앞,bus_stop,platform
34.62603,126.31263,111900063,0,무고승강장,무고승강장,무고승강장,bus_stop,platform
34.813371,126.417776,324000038,1,목포버스터미널,목포버스터미널,목포버스터미널,bus_stop,platform
34.813471,126.417889,324000039,1,목포버스터미널,목포버스터미널,목포버스터미널,bus_stop,platform
34.712425,126.378168,111900076,0,금호검문소,금호검문소,금호검문소,bus_stop,platform
34.695713,126.366498,111900075,0,금호,금호,금호,bus_stop,platform
34.695953,126.36644,111900050,0,금호,금호,금호,bus_stop,platform
34.712145,126.377822,111900049,0,금호검문소,금호검문소,금호검문소,bus_stop,platform
34.668405,126.329882,111900058,0,화원터미널,화원터미널,화원터미널,bus_stop,platform
34.689948,126.33007,111900055,0,해남구지,해남구지,해남구지,bus_stop,platform
34.651447,126.319078,111900065,0,이목,이목,이목,bus_stop,platform
34.645707,126.316932,111900061,0,이목,이목,이목,bus_stop,platform
34.667025,126.327747,111900066,0,화원면화원장,화원면화원장,화원면화원장,bus_stop,platform
34.668151,126.329774,111900067,0,화원터미널,화원터미널,화원터미널,bus_stop,platform
34.695077,126.332092,111900071,0,평지,평지,평지,bus_stop,platform
34.697393,126.334525,111900072,0,저상,저상,저상,bus_stop,platform
34.674475,126.333811,111900057,0,화원초등학교,화원초등학교,화원초등학교,bus_stop,platform
34.666953,126.327723,111900059,0,화원면화원장,화원면화원장,화원면화원장,bus_stop,platform
34.696417,126.340715,111900052,0,별암,별암,별암,bus_stop,platform
34.696348,126.340831,111900073,0,별암,별암,별암,bus_stop,platform
34.697523,126.334447,111900053,0,저상,저상,저상,bus_stop,platform
34.69505,126.332216,111900054,0,평지,평지,평지,bus_stop,platform
34.840205,126.405569,324000045,1,목포추모공원,목포추모공원,목포추모공원,bus_stop,platform
34.836527,126.421328,324000050,0,목포월산마을,목포월산마을,목포월산마을,bus_stop,platform
34.836789,126.420942,324000051,0,목포월산마을,목포월산마을,목포월산마을,bus_stop,platform
34.833548,126.401382,324000054,1,이천산업,이천산업,이천산업,bus_stop,platform
34.834478,126.400992,324000055,1,이천산업,이천산업,이천산업,bus_stop,platform
