위도,경도,name,public_transport,bus,addr:subdistrict,highway,source
35.957212,126.596003,한산,platform,yes,소룡동,bus_stop,공공데이터포털
36.079005,126.958764,함열,platform,yes,함열읍,bus_stop,공공데이터포털
35.969821,126.704443,현대코아사거리,platform,yes,나운동,bus_stop,공공데이터포털
36.071161,126.93568,회선,platform,yes,성당면,bus_stop,공공데이터포털
36.003254,126.82736,후죽,platform,yes,나포면,bus_stop,공공데이터포털
35.910186,126.639016,신오산촌마을,platform,yes,옥서면,bus_stop,공공데이터포털
35.944099,126.673078,신관동,platform,yes,신관동,bus_stop,공공데이터포털
35.9712,126.554433,군산항6부두,platform,yes,오식도동,bus_stop,공공데이터포털
35.902787,126.684202,한서울,platform,yes,옥구읍,bus_stop,공공데이터포털
35.968459,126.675311,시영아파트,platform,yes,산북동,bus_stop,공공데이터포털
35.965675,126.774875,동정마을,platform,yes,개정면,bus_stop,공공데이터포털
35.908317,126.83915,신창,platform,yes,청하면,bus_stop,공공데이터포털
35.907189,126.761719,광지산마을,platform,yes,회현면,bus_stop,공공데이터포털
35.92327,126.776853,신당,platform,yes,회현면,bus_stop,공공데이터포털
35.98649,126.790334,고봉마을,platform,yes,성산면,bus_stop,공공데이터포털
35.961944,126.848801,석곡,platform,yes,임피면,bus_stop,공공데이터포털
36.0622,126.707354,마서면사무소,platform,yes,마서면,bus_stop,공공데이터포털
36.075361,126.696117,서천터미널,platform,yes,서천읍,bus_stop,공공데이터포털
35.969879,126.770421,충량,platform,yes,개정면,bus_stop,공공데이터포털
35.958371,126.796227,발산면사무소,platform,yes,개정면,bus_stop,공공데이터포털
35.967351,126.837902,남산마을,platform,yes,임피면,bus_stop,공공데이터포털
35.966174,126.863162,호원대후문,platform,yes,임피면,bus_stop,공공데이터포털
35.969483,126.616756,군산항3부두,platform,yes,소룡동,bus_stop,공공데이터포털
35.961402,126.576792,현대오식관,platform,yes,소룡동,bus_stop,공공데이터포털
35.838891,126.492594,야미도,platform,yes,옥도면,bus_stop,공공데이터포털
35.963627,126.83625,구절,platform,yes,임피면,bus_stop,공공데이터포털
35.958036,126.672432,미성초등학교,platform,yes,산북동,bus_stop,공공데이터포털
35.955329,126.588131,변전소사거리,platform,yes,소룡동,bus_stop,공공데이터포털
36.009206,126.876198,산간,platform,yes,서수면,bus_stop,공공데이터포털
35.920588,126.827469,상리,platform,yes,대야면,bus_stop,공공데이터포털
36.025315,126.790005,수례마을,platform,yes,나포면,bus_stop,공공데이터포털
35.971368,126.698953,정다운병원,platform,yes,나운동,bus_stop,공공데이터포털
35.986624,126.711104,중앙사거리,platform,yes,신창동,bus_stop,공공데이터포털
35.947346,126.727559,석교마을,platform,yes,옥산면,bus_stop,공공데이터포털
35.893748,126.725798,중야,platform,yes,회현면,bus_stop,공공데이터포털
35.995976,126.863618,복우마을,platform,yes,서수면,bus_stop,공공데이터포털
35.969793,126.759418,군산간호대,platform,yes,개정동,bus_stop,공공데이터포털
35.935973,126.652701,거사마을,platform,yes,개사동,bus_stop,공공데이터포털
35.97452,126.732904,경포초교사거리,platform,yes,조촌동,bus_stop,공공데이터포털
35.924634,126.708063,광월,platform,yes,옥구읍,bus_stop,공공데이터포털
35.987078,126.721669,째보선창,platform,yes,금암동,bus_stop,공공데이터포털
35.982359,126.73784,연안도로4,platform,yes,경암동,bus_stop,공공데이터포털
35.942504,126.806397,군산남고,platform,yes,대야면,bus_stop,공공데이터포털
35.905343,126.669281,신어은,platform,yes,옥구읍,bus_stop,공공데이터포털
35.94348,126.816208,신월마을,platform,yes,대야면,bus_stop,공공데이터포털
35.92089,126.632681,신장원,platform,yes,옥서면,bus_stop,공공데이터포털
35.905232,126.637315,신하제,platform,yes,옥서면,bus_stop,공공데이터포털
35.905375,126.69841,양등,platform,yes,옥구읍,bus_stop,공공데이터포털
35.90539,126.698525,양등,platform,yes,옥구읍,bus_stop,공공데이터포털
35.910148,126.659693,어은경로당,platform,yes,옥구읍,bus_stop,공공데이터포털
35.910729,126.796188,여방,platform,yes,회현면,bus_stop,공공데이터포털
35.910671,126.796365,여방,platform,yes,회현면,bus_stop,공공데이터포털
35.95824,126.700334,영창아파트,platform,yes,나운동,bus_stop,공공데이터포털
35.935847,126.781372,구율마을,platform,yes,개정면,bus_stop,공공데이터포털
35.948379,126.684633,군산대후문,platform,yes,미룡동,bus_stop,공공데이터포털
35.998704,126.759765,군산역,platform,yes,내흥동,bus_stop,공공데이터포털
35.977526,126.673944,군산장례식장,platform,yes,소룡동,bus_stop,공공데이터포털
35.961985,126.692317,나운사거리,platform,yes,나운동,bus_stop,공공데이터포털
35.962435,126.69392,나운사거리,platform,yes,나운동,bus_stop,공공데이터포털
36.029392,126.886141,왈인,platform,yes,함라면,bus_stop,공공데이터포털
35.929551,126.645685,외성산,platform,yes,옥서면,bus_stop,공공데이터포털
35.982067,126.881004,용회,platform,yes,서수면,bus_stop,공공데이터포털
36.047839,126.848821,원나포,platform,yes,나포면,bus_stop,공공데이터포털
35.946622,126.718396,원당,platform,yes,옥산면,bus_stop,공공데이터포털
35.95839,126.7154,남북로사거리,platform,yes,수송동,bus_stop,공공데이터포털
35.985854,126.859591,남상,platform,yes,임피면,bus_stop,공공데이터포털
35.938511,126.820229,남우,platform,yes,대야면,bus_stop,공공데이터포털
35.937019,126.743175,대려마을,platform,yes,옥산면,bus_stop,공공데이터포털
35.989734,126.896778,석화,platform,yes,서수면,bus_stop,공공데이터포털
35.950311,126.824866,석화마을,platform,yes,대야면,bus_stop,공공데이터포털
35.975425,126.731675,성가병원,platform,yes,조촌동,bus_stop,공공데이터포털
35.990455,126.78405,성산파출소,platform,yes,성산면,bus_stop,공공데이터포털
36.007779,126.794898,수심,platform,yes,성산면,bus_stop,공공데이터포털
35.934109,126.686388,월명장례예식장,platform,yes,신관동,bus_stop,공공데이터포털
35.964593,126.767836,율북마을,platform,yes,개정면,bus_stop,공공데이터포털
35.976717,126.679756,은적사,platform,yes,소룡동,bus_stop,공공데이터포털
35.976992,126.68058,은적사입구,platform,yes,소룡동,bus_stop,공공데이터포털
35.96739,126.674875,시영아파트,platform,yes,산북동,bus_stop,공공데이터포털
35.990417,126.789264,식천,platform,yes,성산면,bus_stop,공공데이터포털
35.944165,126.67305,신관동,platform,yes,신관동,bus_stop,공공데이터포털
35.928466,126.639959,신동,platform,yes,옥서면,bus_stop,공공데이터포털
35.918883,126.643644,신성산,platform,yes,옥서면,bus_stop,공공데이터포털
35.945109,126.813347,대야사거리,platform,yes,대야면,bus_stop,공공데이터포털
35.963258,126.763304,동안마을입구,platform,yes,개정동,bus_stop,공공데이터포털
35.98437,126.709723,명산사거리,platform,yes,명산동,bus_stop,공공데이터포털
35.956251,126.657022,미성동,platform,yes,산북동,bus_stop,공공데이터포털
35.980108,126.718678,미원동전북은행,platform,yes,중앙로3가,bus_stop,공공데이터포털
35.970378,126.728453,미장현대파인빌1차,platform,yes,미장동,bus_stop,공공데이터포털
35.969177,126.819866,분토,platform,yes,대야면,bus_stop,공공데이터포털
35.959707,126.697753,비사벌아파트,platform,yes,나운동,bus_stop,공공데이터포털
35.913514,126.660187,사호촌,platform,yes,옥구읍,bus_stop,공공데이터포털
36.009171,126.876267,산간,platform,yes,서수면,bus_stop,공공데이터포털
35.964223,126.723446,삼성쉐르빌아파트,platform,yes,미장동,bus_stop,공공데이터포털
35.975165,126.70565,삼일교회,platform,yes,문화동,bus_stop,공공데이터포털
36.005551,126.885279,상장곤,platform,yes,서수면,bus_stop,공공데이터포털
35.954049,126.86502,임피역,platform,yes,임피면,bus_stop,공공데이터포털
35.982263,126.754058,잠두,platform,yes,구암동,bus_stop,공공데이터포털
35.926494,126.686926,정리,platform,yes,옥구읍,bus_stop,공공데이터포털
35.975551,126.745008,조촌삼성아파트,platform,yes,조촌동,bus_stop,공공데이터포털
35.96892,126.710622,주공4차,platform,yes,나운동,bus_stop,공공데이터포털
35.98181,126.718033,중앙초등학교,platform,yes,중앙로2가,bus_stop,공공데이터포털
35.960368,126.710818,수송동신,platform,yes,지곡동,bus_stop,공공데이터포털
35.9599,126.600818,지엠대우자동차,platform,yes,소룡동,bus_stop,공공데이터포털
35.983573,126.820842,창오,platform,yes,성산면,bus_stop,공공데이터포털
35.903436,126.840366,청하면사무소,platform,yes,청하면,bus_stop,공공데이터포털
35.995051,126.845642,축산저수지,platform,yes,임피면,bus_stop,공공데이터포털
35.973906,126.772844,충량마을,platform,yes,개정면,bus_stop,공공데이터포털
35.94338,126.855422,탑동,platform,yes,대야면,bus_stop,공공데이터포털
35.976545,126.722921,시외버스터미널,platform,yes,대명동,bus_stop,공공데이터포털
35.976455,126.72338,팔마광장.터미널,platform,yes,대명동,bus_stop,공공데이터포털
35.932102,126.766312,표산,platform,yes,옥산면,bus_stop,공공데이터포털
35.932137,126.766402,표산,platform,yes,옥산면,bus_stop,공공데이터포털
36.020543,126.737899,하구둑관광단지,platform,yes,마서면,bus_stop,공공데이터포털
36.070606,126.934035,하와,platform,yes,성당면,bus_stop,공공데이터포털
35.959706,126.729095,한국타이어(미장동),platform,yes,미장동,bus_stop,공공데이터포털
35.963083,126.719761,한라비발디1단지,platform,yes,수송동,bus_stop,공공데이터포털
36.057456,126.908436,행동,platform,yes,함라면,bus_stop,공공데이터포털
35.98195,126.680793,현대차서비스,platform,yes,소룡동,bus_stop,공공데이터포털
36.071238,126.93562,회선,platform,yes,성당면,bus_stop,공공데이터포털
35.927477,126.62289,수라마을,platform,yes,옥서면,bus_stop,공공데이터포털
35.910129,126.638973,신오산촌마을,platform,yes,옥서면,bus_stop,공공데이터포털
35.97153,126.554561,군산항6부두,platform,yes,오식도동,bus_stop,공공데이터포털
35.9344,126.673378,개사리,platform,yes,개사동,bus_stop,공공데이터포털
35.945392,126.688085,미룡주공2단지,platform,yes,미룡동,bus_stop,공공데이터포털
35.889625,126.832602,구장산마을,platform,yes,청하면,bus_stop,공공데이터포털
35.930083,126.827383,장좌,platform,yes,대야면,bus_stop,공공데이터포털
35.983069,126.808239,고봉재정상,platform,yes,성산면,bus_stop,공공데이터포털
35.975732,126.902558,만석,platform,yes,임피면,bus_stop,공공데이터포털
35.986577,126.790277,고봉마을,platform,yes,성산면,bus_stop,공공데이터포털
35.953323,126.868064,계산,platform,yes,임피면,bus_stop,공공데이터포털
35.910479,126.763501,광지산사거리,platform,yes,회현면,bus_stop,공공데이터포털
35.968954,126.710778,중앙여고,platform,yes,나운동,bus_stop,공공데이터포털
35.974512,126.78666,당산경노당,platform,yes,개정면,bus_stop,공공데이터포털
35.963549,126.797878,원발산,platform,yes,개정면,bus_stop,공공데이터포털
35.970421,126.770463,충량,platform,yes,개정면,bus_stop,공공데이터포털
35.954975,126.567127,SNS인더스트리사거리,platform,yes,오식도동,bus_stop,공공데이터포털
36.014856,126.699163,장항터미널,platform,yes,장항읍,bus_stop,공공데이터포털
35.961885,126.586028,교통공원사거리,platform,yes,소룡동,bus_stop,공공데이터포털
35.984482,126.851861,임피,platform,yes,임피면,bus_stop,공공데이터포털
35.953273,126.8228,남흥마을,platform,yes,대야면,bus_stop,공공데이터포털
35.966198,126.715351,롯데마트,platform,yes,수송동,bus_stop,공공데이터포털
35.903332,126.840195,청하면사무소,platform,yes,청하면,bus_stop,공공데이터포털
35.970256,126.875883,소령,platform,yes,임피면,bus_stop,공공데이터포털
35.951496,126.715428,외당마을,platform,yes,옥산면,bus_stop,공공데이터포털
35.950344,126.800839,조선이기앞,platform,yes,개정면,bus_stop,공공데이터포털
35.981018,126.722619,경암사거리,platform,yes,경암동,bus_stop,공공데이터포털
35.991436,126.850065,교축,platform,yes,임피면,bus_stop,공공데이터포털
35.972614,126.715499,수송초등학교,platform,yes,수송동,bus_stop,공공데이터포털
35.971347,126.760726,군산간호대기숙사,platform,yes,개정동,bus_stop,공공데이터포털
35.98005,126.681931,전북외고,platform,yes,소룡동,bus_stop,공공데이터포털
35.937681,126.650198,거사마을,platform,yes,개사동,bus_stop,공공데이터포털
35.967859,126.732864,경장삼거리,platform,yes,경장동,bus_stop,공공데이터포털
35.993405,126.850227,교축,platform,yes,임피면,bus_stop,공공데이터포털
35.974062,126.725567,장미목욕탕,platform,yes,경장동,bus_stop,공공데이터포털
35.987003,126.721182,구시장입구,platform,yes,금암동,bus_stop,공공데이터포털
35.98008,126.751405,구암현대아파트,platform,yes,구암동,bus_stop,공공데이터포털
35.943552,126.81646,신월마을,platform,yes,대야면,bus_stop,공공데이터포털
35.959528,126.635885,신창,platform,yes,산북동,bus_stop,공공데이터포털
35.898952,126.637238,신하제,platform,yes,옥서면,bus_stop,공공데이터포털
35.938839,126.775325,신흥,platform,yes,회현면,bus_stop,공공데이터포털
35.955504,126.823667,안정마을,platform,yes,대야면,bus_stop,공공데이터포털
35.898109,126.675453,어은,platform,yes,옥구읍,bus_stop,공공데이터포털
35.917083,126.760498,구학당,platform,yes,회현면,bus_stop,공공데이터포털
35.977892,126.672977,군산장례식장,platform,yes,산북동,bus_stop,공공데이터포털
35.970527,126.6287,군산항1부두,platform,yes,소룡동,bus_stop,공공데이터포털
35.905887,126.759516,금당마을,platform,yes,회현면,bus_stop,공공데이터포털
35.899689,126.713719,김제촌,platform,yes,옥구읍,bus_stop,공공데이터포털
35.960297,126.704725,나운동신아파트,platform,yes,지곡동,bus_stop,공공데이터포털
35.967534,126.696058,나운지구대,platform,yes,나운동,bus_stop,공공데이터포털
35.922286,126.797658,남고마을,platform,yes,대야면,bus_stop,공공데이터포털
35.888669,126.725431,오봉,platform,yes,회현면,bus_stop,공공데이터포털
35.959947,126.63214,옥성마을,platform,yes,산북동,bus_stop,공공데이터포털
35.977541,126.883871,용성마을,platform,yes,서수면,bus_stop,공공데이터포털
35.97928,126.881624,용회,platform,yes,서수면,bus_stop,공공데이터포털
35.910388,126.713906,우포,platform,yes,옥구읍,bus_stop,공공데이터포털
35.909999,126.716292,우포마을,platform,yes,옥구읍,bus_stop,공공데이터포털
36.019379,126.882238,운원,platform,yes,서수면,bus_stop,공공데이터포털
35.953335,126.822746,남흥마을,platform,yes,대야면,bus_stop,공공데이터포털
36.019738,126.800777,내촌마을,platform,yes,나포면,bus_stop,공공데이터포털
35.908994,126.686787,다기,platform,yes,옥구읍,bus_stop,공공데이터포털
35.998539,126.775647,대동,platform,yes,성산면,bus_stop,공공데이터포털
35.959549,126.698625,서해초등학교,platform,yes,나운동,bus_stop,공공데이터포털
35.948439,126.822106,석화,platform,yes,대야면,bus_stop,공공데이터포털
35.975751,126.738975,세풍사원아파트,platform,yes,조촌동,bus_stop,공공데이터포털
36.028199,126.713423,송내,platform,yes,마서면,bus_stop,공공데이터포털
35.977483,126.781618,송호마을,platform,yes,개정면,bus_stop,공공데이터포털
35.969963,126.714903,수송다나소아과,platform,yes,수송동,bus_stop,공공데이터포털
36.003033,126.833203,원부곡,platform,yes,나포면,bus_stop,공공데이터포털
35.964763,126.767769,율북마을,platform,yes,개정면,bus_stop,공공데이터포털
35.96485,126.719761,보건소,platform,yes,수송동,bus_stop,공공데이터포털
35.9532,126.724817,신당마을,platform,yes,옥산면,bus_stop,공공데이터포털
36.040677,126.862412,신방마을,platform,yes,나포면,bus_stop,공공데이터포털
35.918875,126.643736,신성산,platform,yes,옥서면,bus_stop,공공데이터포털
35.818658,126.477114,새만금광장,platform,yes,옥도면,bus_stop,공공데이터포털
35.992386,126.707509,도선장,platform,yes,금동,bus_stop,공공데이터포털
35.970202,126.684426,동아아파트,platform,yes,소룡동,bus_stop,공공데이터포털
36.006571,126.794195,동요,platform,yes,성산면,bus_stop,공공데이터포털
35.944686,126.689933,군산시평생학습관,platform,yes,미룡동,bus_stop,공공데이터포털
35.97321,126.653469,롯데주류,platform,yes,소룡동,bus_stop,공공데이터포털
35.939685,126.772662,망동마을,platform,yes,옥산면,bus_stop,공공데이터포털
35.963948,126.724811,LH휴먼시아APT,platform,yes,미장동,bus_stop,공공데이터포털
36.009913,126.836751,부곡저수지,platform,yes,나포면,bus_stop,공공데이터포털
35.935487,126.526194,비응항(월명유람선),platform,yes,비응도동,bus_stop,공공데이터포털
35.938567,126.53173,비응항환승장,platform,yes,비응도동,bus_stop,공공데이터포털
35.964657,126.750036,사정금호2차아파트,platform,yes,사정동,bus_stop,공공데이터포털
36.011617,126.866814,산간마을,platform,yes,서수면,bus_stop,공공데이터포털
35.976679,126.709617,삼학대우,platform,yes,삼학동,bus_stop,공공데이터포털
35.911724,126.663633,상산,platform,yes,옥구읍,bus_stop,공공데이터포털
35.978364,126.70566,서문교회,platform,yes,신풍동,bus_stop,공공데이터포털
35.980478,126.847869,서상마을,platform,yes,임피면,bus_stop,공공데이터포털
36.013912,126.878946,서수농공단지,platform,yes,서수면,bus_stop,공공데이터포털
35.958537,126.586544,인력개발원,platform,yes,소룡동,bus_stop,공공데이터포털
36.044401,126.89372,입남,platform,yes,함라면,bus_stop,공공데이터포털
35.982779,126.75428,잠두,platform,yes,구암동,bus_stop,공공데이터포털
35.988574,126.716215,진포해양테마공원,platform,yes,장미동,bus_stop,공공데이터포털
35.983045,126.710762,창성주공아파트,platform,yes,명산동,bus_stop,공공데이터포털
35.936049,126.704446,척동,platform,yes,옥구읍,bus_stop,공공데이터포털
36.020452,126.764775,철새조망대,platform,yes,성산면,bus_stop,공공데이터포털
35.955831,126.66856,미성삼거리,platform,yes,산북동,bus_stop,공공데이터포털
35.927414,126.77927,표산마을,platform,yes,회현면,bus_stop,공공데이터포털
35.919065,126.768818,풍촌,platform,yes,회현면,bus_stop,공공데이터포털
36.021082,126.736083,하구둑관광단지,platform,yes,마서면,bus_stop,공공데이터포털
35.9639,126.71844,수송동주민센터,platform,yes,수송동,bus_stop,공공데이터포털
35.927774,126.717861,한림,platform,yes,옥산면,bus_stop,공공데이터포털
36.062407,126.918584,함라중학교,platform,yes,함라면,bus_stop,공공데이터포털
36.045968,126.85442,혜곡,platform,yes,나포면,bus_stop,공공데이터포털
35.988736,126.880426,호산,platform,yes,서수면,bus_stop,공공데이터포털
36.047184,126.705806,홍덕리,platform,yes,마서면,bus_stop,공공데이터포털
35.912724,126.75662,회현면사무소,platform,yes,회현면,bus_stop,공공데이터포털
35.913574,126.755852,회현중학교,platform,yes,회현면,bus_stop,공공데이터포털
35.969837,126.546744,대우로지스틱스,platform,yes,오식도동,bus_stop,공공데이터포털
36.007747,126.757539,채만식문학관,platform,yes,내흥동,bus_stop,공공데이터포털
35.973065,126.784493,와룡,platform,yes,개정면,bus_stop,공공데이터포털
35.905193,126.758264,금당,platform,yes,회현면,bus_stop,공공데이터포털
35.998105,126.870057,행운가든(수서저수지),platform,yes,서수면,bus_stop,공공데이터포털
35.973449,126.890555,신기,platform,yes,임피면,bus_stop,공공데이터포털
35.950355,126.866584,금암,platform,yes,대야면,bus_stop,공공데이터포털
35.893574,126.857327,대신,platform,yes,청하면,bus_stop,공공데이터포털
35.97249,126.771575,충량마을,platform,yes,개정면,bus_stop,공공데이터포털
35.964499,126.76783,율북마을,platform,yes,개정면,bus_stop,공공데이터포털
35.944004,126.720352,원당마을,platform,yes,옥산면,bus_stop,공공데이터포털
35.95229,126.830595,외덕물문교,platform,yes,대야면,bus_stop,공공데이터포털
35.950769,126.842032,고척마을,platform,yes,대야면,bus_stop,공공데이터포털
36.080688,126.967096,함열여고,platform,yes,함열읍,bus_stop,공공데이터포털
35.950362,126.75203,봉서마을,platform,yes,옥산면,bus_stop,공공데이터포털
36.020205,126.699456,장항초교,platform,yes,장항읍,bus_stop,공공데이터포털
35.9537,126.549035,KB중공업,platform,yes,오식도동,bus_stop,공공데이터포털
35.821977,126.476772,신시도입구,platform,yes,옥도면,bus_stop,공공데이터포털
35.910124,126.645272,구호촌,platform,yes,옥서면,bus_stop,공공데이터포털
35.971516,126.702789,우진아파트,platform,yes,나운동,bus_stop,공공데이터포털
35.976216,126.785146,운회교회,platform,yes,개정면,bus_stop,공공데이터포털
35.969622,126.706429,주공5차,platform,yes,문화동,bus_stop,공공데이터포털
35.959636,126.719155,한라비발디아파트,platform,yes,수송동,bus_stop,공공데이터포털
35.95233,126.652085,미성동,platform,yes,산북동,bus_stop,공공데이터포털
35.979258,126.672897,소룡동제이파크,platform,yes,소룡동,bus_stop,공공데이터포털
36.064712,126.924142,간성마을,platform,yes,함라면,bus_stop,공공데이터포털
35.920458,126.710298,개정,platform,yes,옥구읍,bus_stop,공공데이터포털
35.973382,126.728532,경장사거리,platform,yes,경장동,bus_stop,공공데이터포털
35.969047,126.732034,경장삼거리,platform,yes,경장동,bus_stop,공공데이터포털
35.990997,126.858885,계남마을,platform,yes,임피면,bus_stop,공공데이터포털
35.969551,126.62287,공진선박,platform,yes,소룡동,bus_stop,공공데이터포털
35.94266,126.654224,공항교차로,platform,yes,개사동,bus_stop,공공데이터포털
35.937272,126.777095,구율마을,platform,yes,개정면,bus_stop,공공데이터포털
35.903019,126.63744,신오산촌,platform,yes,옥서면,bus_stop,공공데이터포털
35.937736,126.686329,신촌마을,platform,yes,신관동,bus_stop,공공데이터포털
35.96056,126.694877,아리랑아파트,platform,yes,나운동,bus_stop,공공데이터포털
35.90673,126.688995,양등,platform,yes,옥구읍,bus_stop,공공데이터포털
35.910182,126.661585,어은경로당,platform,yes,옥구읍,bus_stop,공공데이터포털
35.895027,126.676532,어은동종점,platform,yes,옥구읍,bus_stop,공공데이터포털
35.945407,126.686097,군산대정문,platform,yes,미룡동,bus_stop,공공데이터포털
35.975928,126.586011,군산항5부두,platform,yes,소룡동,bus_stop,공공데이터포털
35.990558,126.711403,근대역사박물관,platform,yes,장미동,bus_stop,공공데이터포털
35.971495,126.732972,금강방송군산지사,platform,yes,경장동,bus_stop,공공데이터포털
35.900722,126.746971,금광마을,platform,yes,회현면,bus_stop,공공데이터포털
35.926455,126.798957,금반,platform,yes,대야면,bus_stop,공공데이터포털
35.949269,126.864566,금암,platform,yes,임피면,bus_stop,공공데이터포털
35.961395,126.705627,예술의전당,platform,yes,지곡동,bus_stop,공공데이터포털
36.063377,126.878123,오류동,platform,yes,웅포면,bus_stop,공공데이터포털
35.904769,126.777348,오산촌,platform,yes,회현면,bus_stop,공공데이터포털
36.048782,126.852788,옥동,platform,yes,나포면,bus_stop,공공데이터포털
36.021296,126.863135,와촌마을,platform,yes,나포면,bus_stop,공공데이터포털
36.021381,126.86317,와촌마을,platform,yes,나포면,bus_stop,공공데이터포털
36.01736,126.815874,외곡,platform,yes,나포면,bus_stop,공공데이터포털
35.95474,126.829885,외덕,platform,yes,대야면,bus_stop,공공데이터포털
35.97665,126.843854,남서원,platform,yes,임피면,bus_stop,공공데이터포털
35.951278,126.822414,남흥마을,platform,yes,대야면,bus_stop,공공데이터포털
35.955707,126.592351,내초도마을입구,platform,yes,소룡동,bus_stop,공공데이터포털
35.970428,126.764743,달려,platform,yes,개정동,bus_stop,공공데이터포털
35.959981,126.696748,서호아파트,platform,yes,나운동,bus_stop,공공데이터포털
35.933829,126.643428,성남동,platform,yes,옥서면,bus_stop,공공데이터포털
35.975757,126.742053,세풍사택,platform,yes,조촌동,bus_stop,공공데이터포털
35.975769,126.679279,소룡농협,platform,yes,소룡동,bus_stop,공공데이터포털
36.007881,126.794784,수심,platform,yes,성산면,bus_stop,공공데이터포털
35.912683,126.765256,원학당마을,platform,yes,회현면,bus_stop,공공데이터포털
35.971112,126.675146,원산북삼거리,platform,yes,산북동,bus_stop,공공데이터포털
36.022105,126.800113,원서포마을,platform,yes,나포면,bus_stop,공공데이터포털
36.022099,126.800222,원서포마을,platform,yes,나포면,bus_stop,공공데이터포털
35.956567,126.723383,원예협동조합,platform,yes,수송동,bus_stop,공공데이터포털
36.011465,126.81943,원주곡마을,platform,yes,나포면,bus_stop,공공데이터포털
36.002073,126.898689,원화등,platform,yes,서수면,bus_stop,공공데이터포털
36.005715,126.899721,월암,platform,yes,서수면,bus_stop,공공데이터포털
35.958846,126.861424,술산초등학교,platform,yes,임피면,bus_stop,공공데이터포털
35.925352,126.85612,신광마을,platform,yes,대야면,bus_stop,공공데이터포털
35.905845,126.710518,신기,platform,yes,옥구읍,bus_stop,공공데이터포털
35.997929,126.896326,신기촌,platform,yes,서수면,bus_stop,공공데이터포털
35.998089,126.819216,대명,platform,yes,성산면,bus_stop,공공데이터포털
35.944696,126.813155,대야사거리,platform,yes,대야면,bus_stop,공공데이터포털
35.99282,126.707409,도선장,platform,yes,금동,bus_stop,공공데이터포털
36.003589,126.7905,동요,platform,yes,성산면,bus_stop,공공데이터포털
35.966189,126.715912,롯데마트,platform,yes,수송동,bus_stop,공공데이터포털
35.940194,126.768286,망동,platform,yes,옥산면,bus_stop,공공데이터포털
36.038184,126.859105,불주사입구,platform,yes,나포면,bus_stop,공공데이터포털
35.938981,126.530809,비응항,platform,yes,비응도동,bus_stop,공공데이터포털
35.96194,126.743722,사정삼거리,platform,yes,사정동,bus_stop,공공데이터포털
35.927164,126.620846,산동,platform,yes,옥서면,bus_stop,공공데이터포털
35.976009,126.709438,삼학대우아파트,platform,yes,삼학동,bus_stop,공공데이터포털
36.007866,126.901644,상금,platform,yes,서수면,bus_stop,공공데이터포털
35.92637,126.708027,상평광원마을,platform,yes,옥구읍,bus_stop,공공데이터포털
35.959516,126.729567,새군산충전소,platform,yes,미장동,bus_stop,공공데이터포털
35.919074,126.669398,서마산마을,platform,yes,옥구읍,bus_stop,공공데이터포털
35.983838,126.846026,서상마을,platform,yes,임피면,bus_stop,공공데이터포털
35.98218,126.877838,서수삼거리,platform,yes,서수면,bus_stop,공공데이터포털
35.958067,126.5872,인력개발원,platform,yes,소룡동,bus_stop,공공데이터포털
35.984004,126.849344,임피우체국,platform,yes,임피면,bus_stop,공공데이터포털
35.975167,126.606539,장산도사거리,platform,yes,소룡동,bus_stop,공공데이터포털
35.924915,126.627338,장전,platform,yes,옥서면,bus_stop,공공데이터포털
35.962608,126.69612,전자랜드,platform,yes,나운동,bus_stop,공공데이터포털
35.914568,126.744128,죽동,platform,yes,회현면,bus_stop,공공데이터포털
35.982631,126.724021,중동장,platform,yes,중동,bus_stop,공공데이터포털
35.910106,126.656322,중야,platform,yes,옥구읍,bus_stop,공공데이터포털
35.893672,126.725693,중야,platform,yes,회현면,bus_stop,공공데이터포털
35.975284,126.886966,창성,platform,yes,임피면,bus_stop,공공데이터포털
35.891596,126.844172,청하산,platform,yes,청하면,bus_stop,공공데이터포털
35.956257,126.667111,미성삼거리,platform,yes,산북동,bus_stop,공공데이터포털
35.973471,126.638616,퓨리나코리아,platform,yes,소룡동,bus_stop,공공데이터포털
36.013097,126.757115,하구둑,platform,yes,성산면,bus_stop,공공데이터포털
35.927922,126.718046,한림,platform,yes,옥산면,bus_stop,공공데이터포털
35.9816,126.680794,현대차서비스,platform,yes,소룡동,bus_stop,공공데이터포털
35.986076,126.766366,호덕교차로,platform,yes,개정면,bus_stop,공공데이터포털
35.913082,126.755928,회현중학교,platform,yes,회현면,bus_stop,공공데이터포털
35.913706,126.756054,회현중학교,platform,yes,회현면,bus_stop,공공데이터포털
35.974974,126.658831,OCI,platform,yes,소룡동,bus_stop,공공데이터포털
35.95269,126.648627,미성동,platform,yes,산북동,bus_stop,공공데이터포털
35.896077,126.676377,어은동,platform,yes,옥구읍,bus_stop,공공데이터포털
35.960028,126.541015,비응1호교,platform,yes,오식도동,bus_stop,공공데이터포털
35.95618,126.710875,의료원,platform,yes,지곡동,bus_stop,공공데이터포털
35.96575,126.774867,동정마을,platform,yes,개정면,bus_stop,공공데이터포털
35.985138,126.869329,임피중학교,platform,yes,서수면,bus_stop,공공데이터포털
36.004793,126.913722,마포,platform,yes,서수면,bus_stop,공공데이터포털
35.971524,126.892907,영창,platform,yes,임피면,bus_stop,공공데이터포털
35.962027,126.848872,석곡,platform,yes,임피면,bus_stop,공공데이터포털
35.891482,126.856983,대청마을,platform,yes,청하면,bus_stop,공공데이터포털
35.911129,126.76084,금광마을,platform,yes,회현면,bus_stop,공공데이터포털
35.911022,126.760854,금광마을,platform,yes,회현면,bus_stop,공공데이터포털
35.99822,126.762824,안정마을(군산역입구),platform,yes,내흥동,bus_stop,공공데이터포털
36.064811,126.707708,계동,platform,yes,마서면,bus_stop,공공데이터포털
35.952241,126.830563,외덕물문교,platform,yes,대야면,bus_stop,공공데이터포털
35.989078,126.819417,창안마을,platform,yes,성산면,bus_stop,공공데이터포털
35.938625,126.848307,용절마을,platform,yes,대야면,bus_stop,공공데이터포털
35.983491,126.821678,창오,platform,yes,성산면,bus_stop,공공데이터포털
35.957183,126.656167,미성사거리,platform,yes,산북동,bus_stop,공공데이터포털
36.020274,126.699368,장항초교,platform,yes,장항읍,bus_stop,공공데이터포털
35.994362,126.797528,도암,platform,yes,성산면,bus_stop,공공데이터포털
35.919018,126.669457,서마산마을,platform,yes,옥구읍,bus_stop,공공데이터포털
35.911443,126.698038,수왕,platform,yes,옥구읍,bus_stop,공공데이터포털
35.966465,126.736162,시청사거리,platform,yes,조촌동,bus_stop,공공데이터포털
35.901865,126.725746,용연,platform,yes,회현면,bus_stop,공공데이터포털
35.96056,126.560586,한국산업단지공단,platform,yes,오식도동,bus_stop,공공데이터포털
35.960808,126.842582,보암마을,platform,yes,임피면,bus_stop,공공데이터포털
36.001221,126.821023,대명삼거리,platform,yes,성산면,bus_stop,공공데이터포털
35.955974,126.58731,경주수출포장,platform,yes,소룡동,bus_stop,공공데이터포털
35.953373,126.867984,계산,platform,yes,임피면,bus_stop,공공데이터포털
35.950807,126.841944,고척마을,platform,yes,대야면,bus_stop,공공데이터포털
35.978358,126.67019,유니드,platform,yes,소룡동,bus_stop,공공데이터포털
35.986712,126.711506,교보빌딩,platform,yes,중앙로1가,bus_stop,공공데이터포털
35.958815,126.699075,신일아파트,platform,yes,나운동,bus_stop,공공데이터포털
35.903155,126.687133,신장,platform,yes,옥구읍,bus_stop,공공데이터포털
35.922865,126.639084,신장원마을,platform,yes,옥서면,bus_stop,공공데이터포털
35.979725,126.70601,신풍사거리,platform,yes,신풍동,bus_stop,공공데이터포털
35.966439,126.666143,십자다리,platform,yes,산북동,bus_stop,공공데이터포털
35.920128,126.764925,양수장,platform,yes,회현면,bus_stop,공공데이터포털
35.983362,126.716753,영광중.고등학교,platform,yes,중앙로2가,bus_stop,공공데이터포털
35.935805,126.781268,구율마을,platform,yes,회현면,bus_stop,공공데이터포털
35.914109,126.643754,구호촌,platform,yes,옥서면,bus_stop,공공데이터포털
35.9515,126.661933,국제문화마을,platform,yes,산북동,bus_stop,공공데이터포털
35.973965,126.655767,군산공단,platform,yes,소룡동,bus_stop,공공데이터포털
36.000896,126.787736,군장대학교,platform,yes,성산면,bus_stop,공공데이터포털
35.973874,126.678599,금강부동산,platform,yes,소룡동,bus_stop,공공데이터포털
35.950307,126.866346,금암마을,platform,yes,임피면,bus_stop,공공데이터포털
35.966666,126.70375,나운금호아파트,platform,yes,나운동,bus_stop,공공데이터포털
35.95832,126.704054,나운우성아파트,platform,yes,나운동,bus_stop,공공데이터포털
35.962784,126.710617,오투그란데정문,platform,yes,수송동,bus_stop,공공데이터포털
36.048853,126.852759,옥동,platform,yes,나포면,bus_stop,공공데이터포털
35.935186,126.640736,옥선.남동,platform,yes,옥서면,bus_stop,공공데이터포털
36.05342,126.904145,와우,platform,yes,함라면,bus_stop,공공데이터포털
36.029409,126.886252,왈인,platform,yes,함라면,bus_stop,공공데이터포털
36.034062,126.833779,외곤,platform,yes,나포면,bus_stop,공공데이터포털
35.89866,126.725609,용연,platform,yes,회현면,bus_stop,공공데이터포털
35.976174,126.785021,운회교회,platform,yes,개정면,bus_stop,공공데이터포털
35.931276,126.809183,내상마을,platform,yes,대야면,bus_stop,공공데이터포털
35.969766,126.721482,세영리첼아파트,platform,yes,수송동,bus_stop,공공데이터포털
35.98041,126.676795,소룡제일아파트,platform,yes,소룡동,bus_stop,공공데이터포털
35.925034,126.807556,소차,platform,yes,대야면,bus_stop,공공데이터포털
35.970712,126.715742,수송현대아파트,platform,yes,수송동,bus_stop,공공데이터포털
36.023525,126.799323,원서포삼거리,platform,yes,나포면,bus_stop,공공데이터포털
36.0237,126.799552,원서포삼거리,platform,yes,나포면,bus_stop,공공데이터포털
35.963935,126.749956,월명체육관,platform,yes,사정동,bus_stop,공공데이터포털
36.00576,126.899825,월암,platform,yes,서수면,bus_stop,공공데이터포털
35.906614,126.7403,월평1구,platform,yes,회현면,bus_stop,공공데이터포털
35.960523,126.691756,부곡사거리,platform,yes,나운동,bus_stop,공공데이터포털
35.957241,126.689031,은파호수공원,platform,yes,나운동,bus_stop,공공데이터포털
35.988672,126.79161,식천,platform,yes,성산면,bus_stop,공공데이터포털
35.905976,126.713612,신기마을,platform,yes,옥구읍,bus_stop,공공데이터포털
35.939867,126.839693,신복마을,platform,yes,대야면,bus_stop,공공데이터포털
35.954668,126.561198,신산테크,platform,yes,오식도동,bus_stop,공공데이터포털
35.916819,126.646644,신성산,platform,yes,옥서면,bus_stop,공공데이터포털
35.944913,126.814739,대야사거리,platform,yes,대야면,bus_stop,공공데이터포털
35.988913,126.707954,동산중학교,platform,yes,금동,bus_stop,공공데이터포털
35.967398,126.763909,동안마을,platform,yes,개정동,bus_stop,공공데이터포털
36.022176,126.819759,둔기,platform,yes,나포면,bus_stop,공공데이터포털
35.963425,126.701113,롯데2.3차아파트,platform,yes,나운동,bus_stop,공공데이터포털
35.957007,126.672469,미성초교,platform,yes,산북동,bus_stop,공공데이터포털
35.969078,126.819874,분토,platform,yes,대야면,bus_stop,공공데이터포털
35.940243,126.533941,비응항1주차장,platform,yes,비응도동,bus_stop,공공데이터포털
35.960072,126.744546,삼수마을,platform,yes,사정동,bus_stop,공공데이터포털
35.977899,126.711392,삼학주공아파트,platform,yes,삼학동,bus_stop,공공데이터포털
35.911645,126.660929,사호촌,platform,yes,옥구읍,bus_stop,공공데이터포털
35.958908,126.53381,현대중공업(남문),platform,yes,비응도동,bus_stop,공공데이터포털
35.926073,126.707937,상평.광월마을,platform,yes,옥구읍,bus_stop,공공데이터포털
35.932311,126.676883,개사리,platform,yes,개사동,bus_stop,공공데이터포털
35.934461,126.673319,개사리,platform,yes,개사동,bus_stop,공공데이터포털
35.902831,126.684226,한서울,platform,yes,옥구읍,bus_stop,공공데이터포털
36.002784,126.775575,상흥마을,platform,yes,성산면,bus_stop,공공데이터포털
35.986594,126.793949,성산농공단지,platform,yes,성산면,bus_stop,공공데이터포털
36.007929,126.901743,상금,platform,yes,함라면,bus_stop,공공데이터포털
35.894317,126.731517,월연교회,platform,yes,회현면,bus_stop,공공데이터포털
35.958578,126.797775,발산초교삼거리,platform,yes,개정면,bus_stop,공공데이터포털
36.003725,126.820177,살구쟁이,platform,yes,성산면,bus_stop,공공데이터포털
36.050032,126.900018,와우,platform,yes,함라면,bus_stop,공공데이터포털
35.983472,126.821792,창오,platform,yes,성산면,bus_stop,공공데이터포털
35.950363,126.8663,금암마을,platform,yes,임피면,bus_stop,공공데이터포털
35.961221,126.577778,현대오식관,platform,yes,소룡동,bus_stop,공공데이터포털
35.960916,126.567112,우리은행4,platform,yes,오식도동,bus_stop,공공데이터포털
35.946144,126.685552,군산대정문,platform,yes,미룡동,bus_stop,공공데이터포털
35.9596,126.714498,남북로사거리,platform,yes,수송동,bus_stop,공공데이터포털
35.950819,126.825586,석화마을,platform,yes,대야면,bus_stop,공공데이터포털
36.0224,126.732709,신기,platform,yes,마서면,bus_stop,공공데이터포털
35.898124,126.67558,어은,platform,yes,옥구읍,bus_stop,공공데이터포털
36.018433,126.814463,외곡,platform,yes,나포면,bus_stop,공공데이터포털
35.929223,126.645797,외성산마을,platform,yes,옥서면,bus_stop,공공데이터포털
35.981985,126.880979,용회,platform,yes,서수면,bus_stop,공공데이터포털
35.969444,126.77023,충량마을,platform,yes,개정면,bus_stop,공공데이터포털
35.910101,126.650184,칠호촌,platform,yes,옥구읍,bus_stop,공공데이터포털
35.971591,126.892733,영창,platform,yes,임피면,bus_stop,공공데이터포털
35.954423,126.562698,(주)대경STB,platform,yes,오식도동,bus_stop,공공데이터포털
35.91006,126.716337,우포마을,platform,yes,옥구읍,bus_stop,공공데이터포털
35.962914,126.567412,현대프라자건너편,platform,yes,오식도동,bus_stop,공공데이터포털
35.93427,126.686548,개사동마을입구,platform,yes,신관동,bus_stop,공공데이터포털
35.969857,126.759457,군산간호대,platform,yes,개정동,bus_stop,공공데이터포털
35.981585,126.726005,경암사거리,platform,yes,경암동,bus_stop,공공데이터포털
35.971568,126.729065,경장사거리,platform,yes,경장동,bus_stop,공공데이터포털
35.994808,126.861096,계남,platform,yes,서수면,bus_stop,공공데이터포털
35.991039,126.858803,계남마을,platform,yes,임피면,bus_stop,공공데이터포털
35.919432,126.823766,고산,platform,yes,대야면,bus_stop,공공데이터포털
35.906321,126.666061,광야,platform,yes,옥구읍,bus_stop,공공데이터포털
35.90771,126.662784,광야마을,platform,yes,옥구읍,bus_stop,공공데이터포털
35.998989,126.752695,정자마을,platform,yes,내흥동,bus_stop,공공데이터포털
35.979375,126.720067,해동가축병원,platform,yes,장재동,bus_stop,공공데이터포털
35.903017,126.637332,신오산촌,platform,yes,옥서면,bus_stop,공공데이터포털
35.902005,126.686148,신장,platform,yes,옥구읍,bus_stop,공공데이터포털
35.901845,126.686123,신장,platform,yes,옥구읍,bus_stop,공공데이터포털
35.984118,126.841062,안흥,platform,yes,임피면,bus_stop,공공데이터포털
35.920241,126.764893,양수장,platform,yes,회현면,bus_stop,공공데이터포털
35.95422,126.541476,열병합사거리,platform,yes,오식도동,bus_stop,공공데이터포털
35.937331,126.777198,구율마을,platform,yes,개정면,bus_stop,공공데이터포털
35.974624,126.602434,군산에너지넷,platform,yes,소룡동,bus_stop,공공데이터포털
36.004233,126.798889,기린,platform,yes,성산면,bus_stop,공공데이터포털
35.899694,126.713806,김제,platform,yes,옥구읍,bus_stop,공공데이터포털
35.922217,126.797792,남고마을,platform,yes,대야면,bus_stop,공공데이터포털
35.939132,126.765297,남내마을,platform,yes,옥산면,bus_stop,공공데이터포털
35.935285,126.640735,옥선.남동,platform,yes,옥서면,bus_stop,공공데이터포털
36.032868,126.832917,외곤,platform,yes,나포면,bus_stop,공공데이터포털
35.979276,126.88153,용회,platform,yes,서수면,bus_stop,공공데이터포털
35.985911,126.713949,우리문고,platform,yes,중앙로1가,bus_stop,공공데이터포털
35.971462,126.70297,우진아파트,platform,yes,나운동,bus_stop,공공데이터포털
36.047836,126.848672,원나포,platform,yes,나포면,bus_stop,공공데이터포털
35.903751,126.754977,원당,platform,yes,회현면,bus_stop,공공데이터포털
36.011251,126.796548,남전,platform,yes,성산면,bus_stop,공공데이터포털
35.989686,126.896875,석화,platform,yes,서수면,bus_stop,공공데이터포털
35.925961,126.624351,송촌,platform,yes,옥서면,bus_stop,공공데이터포털
35.966489,126.796845,원발산,platform,yes,개정면,bus_stop,공공데이터포털
35.917643,126.712726,원이곡,platform,yes,옥구읍,bus_stop,공공데이터포털
35.973233,126.680118,월명여중,platform,yes,소룡동,bus_stop,공공데이터포털
35.968125,126.675212,시영아파트,platform,yes,산북동,bus_stop,공공데이터포털
36.024908,126.72642,신기,platform,yes,마서면,bus_stop,공공데이터포털
35.901732,126.768124,신기촌,platform,yes,회현면,bus_stop,공공데이터포털
35.921466,126.775611,신당,platform,yes,회현면,bus_stop,공공데이터포털
35.927068,126.62079,산동,platform,yes,옥서면,bus_stop,공공데이터포털
35.939583,126.839991,신복마을,platform,yes,대야면,bus_stop,공공데이터포털
36.014876,126.809553,신성삼거리,platform,yes,나포면,bus_stop,공공데이터포털
35.945611,126.817021,대야교회,platform,yes,대야면,bus_stop,공공데이터포털
35.971673,126.822215,덕봉마을,platform,yes,성산면,bus_stop,공공데이터포털
35.967325,126.76405,동안마을,platform,yes,개정동,bus_stop,공공데이터포털
35.907118,126.850185,동지산,platform,yes,청하면,bus_stop,공공데이터포털
35.91295,126.667789,둔산,platform,yes,옥구읍,bus_stop,공공데이터포털
35.93958,126.772689,망동마을,platform,yes,옥산면,bus_stop,공공데이터포털
35.965955,126.567185,맨하탄프라자,platform,yes,오식도동,bus_stop,공공데이터포털
35.972887,126.705903,문화동남전연립,platform,yes,문화동,bus_stop,공공데이터포털
35.956719,126.704556,백토사거리,platform,yes,지곡동,bus_stop,공공데이터포털
35.961103,126.855637,보석리,platform,yes,임피면,bus_stop,공공데이터포털
35.996077,126.863702,복우마을,platform,yes,서수면,bus_stop,공공데이터포털
35.959734,126.691748,부곡사거리,platform,yes,나운동,bus_stop,공공데이터포털
36.009778,126.836558,부곡저수지,platform,yes,나포면,bus_stop,공공데이터포털
36.005585,126.885136,상장곤,platform,yes,서수면,bus_stop,공공데이터포털
35.977942,126.748753,새터,platform,yes,조촌동,bus_stop,공공데이터포털
35.954103,126.656319,미성농협,platform,yes,산북동,bus_stop,공공데이터포털
35.953508,126.656544,서군산농협,platform,yes,산북동,bus_stop,공공데이터포털
35.981387,126.734663,이마트,platform,yes,경암동,bus_stop,공공데이터포털
35.95407,126.865194,임피역,platform,yes,임피면,bus_stop,공공데이터포털
35.999535,126.836489,입점,platform,yes,나포면,bus_stop,공공데이터포털
36.053038,126.87852,입점,platform,yes,웅포면,bus_stop,공공데이터포털
35.985198,126.753518,잠두마을,platform,yes,구암동,bus_stop,공공데이터포털
35.923777,126.629769,장원,platform,yes,옥서면,bus_stop,공공데이터포털
35.961916,126.715354,수송전북은행,platform,yes,수송동,bus_stop,공공데이터포털
35.986299,126.719185,죽성로사거리,platform,yes,신영동,bus_stop,공공데이터포털
35.908066,126.788107,증석마을,platform,yes,회현면,bus_stop,공공데이터포털
35.969975,126.712546,지산연립,platform,yes,수송동,bus_stop,공공데이터포털
35.984946,126.815067,창오,platform,yes,성산면,bus_stop,공공데이터포털
35.933428,126.702668,척동,platform,yes,옥구읍,bus_stop,공공데이터포털
35.918881,126.760902,척동,platform,yes,회현면,bus_stop,공공데이터포털
36.070517,126.934059,하와,platform,yes,성당면,bus_stop,공공데이터포털
35.943693,126.541543,한국중부발전소삼거리,platform,yes,비응도동,bus_stop,공공데이터포털
35.960298,126.719759,한라비발디2단지,platform,yes,수송동,bus_stop,공공데이터포털
35.982806,126.710804,창성주공아파트,platform,yes,송창동,bus_stop,공공데이터포털
35.932834,126.703421,척동,platform,yes,옥구읍,bus_stop,공공데이터포털
35.916825,126.653586,칠오촌,platform,yes,옥구읍,bus_stop,공공데이터포털
35.978166,126.876707,하용전,platform,yes,서수면,bus_stop,공공데이터포털
35.8925,126.627988,하제,platform,yes,옥서면,bus_stop,공공데이터포털
36.077655,126.965043,함열초등학교,platform,yes,함열읍,bus_stop,공공데이터포털
36.023387,126.774646,항동마을,platform,yes,성산면,bus_stop,공공데이터포털
35.993921,126.764217,혜령,platform,yes,내흥동,bus_stop,공공데이터포털
35.980294,126.720418,공설시장,platform,yes,대명동,bus_stop,공공데이터포털
35.964147,126.713927,오투그란데아파트,platform,yes,수송동,bus_stop,공공데이터포털
35.967389,126.629927,하나공업사,platform,yes,소룡동,bus_stop,공공데이터포털
35.968181,126.539943,현대중공업,platform,yes,오식도동,bus_stop,공공데이터포털
35.957275,126.596839,한산,platform,yes,내초동,bus_stop,공공데이터포털
35.955233,126.677958,미룡대명아파트삼거리,platform,yes,미룡동,bus_stop,공공데이터포털
35.965289,126.710787,군산시립도서관,platform,yes,나운동,bus_stop,공공데이터포털
35.907264,126.761647,광지산마을,platform,yes,회현면,bus_stop,공공데이터포털
35.94271,126.806538,군산남고,platform,yes,대야면,bus_stop,공공데이터포털
35.985173,126.8692,임피중학교,platform,yes,서수면,bus_stop,공공데이터포털
35.973562,126.702041,군산상고사거리,platform,yes,문화동,bus_stop,공공데이터포털
35.942877,126.771177,옥석마을,platform,yes,옥산면,bus_stop,공공데이터포털
35.881559,126.84837,청하중,platform,yes,청하면,bus_stop,공공데이터포털
36.022484,126.732824,신기,platform,yes,마서면,bus_stop,공공데이터포털
35.956107,126.795556,발산농협,platform,yes,개정면,bus_stop,공공데이터포털
35.938529,126.846649,용절마을,platform,yes,대야면,bus_stop,공공데이터포털
35.997696,126.785844,도암마을,platform,yes,성산면,bus_stop,공공데이터포털
36.04874,126.853002,옥동,platform,yes,나포면,bus_stop,공공데이터포털
36.004777,126.831448,원부곡,platform,yes,나포면,bus_stop,공공데이터포털
36.023606,126.700289,성주,platform,yes,장항읍,bus_stop,공공데이터포털
35.818527,126.477795,신시광장,platform,yes,옥도면,bus_stop,공공데이터포털
35.973919,126.728821,경장사거리,platform,yes,경장동,bus_stop,공공데이터포털
35.975739,126.735178,경포초등학교,platform,yes,조촌동,bus_stop,공공데이터포털
35.958341,126.700608,동원중학교,platform,yes,나운동,bus_stop,공공데이터포털
36.040156,126.858046,신방,platform,yes,나포면,bus_stop,공공데이터포털
35.963413,126.757018,군산간호대학입구,platform,yes,사정동,bus_stop,공공데이터포털
36.003996,126.761185,거척,platform,yes,내흥동,bus_stop,공공데이터포털
36.031226,126.831457,나포파출소,platform,yes,나포면,bus_stop,공공데이터포털
36.060007,126.879109,구룡목,platform,yes,웅포면,bus_stop,공공데이터포털
35.984498,126.757628,구암사거리,platform,yes,구암동,bus_stop,공공데이터포털
35.995901,126.863649,복우마을,platform,yes,서수면,bus_stop,공공데이터포털
35.91527,126.836177,신촌,platform,yes,대야면,bus_stop,공공데이터포털
35.975245,126.705894,한국병원,platform,yes,문화동,bus_stop,공공데이터포털
35.955462,126.823737,안정마을,platform,yes,대야면,bus_stop,공공데이터포털
36.007811,126.773263,양지마을,platform,yes,성산면,bus_stop,공공데이터포털
35.987236,126.786631,어린이집,platform,yes,성산면,bus_stop,공공데이터포털
35.916881,126.66106,어은삼거리,platform,yes,옥구읍,bus_stop,공공데이터포털
35.906352,126.729933,구평,platform,yes,회현면,bus_stop,공공데이터포털
35.91417,126.643848,구호촌,platform,yes,옥서면,bus_stop,공공데이터포털
35.910187,126.645395,구호촌,platform,yes,옥서면,bus_stop,공공데이터포털
35.950732,126.655994,국제문화마을,platform,yes,산북동,bus_stop,공공데이터포털
35.965929,126.737658,군산교육청,platform,yes,조촌동,bus_stop,공공데이터포털
35.948621,126.685326,군산대후문,platform,yes,미룡동,bus_stop,공공데이터포털
35.968034,126.705946,군산신흥초등학교,platform,yes,나운동,bus_stop,공공데이터포털
35.97492,126.601878,군산에너지넷,platform,yes,소룡동,bus_stop,공공데이터포털
35.920601,126.677392,군산여객차고지,platform,yes,옥구읍,bus_stop,공공데이터포털
35.986673,126.712791,군산우체국,platform,yes,중앙로1가,bus_stop,공공데이터포털
36.00726,126.905222,금암교회,platform,yes,서수면,bus_stop,공공데이터포털
35.966297,126.705984,금호어울림아파트,platform,yes,나운동,bus_stop,공공데이터포털
35.937817,126.635853,남동,platform,yes,옥서면,bus_stop,공공데이터포털
35.905485,126.642201,오산촌마을,platform,yes,옥서면,bus_stop,공공데이터포털
35.96277,126.710791,오투그란데정문,platform,yes,수송동,bus_stop,공공데이터포털
35.922272,126.683487,옥구읍보건지소,platform,yes,옥구읍,bus_stop,공공데이터포털
35.939033,126.747428,옥산대상아파트,platform,yes,옥산면,bus_stop,공공데이터포털
35.969486,126.782248,와룡,platform,yes,개정면,bus_stop,공공데이터포털
35.898759,126.725534,용연,platform,yes,회현면,bus_stop,공공데이터포털
35.931436,126.782026,용화마을,platform,yes,회현면,bus_stop,공공데이터포털
35.93477,126.761807,우동마을,platform,yes,옥산면,bus_stop,공공데이터포털
35.985763,126.859504,남상,platform,yes,임피면,bus_stop,공공데이터포털
35.961181,126.833506,내덕,platform,yes,대야면,bus_stop,공공데이터포털
35.949024,126.592658,내초도공원,platform,yes,내초동,bus_stop,공공데이터포털
36.019703,126.800906,내촌마을,platform,yes,나포면,bus_stop,공공데이터포털
35.974384,126.78663,당산경노당,platform,yes,개정면,bus_stop,공공데이터포털
36.027126,126.861044,서지,platform,yes,나포면,bus_stop,공공데이터포털
35.980142,126.706719,서해대학,platform,yes,오룡동,bus_stop,공공데이터포털
35.989818,126.787108,성산,platform,yes,성산면,bus_stop,공공데이터포털
35.95558,126.581857,성연산업사거리,platform,yes,소룡동,bus_stop,공공데이터포털
35.97032,126.875817,소령,platform,yes,임피면,bus_stop,공공데이터포털
36.042525,126.85647,원장상,platform,yes,나포면,bus_stop,공공데이터포털
35.987601,126.69747,월명터널,platform,yes,해망동,bus_stop,공공데이터포털
35.966844,126.736328,시청앞,platform,yes,조촌동,bus_stop,공공데이터포털
35.891245,126.833242,신금,platform,yes,청하면,bus_stop,공공데이터포털
35.91682,126.650188,신성산,platform,yes,옥구읍,bus_stop,공공데이터포털
36.002781,126.825538,후죽,platform,yes,나포면,bus_stop,공공데이터포털
35.944072,126.810444,대야역,platform,yes,대야면,bus_stop,공공데이터포털
35.920383,126.674954,동마산마을,platform,yes,옥구읍,bus_stop,공공데이터포털
35.969974,126.641293,동양특수고무,platform,yes,소룡동,bus_stop,공공데이터포털
35.987625,126.77301,둔덕,platform,yes,성산면,bus_stop,공공데이터포털
35.995896,126.818156,대명마을,platform,yes,성산면,bus_stop,공공데이터포털
35.942917,126.686767,미룡주공1단지,platform,yes,미룡동,bus_stop,공공데이터포털
35.955795,126.671538,미성초교삼거리,platform,yes,산북동,bus_stop,공공데이터포털
35.96427,126.731747,미장로1,platform,yes,미장동,bus_stop,공공데이터포털
35.954622,126.794866,발산,platform,yes,개정면,bus_stop,공공데이터포털
36.023207,126.884828,방령,platform,yes,서수면,bus_stop,공공데이터포털
35.939062,126.729241,백석교회,platform,yes,옥산면,bus_stop,공공데이터포털
35.939001,126.729331,백석교회입구,platform,yes,옥산면,bus_stop,공공데이터포털
35.949042,126.748452,봉서마을,platform,yes,옥산면,bus_stop,공공데이터포털
35.973745,126.722784,부속초등학교,platform,yes,동흥남동,bus_stop,공공데이터포털
36.038299,126.858913,불주사입구,platform,yes,나포면,bus_stop,공공데이터포털
35.963466,126.874075,중갈,platform,yes,임피면,bus_stop,공공데이터포털
35.911847,126.663691,상산,platform,yes,옥구읍,bus_stop,공공데이터포털
35.914381,126.751263,서기,platform,yes,회현면,bus_stop,공공데이터포털
35.984054,126.834605,서모마을,platform,yes,임피면,bus_stop,공공데이터포털
35.980446,126.847926,서상마을,platform,yes,임피면,bus_stop,공공데이터포털
35.982113,126.877815,서수삼거리,platform,yes,서수면,bus_stop,공공데이터포털
35.975397,126.637921,서안주정,platform,yes,소룡동,bus_stop,공공데이터포털
36.044515,126.893944,입남,platform,yes,함라면,bus_stop,공공데이터포털
36.053097,126.878602,입점,platform,yes,웅포면,bus_stop,공공데이터포털
35.959694,126.54871,자유무역관리원,platform,yes,오식도동,bus_stop,공공데이터포털
35.930226,126.82755,장좌,platform,yes,대야면,bus_stop,공공데이터포털
35.915327,126.757066,전중마을,platform,yes,회현면,bus_stop,공공데이터포털
35.937077,126.855147,접산,platform,yes,대야면,bus_stop,공공데이터포털
36.020189,126.764949,철새조망대,platform,yes,성산면,bus_stop,공공데이터포털
35.963519,126.819775,초산,platform,yes,대야면,bus_stop,공공데이터포털
35.973974,126.772782,충량마을,platform,yes,개정면,bus_stop,공공데이터포털
35.930623,126.729354,칠다리,platform,yes,옥산면,bus_stop,공공데이터포털
35.916821,126.656526,칠호촌마을,platform,yes,옥구읍,bus_stop,공공데이터포털
35.981186,126.713553,태광특수용접,platform,yes,선양동,bus_stop,공공데이터포털
35.961106,126.87285,하갈마을,platform,yes,임피면,bus_stop,공공데이터포털
35.973338,126.571821,하수처리장,platform,yes,소룡동,bus_stop,공공데이터포털
35.971668,126.647253,한국유리,platform,yes,소룡동,bus_stop,공공데이터포털
35.964194,126.718444,수송동주민센터,platform,yes,수송동,bus_stop,공공데이터포털
35.974,126.628433,해원조선,platform,yes,소룡동,bus_stop,공공데이터포털
35.981305,126.725502,경암사거리,platform,yes,경암동,bus_stop,공공데이터포털
35.969688,126.711766,중앙여자고등학교,platform,yes,수송동,bus_stop,공공데이터포털
36.054683,126.905954,진등,platform,yes,함라면,bus_stop,공공데이터포털
35.928645,126.80858,천수마을,platform,yes,대야면,bus_stop,공공데이터포털
35.918451,126.820926,함열,platform,yes,대야면,bus_stop,공공데이터포털
36.023312,126.774995,항동마을,platform,yes,성산면,bus_stop,공공데이터포털
36.026202,126.722417,효실,platform,yes,마서면,bus_stop,공공데이터포털
36.046949,126.705963,홍덕리,platform,yes,마서면,bus_stop,공공데이터포털
35.909974,126.643721,오산촌,platform,yes,옥서면,bus_stop,공공데이터포털
35.966812,126.757512,정다운요양원,platform,yes,개정동,bus_stop,공공데이터포털
35.970385,126.641594,동양특수고무,platform,yes,소룡동,bus_stop,공공데이터포털
35.91023,126.713732,우포,platform,yes,옥구읍,bus_stop,공공데이터포털
35.910125,126.713791,우포,platform,yes,옥구읍,bus_stop,공공데이터포털
35.984688,126.707105,클래시움아파트,platform,yes,월명동,bus_stop,공공데이터포털
35.987532,126.698524,월명터널,platform,yes,해망동,bus_stop,공공데이터포털
35.962793,126.767265,개정파출소,platform,yes,개정동,bus_stop,공공데이터포털
35.971719,126.783631,와룡,platform,yes,개정면,bus_stop,공공데이터포털
35.973224,126.796888,원아산마을,platform,yes,개정면,bus_stop,공공데이터포털
35.969206,126.797528,원발산,platform,yes,개정면,bus_stop,공공데이터포털
35.997861,126.866582,마룡,platform,yes,서수면,bus_stop,공공데이터포털
36.049816,126.8748,입점,platform,yes,웅포면,bus_stop,공공데이터포털
36.003414,126.869834,서울주유소,platform,yes,서수면,bus_stop,공공데이터포털
35.882024,126.84673,관상리,platform,yes,청하면,bus_stop,공공데이터포털
35.887192,126.843714,제상,platform,yes,청하면,bus_stop,공공데이터포털
36.025997,126.72263,효실,platform,yes,마서면,bus_stop,공공데이터포털
36.01289,126.812541,신성마을,platform,yes,나포면,bus_stop,공공데이터포털
35.930367,126.728281,칠다리,platform,yes,옥산면,bus_stop,공공데이터포털
35.967525,126.851555,남산마을,platform,yes,임피면,bus_stop,공공데이터포털
35.925473,126.852563,하광,platform,yes,대야면,bus_stop,공공데이터포털
35.95411,126.556782,(주)우진고분자,platform,yes,오식도동,bus_stop,공공데이터포털
35.969785,126.622517,공진선박,platform,yes,소룡동,bus_stop,공공데이터포털
35.970604,126.733337,교통정보센터,platform,yes,경장동,bus_stop,공공데이터포털
35.948353,126.821861,석화,platform,yes,대야면,bus_stop,공공데이터포털
36.016372,126.770506,성덕마을,platform,yes,성산면,bus_stop,공공데이터포털
35.973004,126.571589,하수처리장,platform,yes,소룡동,bus_stop,공공데이터포털
35.9332,126.678519,개사리,platform,yes,개사동,bus_stop,공공데이터포털
35.946734,126.576415,한성산업삼거리,platform,yes,오식도동,bus_stop,공공데이터포털
35.905851,126.705838,가산마을,platform,yes,옥구읍,bus_stop,공공데이터포털
35.92461,126.708256,광월,platform,yes,옥구읍,bus_stop,공공데이터포털
35.98357,126.74147,구암세풍아파트,platform,yes,구암동,bus_stop,공공데이터포털
35.939656,126.772439,망동마을,platform,yes,옥산면,bus_stop,공공데이터포털
35.945399,126.563173,거산빌딩삼거리,platform,yes,오식도동,bus_stop,공공데이터포털
35.903852,126.670873,신어은,platform,yes,옥구읍,bus_stop,공공데이터포털
35.922977,126.639059,신장원마을,platform,yes,옥서면,bus_stop,공공데이터포털
35.898992,126.637325,신하제,platform,yes,옥서면,bus_stop,공공데이터포털
35.938844,126.775435,신흥,platform,yes,개정면,bus_stop,공공데이터포털
35.956606,126.868878,양주,platform,yes,임피면,bus_stop,공공데이터포털
35.952599,126.541145,열병합사거리,platform,yes,오식도동,bus_stop,공공데이터포털
35.973598,126.719775,군산고등학교,platform,yes,동흥남동,bus_stop,공공데이터포털
35.969254,126.737596,군산교육문화회관사거리,platform,yes,조촌동,bus_stop,공공데이터포털
35.973452,126.700687,군산상고,platform,yes,문화동,bus_stop,공공데이터포털
35.960962,126.678385,군산종합사회복지관,platform,yes,산북동,bus_stop,공공데이터포털
35.978699,126.749306,군장주유소,platform,yes,조촌동,bus_stop,공공데이터포털
35.914058,126.739001,금성마을,platform,yes,옥산면,bus_stop,공공데이터포털
35.97199,126.699811,보람더하임아파트,platform,yes,나운동,bus_stop,공공데이터포털
35.89661,126.741021,옥삼마을,platform,yes,회현면,bus_stop,공공데이터포털
35.940343,126.703923,옥정,platform,yes,옥구읍,bus_stop,공공데이터포털
35.937889,126.695695,옥정마을,platform,yes,미룡동,bus_stop,공공데이터포털
36.034059,126.833863,외곤,platform,yes,나포면,bus_stop,공공데이터포털
35.927408,126.72948,외류,platform,yes,옥산면,bus_stop,공공데이터포털
36.010623,126.760004,요동,platform,yes,성산면,bus_stop,공공데이터포털
35.946593,126.718289,원당,platform,yes,옥산면,bus_stop,공공데이터포털
36.011242,126.796673,남전,platform,yes,성산면,bus_stop,공공데이터포털
36.014359,126.866424,내흥,platform,yes,서수면,bus_stop,공공데이터포털
35.94174,126.633876,당매,platform,yes,옥서면,bus_stop,공공데이터포털
35.973155,126.876884,대령,platform,yes,임피면,bus_stop,공공데이터포털
35.948039,126.822039,석화,platform,yes,대야면,bus_stop,공공데이터포털
35.971315,126.71078,선거관리위원회,platform,yes,서흥남동,bus_stop,공공데이터포털
35.985604,126.691981,성원상떼빌아파트,platform,yes,소룡동,bus_stop,공공데이터포털
35.992477,126.870616,성자,platform,yes,서수면,bus_stop,공공데이터포털
35.983698,126.686111,세명공업사,platform,yes,소룡동,bus_stop,공공데이터포털
35.980795,126.676918,소룡제일아파트,platform,yes,소룡동,bus_stop,공공데이터포털
35.965363,126.710613,수송코아루,platform,yes,나운동,bus_stop,공공데이터포털
35.908839,126.752537,원당마을,platform,yes,회현면,bus_stop,공공데이터포털
35.912805,126.765261,원학당마을,platform,yes,회현면,bus_stop,공공데이터포털
36.006364,126.823616,원주곡삼벌마을,platform,yes,나포면,bus_stop,공공데이터포털
36.00216,126.898505,원화등,platform,yes,서수면,bus_stop,공공데이터포털
35.968045,126.719763,아리울초등학교,platform,yes,수송동,bus_stop,공공데이터포털
35.959489,126.704754,은파파출소,platform,yes,지곡동,bus_stop,공공데이터포털
35.955816,126.710416,의료원,platform,yes,지곡동,bus_stop,공공데이터포털
35.966564,126.734947,시청사거리,platform,yes,조촌동,bus_stop,공공데이터포털
35.990318,126.789246,식천,platform,yes,성산면,bus_stop,공공데이터포털
35.975472,126.676406,신도시아파트,platform,yes,산북동,bus_stop,공공데이터포털
35.967087,126.570852,대우기숙사,platform,yes,오식도동,bus_stop,공공데이터포털
35.956212,126.831589,덕곡마을,platform,yes,대야면,bus_stop,공공데이터포털
35.965076,126.586024,두산인프라코어,platform,yes,소룡동,bus_stop,공공데이터포털
35.963604,126.705634,롯데시네마,platform,yes,나운동,bus_stop,공공데이터포털
36.006118,126.873231,마룡,platform,yes,서수면,bus_stop,공공데이터포털
35.983247,126.70863,명산사거리,platform,yes,금광동,bus_stop,공공데이터포털
36.029552,126.830113,나포문화,platform,yes,나포면,bus_stop,공공데이터포털
35.943444,126.689577,미룡3주공아파트,platform,yes,미룡동,bus_stop,공공데이터포털
35.950722,126.685391,미룡초등학교,platform,yes,미룡동,bus_stop,공공데이터포털
35.98433,126.828927,미산,platform,yes,임피면,bus_stop,공공데이터포털
35.956182,126.795428,발산농협,platform,yes,개정면,bus_stop,공공데이터포털
35.962174,126.742521,사정건널목,platform,yes,사정동,bus_stop,공공데이터포털
35.913509,126.660059,사호촌,platform,yes,옥구읍,bus_stop,공공데이터포털
35.982777,126.817844,산곡마을,platform,yes,성산면,bus_stop,공공데이터포털
35.972958,126.653796,산북주유소,platform,yes,소룡동,bus_stop,공공데이터포털
35.916733,126.665329,상산,platform,yes,옥구읍,bus_stop,공공데이터포털
36.00562,126.775596,상흥마을,platform,yes,성산면,bus_stop,공공데이터포털
35.98203,126.877818,서수삼거리,platform,yes,서수면,bus_stop,공공데이터포털
35.97406,126.841388,서원,platform,yes,임피면,bus_stop,공공데이터포털
35.984467,126.851439,임피,platform,yes,임피면,bus_stop,공공데이터포털
35.978377,126.820291,작촌,platform,yes,성산면,bus_stop,공공데이터포털
35.908121,126.787977,증석마을,platform,yes,회현면,bus_stop,공공데이터포털
35.942182,126.654487,창원마을,platform,yes,개사동,bus_stop,공공데이터포털
35.962222,126.697069,청솔아파트,platform,yes,나운동,bus_stop,공공데이터포털
35.963534,126.819696,초산,platform,yes,대야면,bus_stop,공공데이터포털
35.976247,126.724364,시외버스터미널,platform,yes,경장동,bus_stop,공공데이터포털
36.001367,126.882143,하장곤,platform,yes,서수면,bus_stop,공공데이터포털
35.945555,126.811573,대야홈마트,platform,yes,대야면,bus_stop,공공데이터포털
35.988648,126.880465,호산,platform,yes,서수면,bus_stop,공공데이터포털
35.981618,126.73036,화력발전소,platform,yes,경암동,bus_stop,공공데이터포털
35.893701,126.627793,하제,platform,yes,옥서면,bus_stop,공공데이터포털
35.896876,126.71377,김제촌,platform,yes,옥구읍,bus_stop,공공데이터포털
35.932084,126.675086,개사마을경로당,platform,yes,개사동,bus_stop,공공데이터포털
35.917755,126.68987,원오곡,platform,yes,옥구읍,bus_stop,공공데이터포털
35.914168,126.751932,회현초등학교,platform,yes,회현면,bus_stop,공공데이터포털
35.96611,126.78007,와룡,platform,yes,개정면,bus_stop,공공데이터포털
35.972993,126.784548,와룡,platform,yes,개정면,bus_stop,공공데이터포털
35.966407,126.797028,원발산,platform,yes,개정면,bus_stop,공공데이터포털
35.971055,126.639407,대한통운주유소,platform,yes,소룡동,bus_stop,공공데이터포털
35.91898,126.773575,풍신,platform,yes,회현면,bus_stop,공공데이터포털
35.983136,126.808185,고봉재정상,platform,yes,성산면,bus_stop,공공데이터포털
35.998183,126.869978,행운가든(수서저수지),platform,yes,서수면,bus_stop,공공데이터포털
35.949239,126.768214,접산,platform,yes,옥산면,bus_stop,공공데이터포털
35.947128,126.727754,석교마을,platform,yes,옥산면,bus_stop,공공데이터포털
35.966854,126.846602,봉황공원,platform,yes,임피면,bus_stop,공공데이터포털
36.06275,126.920133,함라중학교,platform,yes,함라면,bus_stop,공공데이터포털
36.018366,126.814713,외곡,platform,yes,나포면,bus_stop,공공데이터포털
36.029455,126.829956,문화,platform,yes,나포면,bus_stop,공공데이터포털
36.028676,126.710422,송내리,platform,yes,마서면,bus_stop,공공데이터포털
35.953329,126.54202,열병합사거리,platform,yes,오식도동,bus_stop,공공데이터포털
35.796515,126.490706,바람쉼터,platform,yes,옥도면,bus_stop,공공데이터포털
35.969292,126.61779,군산항3부두,platform,yes,소룡동,bus_stop,공공데이터포털
36.014366,126.866506,내흥,platform,yes,서수면,bus_stop,공공데이터포털
36.006187,126.873219,마룡,platform,yes,서수면,bus_stop,공공데이터포털
35.955364,126.568059,에스엔에스사거리,platform,yes,오식도동,bus_stop,공공데이터포털
35.9599,126.63211,옥성마을,platform,yes,산북동,bus_stop,공공데이터포털
35.972186,126.681004,한양정형외과,platform,yes,소룡동,bus_stop,공공데이터포털
35.963133,126.6615,화흥,platform,yes,산북동,bus_stop,공공데이터포털
35.966903,126.75743,정다운요양원,platform,yes,개정동,bus_stop,공공데이터포털
36.006319,126.855494,내무장마을,platform,yes,서수면,bus_stop,공공데이터포털
36.064622,126.924135,간성마을,platform,yes,함라면,bus_stop,공공데이터포털
35.920478,126.710422,개정,platform,yes,옥구읍,bus_stop,공공데이터포털
35.945757,126.562093,거산빌딩삼거리,platform,yes,오식도동,bus_stop,공공데이터포털
35.952908,126.867764,계산,platform,yes,임피면,bus_stop,공공데이터포털
35.934831,126.867067,광산,platform,yes,대야면,bus_stop,공공데이터포털
35.983642,126.742672,구암세풍아파트,platform,yes,구암동,bus_stop,공공데이터포털
35.882134,126.84654,관상리,platform,yes,청하면,bus_stop,공공데이터포털
35.944868,126.557967,조달청비축기지3,platform,yes,오식도동,bus_stop,공공데이터포털
35.896349,126.669108,신어은마을,platform,yes,옥구읍,bus_stop,공공데이터포털
35.909803,126.838941,신창,platform,yes,청하면,bus_stop,공공데이터포털
36.024179,126.823812,신촌,platform,yes,나포면,bus_stop,공공데이터포털
35.9053,126.637396,신하제,platform,yes,옥서면,bus_stop,공공데이터포털
35.967449,126.749159,야구장,platform,yes,사정동,bus_stop,공공데이터포털
35.944155,126.873271,야중마을,platform,yes,대야면,bus_stop,공공데이터포털
36.007732,126.773184,양지마을,platform,yes,성산면,bus_stop,공공데이터포털
35.974628,126.702033,군산상고,platform,yes,문화동,bus_stop,공공데이터포털
35.961202,126.674593,근로자종합복지관,platform,yes,산북동,bus_stop,공공데이터포털
35.905538,126.642177,오산촌마을,platform,yes,옥서면,bus_stop,공공데이터포털
35.942873,126.771249,옥석마을,platform,yes,옥산면,bus_stop,공공데이터포털
35.939523,126.701284,옥정중리,platform,yes,옥구읍,bus_stop,공공데이터포털
35.954652,126.82989,외덕,platform,yes,대야면,bus_stop,공공데이터포털
36.027223,126.828335,용호초리,platform,yes,나포면,bus_stop,공공데이터포털
35.991172,126.819753,우곡마을,platform,yes,성산면,bus_stop,공공데이터포털
35.937035,126.758296,우동마을,platform,yes,옥산면,bus_stop,공공데이터포털
35.976664,126.843723,남서원,platform,yes,임피면,bus_stop,공공데이터포털
35.931907,126.732229,내류,platform,yes,옥산면,bus_stop,공공데이터포털
35.974165,126.733249,신한주택,platform,yes,조촌동,bus_stop,공공데이터포털
35.977384,126.78142,송호마을,platform,yes,개정면,bus_stop,공공데이터포털
35.969705,126.717383,수송현대,platform,yes,수송동,bus_stop,공공데이터포털
35.903758,126.749505,월평,platform,yes,회현면,bus_stop,공공데이터포털
35.958794,126.690106,나운3동주민센터,platform,yes,나운동,bus_stop,공공데이터포털
35.954878,126.715422,의료원삼거리,platform,yes,수송동,bus_stop,공공데이터포털
36.011929,126.878155,신관원,platform,yes,서수면,bus_stop,공공데이터포털
35.975392,126.677015,신도시아파트,platform,yes,소룡동,bus_stop,공공데이터포털
35.971964,126.876579,대령마을,platform,yes,임피면,bus_stop,공공데이터포털
35.946082,126.811387,대야면사무소,platform,yes,대야면,bus_stop,공공데이터포털
35.969366,126.548011,대우로지스틱스,platform,yes,오식도동,bus_stop,공공데이터포털
35.928063,126.765819,대위,platform,yes,회현면,bus_stop,공공데이터포털
35.963735,126.693781,나운사거리,platform,yes,나운동,bus_stop,공공데이터포털
36.043385,126.706571,덕암리,platform,yes,마서면,bus_stop,공공데이터포털
35.977476,126.737853,동군산병원,platform,yes,조촌동,bus_stop,공공데이터포털
35.947887,126.815428,동오산,platform,yes,대야면,bus_stop,공공데이터포털
35.921345,126.63446,드림빌아파트,platform,yes,옥서면,bus_stop,공공데이터포털
35.984375,126.708201,명산사거리,platform,yes,월명동,bus_stop,공공데이터포털
35.955248,126.675798,미룡대명,platform,yes,미룡동,bus_stop,공공데이터포털
35.955321,126.672697,미룡대명아파트,platform,yes,산북동,bus_stop,공공데이터포털
35.962283,126.699553,구보건소사거리,platform,yes,나운동,bus_stop,공공데이터포털
35.959314,126.541485,비응1호교,platform,yes,오식도동,bus_stop,공공데이터포털
35.940317,126.534254,비응항,platform,yes,비응도동,bus_stop,공공데이터포털
35.974036,126.82172,산남마을,platform,yes,성산면,bus_stop,공공데이터포털
35.964469,126.67864,하나리움시티아파트,platform,yes,산북동,bus_stop,공공데이터포털
35.92405,126.64235,삼거리,platform,yes,옥서면,bus_stop,공공데이터포털
35.977471,126.710514,삼학대우아파트,platform,yes,삼학동,bus_stop,공공데이터포털
36.00551,126.883859,상장곤보건소,platform,yes,서수면,bus_stop,공공데이터포털
35.982727,126.850059,임피면사무소,platform,yes,임피면,bus_stop,공공데이터포털
35.999477,126.836635,입점,platform,yes,나포면,bus_stop,공공데이터포털
35.978459,126.820428,작촌,platform,yes,성산면,bus_stop,공공데이터포털
35.961838,126.715908,LG서비스센터,platform,yes,수송동,bus_stop,공공데이터포털
35.958473,126.780174,정수,platform,yes,개정면,bus_stop,공공데이터포털
35.97276,126.737515,조촌농협,platform,yes,조촌동,bus_stop,공공데이터포털
35.958721,126.710654,수송동신,platform,yes,지곡동,bus_stop,공공데이터포털
35.973612,126.723549,진포중학교,platform,yes,동흥남동,bus_stop,공공데이터포털
35.983467,126.820856,창오,platform,yes,성산면,bus_stop,공공데이터포털
35.936181,126.859235,탑천교,platform,yes,대야면,bus_stop,공공데이터포털
35.916462,126.770162,풍성,platform,yes,회현면,bus_stop,공공데이터포털
35.9636,126.690722,하이마트,platform,yes,나운동,bus_stop,공공데이터포털
35.971791,126.64928,한국유리,platform,yes,소룡동,bus_stop,공공데이터포털
36.060666,126.911396,함라파출소,platform,yes,함라면,bus_stop,공공데이터포털
35.990709,126.701669,참사랑교회,platform,yes,해망동,bus_stop,공공데이터포털
35.990017,126.871176,호산,platform,yes,서수면,bus_stop,공공데이터포털
35.990021,126.871255,호산,platform,yes,서수면,bus_stop,공공데이터포털
35.974486,126.715725,흥남사거리,platform,yes,서흥남동,bus_stop,공공데이터포털
35.966683,126.6661,십자다리,platform,yes,산북동,bus_stop,공공데이터포털
35.916587,126.643592,구호촌사거리,platform,yes,옥서면,bus_stop,공공데이터포털
35.953432,126.642599,해성,platform,yes,산북동,bus_stop,공공데이터포털
35.932141,126.67514,개사마을경로당,platform,yes,개사동,bus_stop,공공데이터포털
36.00274,126.775442,상흥마을,platform,yes,성산면,bus_stop,공공데이터포털
35.964639,126.763857,동안마을,platform,yes,개정동,bus_stop,공공데이터포털
35.966177,126.779971,와룡,platform,yes,개정면,bus_stop,공공데이터포털
35.960845,126.797362,대방마을,platform,yes,개정면,bus_stop,공공데이터포털
35.971066,126.639717,대한통운주유소,platform,yes,소룡동,bus_stop,공공데이터포털
36.02683,126.85062,불주사,platform,yes,나포면,bus_stop,공공데이터포털
35.895972,126.854507,대신,platform,yes,청하면,bus_stop,공공데이터포털
35.903897,126.749198,월평,platform,yes,회현면,bus_stop,공공데이터포털
36.004095,126.761245,거척,platform,yes,내흥동,bus_stop,공공데이터포털
36.012919,126.81262,신성마을,platform,yes,나포면,bus_stop,공공데이터포털
36.072978,126.93975,와초주유소,platform,yes,성당면,bus_stop,공공데이터포털
35.945606,126.757234,봉동마을,platform,yes,옥산면,bus_stop,공공데이터포털
35.850501,126.499124,야미도입구,platform,yes,옥도면,bus_stop,공공데이터포털
35.959313,126.637072,금성.평화,platform,yes,산북동,bus_stop,공공데이터포털
35.949613,126.541849,기펠이엔씨,platform,yes,오식도동,bus_stop,공공데이터포털
35.937131,126.743176,대려마을,platform,yes,옥산면,bus_stop,공공데이터포털
35.969418,126.684933,동아아파트입구,platform,yes,소룡동,bus_stop,공공데이터포털
35.970009,126.726393,미장현대파인빌2차,platform,yes,미장동,bus_stop,공공데이터포털
35.91978,126.790273,방채,platform,yes,회현면,bus_stop,공공데이터포털
36.005569,126.775445,상흥마을,platform,yes,성산면,bus_stop,공공데이터포털
36.013986,126.878882,서수농공,platform,yes,서수면,bus_stop,공공데이터포털
35.997895,126.896406,신기촌,platform,yes,서수면,bus_stop,공공데이터포털
35.96036,126.694987,아리랑아파트,platform,yes,나운동,bus_stop,공공데이터포털
35.985983,126.866145,오일마을,platform,yes,서수면,bus_stop,공공데이터포털
35.948426,126.816467,대야체육센타,platform,yes,대야면,bus_stop,공공데이터포털
35.936431,126.858814,탑천교,platform,yes,대야면,bus_stop,공공데이터포털
35.99218,126.704399,수산물센터,platform,yes,해망동,bus_stop,공공데이터포털
36.045984,126.854291,혜곡,platform,yes,나포면,bus_stop,공공데이터포털
35.958668,126.861286,술산초등학교,platform,yes,임피면,bus_stop,공공데이터포털
35.941917,126.853305,탑동,platform,yes,대야면,bus_stop,공공데이터포털
35.72905,126.529404,가력휴게소,platform,yes,변산면,bus_stop,공공데이터포털
35.90573,126.70583,가산마을,platform,yes,옥구읍,bus_stop,공공데이터포털
35.96385,126.75605,군산간호대학입구,platform,yes,개정동,bus_stop,공공데이터포털
35.937827,126.650011,거사마을,platform,yes,개사동,bus_stop,공공데이터포털
35.970827,126.726007,경문교,platform,yes,미장동,bus_stop,공공데이터포털
35.975654,126.731685,경암동성가병원,platform,yes,경암동,bus_stop,공공데이터포털
36.043926,126.841495,경원산업,platform,yes,나포면,bus_stop,공공데이터포털
35.952987,126.867728,계산,platform,yes,임피면,bus_stop,공공데이터포털
35.919373,126.823871,고산,platform,yes,대야면,bus_stop,공공데이터포털
35.978595,126.669785,공단삼거리,platform,yes,소룡동,bus_stop,공공데이터포털
35.907809,126.662845,광야마을,platform,yes,옥구읍,bus_stop,공공데이터포털
35.965915,126.620863,해양경찰서,platform,yes,소룡동,bus_stop,공공데이터포털
35.985983,126.746167,구암주공아파트,platform,yes,구암동,bus_stop,공공데이터포털
35.942872,126.537809,새마금비응공원,platform,yes,비응도동,bus_stop,공공데이터포털
35.902784,126.672832,신어은,platform,yes,옥구읍,bus_stop,공공데이터포털
35.896236,126.669093,신어은마을,platform,yes,옥구읍,bus_stop,공공데이터포털
35.910145,126.661718,어은경로당,platform,yes,옥구읍,bus_stop,공공데이터포털
35.948244,126.586744,엑스포삼거리,platform,yes,오식도동,bus_stop,공공데이터포털
35.933602,126.724897,한림마을,platform,yes,옥산면,bus_stop,공공데이터포털
35.970575,126.737959,군산교육문화회관,platform,yes,조촌동,bus_stop,공공데이터포털
35.976728,126.703817,군산중학교,platform,yes,문화동,bus_stop,공공데이터포털
35.969539,126.617878,군산항3부두,platform,yes,소룡동,bus_stop,공공데이터포털
36.000933,126.787524,군장대학교,platform,yes,성산면,bus_stop,공공데이터포털
35.965038,126.702476,신한은행,platform,yes,나운동,bus_stop,공공데이터포털
35.918511,126.686769,오산,platform,yes,옥구읍,bus_stop,공공데이터포털
35.905541,126.638999,신오산촌마을,platform,yes,옥서면,bus_stop,공공데이터포털
35.926367,126.647067,옥서치안센타,platform,yes,옥서면,bus_stop,공공데이터포털
35.937863,126.695811,옥정마을,platform,yes,미룡동,bus_stop,공공데이터포털
35.93946,126.701233,옥정중리,platform,yes,옥구읍,bus_stop,공공데이터포털
36.026602,126.830542,용호초리,platform,yes,나포면,bus_stop,공공데이터포털
35.991233,126.819614,우곡마을,platform,yes,성산면,bus_stop,공공데이터포털
35.937031,126.758151,우동마을,platform,yes,옥산면,bus_stop,공공데이터포털
35.926671,126.686677,우치산마을,platform,yes,옥구읍,bus_stop,공공데이터포털
35.961212,126.833437,내덕,platform,yes,대야면,bus_stop,공공데이터포털
36.016232,126.800227,서포,platform,yes,나포면,bus_stop,공공데이터포털
35.925194,126.807615,소차,platform,yes,대야면,bus_stop,공공데이터포털
35.903846,126.749514,월평,platform,yes,회현면,bus_stop,공공데이터포털
35.956395,126.71589,의료원삼거리,platform,yes,수송동,bus_stop,공공데이터포털
35.96689,126.695346,시민회관,platform,yes,나운동,bus_stop,공공데이터포털
35.948756,126.80403,신동화마을,platform,yes,개정면,bus_stop,공공데이터포털
35.954353,126.555279,대륜중공업,platform,yes,오식도동,bus_stop,공공데이터포털
36.038829,126.705108,대치,platform,yes,마서면,bus_stop,공공데이터포털
36.043299,126.706769,덕암리,platform,yes,마서면,bus_stop,공공데이터포털
35.99426,126.797546,도암,platform,yes,성산면,bus_stop,공공데이터포털
36.004422,126.914403,마포,platform,yes,서수면,bus_stop,공공데이터포털
35.955247,126.678133,미룡대명아파트삼거리,platform,yes,미룡동,bus_stop,공공데이터포털
35.951471,126.685954,미룡초등학교,platform,yes,미룡동,bus_stop,공공데이터포털
35.984427,126.828949,미산,platform,yes,임피면,bus_stop,공공데이터포털
35.956789,126.65783,미성사거리,platform,yes,산북동,bus_stop,공공데이터포털
35.979816,126.718115,미원동,platform,yes,중앙로3가,bus_stop,공공데이터포털
35.987685,126.712248,민방위대피소앞,platform,yes,중앙로1가,bus_stop,공공데이터포털
35.923411,126.64361,보건소,platform,yes,옥서면,bus_stop,공공데이터포털
35.978507,126.715474,흥남주민센터,platform,yes,미원동,bus_stop,공공데이터포털
35.949303,126.747645,봉서마을,platform,yes,옥산면,bus_stop,공공데이터포털
35.982592,126.817644,산곡마을,platform,yes,성산면,bus_stop,공공데이터포털
35.965218,126.678874,하나리움시티아파트,platform,yes,산북동,bus_stop,공공데이터포털
35.960134,126.744643,삼수마을,platform,yes,사정동,bus_stop,공공데이터포털
35.984082,126.849302,임피우체국,platform,yes,임피면,bus_stop,공공데이터포털
35.949196,126.768138,접산,platform,yes,옥산면,bus_stop,공공데이터포털
35.945183,126.556219,조달청비축기지삼거리,platform,yes,오식도동,bus_stop,공공데이터포털
35.975536,126.738386,조촌동사거리,platform,yes,조촌동,bus_stop,공공데이터포털
35.933439,126.702529,척동,platform,yes,옥구읍,bus_stop,공공데이터포털
35.916891,126.653431,칠호촌,platform,yes,옥구읍,bus_stop,공공데이터포털
35.920105,126.771248,풍신,platform,yes,회현면,bus_stop,공공데이터포털
35.943604,126.808581,한신아파트,platform,yes,대야면,bus_stop,공공데이터포털
36.060723,126.911528,함라파출소,platform,yes,함라면,bus_stop,공공데이터포털
36.078561,126.957662,함열,platform,yes,함열읍,bus_stop,공공데이터포털
35.98563,126.765693,호덕교차로,platform,yes,개정면,bus_stop,공공데이터포털
35.966319,126.862538,호원대,platform,yes,임피면,bus_stop,공공데이터포털
36.003178,126.827357,후죽,platform,yes,나포면,bus_stop,공공데이터포털
35.973599,126.716666,흥남사거리,platform,yes,서흥남동,bus_stop,공공데이터포털
35.916541,126.669908,둔산,platform,yes,옥구읍,bus_stop,공공데이터포털
35.932242,126.677062,개사리,platform,yes,개사동,bus_stop,공공데이터포털
35.969398,126.782339,와룡,platform,yes,개정면,bus_stop,공공데이터포털
35.973992,126.584246,군산항5부두,platform,yes,소룡동,bus_stop,공공데이터포털
35.977797,126.86183,도축장,platform,yes,서수면,bus_stop,공공데이터포털
35.907047,126.850191,동지산,platform,yes,청하면,bus_stop,공공데이터포털
35.911907,126.800321,구복,platform,yes,회현면,bus_stop,공공데이터포털
35.903863,126.749302,월평,platform,yes,회현면,bus_stop,공공데이터포털
36.013273,126.759878,금강호휴게소,platform,yes,성산면,bus_stop,공공데이터포털
35.962005,126.856653,공창마을,platform,yes,임피면,bus_stop,공공데이터포털
35.942039,126.853339,탑동,platform,yes,대야면,bus_stop,공공데이터포털
35.951174,126.594099,내초도,platform,yes,내초동,bus_stop,공공데이터포털
35.821148,126.47708,신시도입구,platform,yes,옥도면,bus_stop,공공데이터포털
35.924616,126.697874,광월,platform,yes,옥구읍,bus_stop,공공데이터포털
35.962307,126.586806,교통공원사거리,platform,yes,소룡동,bus_stop,공공데이터포털
35.940676,126.759751,구성,platform,yes,옥산면,bus_stop,공공데이터포털
35.938233,126.820304,남우,platform,yes,대야면,bus_stop,공공데이터포털
35.916891,126.65013,신성산,platform,yes,옥서면,bus_stop,공공데이터포털
36.073599,126.942229,영광승리교회,platform,yes,성당면,bus_stop,공공데이터포털
35.922753,126.643747,옥서,platform,yes,옥서면,bus_stop,공공데이터포털
35.927375,126.779352,표산마을,platform,yes,회현면,bus_stop,공공데이터포털
36.079219,126.958954,함열,platform,yes,함열읍,bus_stop,공공데이터포털
36.057378,126.908491,행동,platform,yes,함라면,bus_stop,공공데이터포털
36.041803,126.83995,강정,platform,yes,나포면,bus_stop,공공데이터포털
35.971305,126.760797,군산간호대기숙사,platform,yes,개정동,bus_stop,공공데이터포털
35.971892,126.726188,경장사거리,platform,yes,미장동,bus_stop,공공데이터포털
35.913901,126.806587,경창,platform,yes,대야면,bus_stop,공공데이터포털
35.935199,126.866033,광산,platform,yes,대야면,bus_stop,공공데이터포털
36.059955,126.878992,구룡목,platform,yes,웅포면,bus_stop,공공데이터포털
35.940847,126.759661,구성,platform,yes,옥산면,bus_stop,공공데이터포털
35.985293,126.744756,구암주민센터,platform,yes,구암동,bus_stop,공공데이터포털
35.899216,126.674799,신어은,platform,yes,옥구읍,bus_stop,공공데이터포털
35.903078,126.687264,신장,platform,yes,옥구읍,bus_stop,공공데이터포털
36.000851,126.86755,신장,platform,yes,서수면,bus_stop,공공데이터포털
35.952685,126.797203,신정산,platform,yes,개정면,bus_stop,공공데이터포털
35.925132,126.704573,신흥,platform,yes,옥구읍,bus_stop,공공데이터포털
35.966179,126.617539,쌍용상회,platform,yes,소룡동,bus_stop,공공데이터포털
35.968893,126.719539,수송아이파크,platform,yes,수송동,bus_stop,공공데이터포털
35.954718,126.568597,에스앤에스사거리,platform,yes,오식도동,bus_stop,공공데이터포털
35.989957,126.711949,근대역사박물관,platform,yes,장미동,bus_stop,공공데이터포털
35.90646,126.73002,구평,platform,yes,회현면,bus_stop,공공데이터포털
35.981348,126.73032,군산경찰서,platform,yes,경암동,bus_stop,공공데이터포털
35.926193,126.615963,군산공항,platform,yes,옥서면,bus_stop,공공데이터포털
35.927122,126.617417,군산공항,platform,yes,옥서면,bus_stop,공공데이터포털
35.977885,126.704445,군산중사거리,platform,yes,문화동,bus_stop,공공데이터포털
35.918632,126.686792,오산,platform,yes,옥구읍,bus_stop,공공데이터포털
35.926497,126.646932,옥서치안센타,platform,yes,옥서면,bus_stop,공공데이터포털
35.940278,126.703869,옥정,platform,yes,옥구읍,bus_stop,공공데이터포털
36.018273,126.814483,외곡,platform,yes,나포면,bus_stop,공공데이터포털
36.026647,126.830701,용호초리,platform,yes,나포면,bus_stop,공공데이터포털
35.910424,126.713807,우포,platform,yes,옥구읍,bus_stop,공공데이터포털
35.979654,126.714639,남초등학교,platform,yes,미원동,bus_stop,공공데이터포털
35.951258,126.822487,남흥마을,platform,yes,대야면,bus_stop,공공데이터포털
35.908998,126.687009,다기,platform,yes,옥구읍,bus_stop,공공데이터포털
35.998449,126.7755,대동,platform,yes,성산면,bus_stop,공공데이터포털
36.014178,126.81782,대동마을,platform,yes,나포면,bus_stop,공공데이터포털
35.961131,126.659268,서흥,platform,yes,산북동,bus_stop,공공데이터포털
35.930381,126.64176,성남,platform,yes,옥서면,bus_stop,공공데이터포털
36.016424,126.770613,성덕마을,platform,yes,성산면,bus_stop,공공데이터포털
35.992498,126.870693,성자,platform,yes,서수면,bus_stop,공공데이터포털
35.954175,126.681668,원당마을,platform,yes,미룡동,bus_stop,공공데이터포털
35.917834,126.689951,원오곡,platform,yes,옥구읍,bus_stop,공공데이터포털
35.917566,126.712624,원이곡,platform,yes,옥구읍,bus_stop,공공데이터포털
35.97685,126.724013,시외버스터미널,platform,yes,대명동,bus_stop,공공데이터포털
36.011876,126.87822,신관원,platform,yes,서수면,bus_stop,공공데이터포털
35.942062,126.827125,신동마을,platform,yes,대야면,bus_stop,공공데이터포털
35.998229,126.819158,대명,platform,yes,성산면,bus_stop,공공데이터포털
35.934052,126.824824,대야농협미곡처리장,platform,yes,대야면,bus_stop,공공데이터포털
35.970556,126.586154,대우출고사무소,platform,yes,소룡동,bus_stop,공공데이터포털
35.956399,126.791248,대황,platform,yes,개정면,bus_stop,공공데이터포털
35.963512,126.738879,동초교,platform,yes,조촌동,bus_stop,공공데이터포털
36.062083,126.707226,마서면사무소,platform,yes,마서면,bus_stop,공공데이터포털
36.005609,126.911603,마포,platform,yes,서수면,bus_stop,공공데이터포털
35.920034,126.729695,평유,platform,yes,옥산면,bus_stop,공공데이터포털
36.0295,126.830168,나포문화,platform,yes,나포면,bus_stop,공공데이터포털
35.954728,126.686173,미룡육교삼거리,platform,yes,미룡동,bus_stop,공공데이터포털
35.970033,126.728358,미장현대파인빌1차,platform,yes,미장동,bus_stop,공공데이터포털
35.957317,126.703452,백토사거리,platform,yes,나운동,bus_stop,공공데이터포털
35.958445,126.678383,부향하나로3차아파트,platform,yes,미룡동,bus_stop,공공데이터포털
35.921014,126.832994,북촌,platform,yes,대야면,bus_stop,공공데이터포털
35.962127,126.746318,사정금호1차아파트,platform,yes,사정동,bus_stop,공공데이터포털
35.97408,126.821823,산남마을,platform,yes,성산면,bus_stop,공공데이터포털
35.96618,126.875041,상갈,platform,yes,임피면,bus_stop,공공데이터포털
35.914421,126.751519,서기,platform,yes,회현면,bus_stop,공공데이터포털
35.981665,126.733747,이마트,platform,yes,경암동,bus_stop,공공데이터포털
35.984222,126.851506,임피파출소,platform,yes,임피면,bus_stop,공공데이터포털
35.969679,126.697484,전북은행,platform,yes,나운동,bus_stop,공공데이터포털
35.958128,126.780956,정수,platform,yes,개정면,bus_stop,공공데이터포털
36.002883,126.754517,사옥계,platform,yes,내흥동,bus_stop,공공데이터포털
35.887393,126.843551,제상,platform,yes,청하면,bus_stop,공공데이터포털
35.956341,126.663436,화흥마을,platform,yes,산북동,bus_stop,공공데이터포털
35.927456,126.623017,수라마을,platform,yes,옥서면,bus_stop,공공데이터포털
35.91651,126.669767,둔산,platform,yes,옥구읍,bus_stop,공공데이터포털
35.968382,126.632766,대신아스콘,platform,yes,소룡동,bus_stop,공공데이터포털
35.965417,126.611883,세아베스틸,platform,yes,소룡동,bus_stop,공공데이터포털
35.967944,126.679078,산북성일아파트,platform,yes,산북동,bus_stop,공공데이터포털
35.974598,126.793561,아산,platform,yes,개정면,bus_stop,공공데이터포털
35.963506,126.797765,원발산,platform,yes,개정면,bus_stop,공공데이터포털
35.954766,126.802375,개정문화마을,platform,yes,개정면,bus_stop,공공데이터포털
35.973302,126.577164,직업훈련원,platform,yes,소룡동,bus_stop,공공데이터포털
35.908367,126.839483,신창,platform,yes,청하면,bus_stop,공공데이터포털
35.929527,126.781527,용화마을,platform,yes,회현면,bus_stop,공공데이터포털
35.973483,126.890647,신기,platform,yes,임피면,bus_stop,공공데이터포털
36.007329,126.905278,금암교회,platform,yes,함라면,bus_stop,공공데이터포털
35.966336,126.862628,호원대,platform,yes,임피면,bus_stop,공공데이터포털
35.95042,126.866659,금암,platform,yes,임피면,bus_stop,공공데이터포털
35.947426,126.768837,흙석,platform,yes,옥산면,bus_stop,공공데이터포털
36.034065,126.709073,삼연리,platform,yes,마서면,bus_stop,공공데이터포털
36.003706,126.883836,하장곤,platform,yes,서수면,bus_stop,공공데이터포털
35.982768,126.849935,임피면사무소,platform,yes,임피면,bus_stop,공공데이터포털
35.977599,126.781415,송호마을,platform,yes,개정면,bus_stop,공공데이터포털
35.984338,126.759971,구암사거리,platform,yes,구암동,bus_stop,공공데이터포털
35.970936,126.705889,문화삼성아파트정문,platform,yes,문화동,bus_stop,공공데이터포털
35.916888,126.656483,상산마을,platform,yes,옥구읍,bus_stop,공공데이터포털
36.014883,126.809342,신성삼거리,platform,yes,나포면,bus_stop,공공데이터포털
36.063293,126.878076,오류동,platform,yes,웅포면,bus_stop,공공데이터포털
35.910185,126.642119,오산촌,platform,yes,옥서면,bus_stop,공공데이터포털
35.963936,126.693577,군산문화원,platform,yes,나운동,bus_stop,공공데이터포털
36.014043,126.75973,금강호휴게소,platform,yes,성산면,bus_stop,공공데이터포털
35.929193,126.870171,상광,platform,yes,대야면,bus_stop,공공데이터포털
36.02932,126.829842,문화,platform,yes,나포면,bus_stop,공공데이터포털
35.946403,126.568006,가도1,platform,yes,오식도동,bus_stop,공공데이터포털
35.962388,126.767623,개정파출소,platform,yes,개정동,bus_stop,공공데이터포털
35.974375,126.725731,아흔아홉다리,platform,yes,경장동,bus_stop,공공데이터포털
35.905385,126.669391,신어은,platform,yes,옥구읍,bus_stop,공공데이터포털
36.000826,126.867628,신장,platform,yes,서수면,bus_stop,공공데이터포털
35.964989,126.702153,나운삼성아파트,platform,yes,나운동,bus_stop,공공데이터포털
35.839819,126.493007,야미도,platform,yes,옥도면,bus_stop,공공데이터포털
35.987193,126.78652,어린이집,platform,yes,성산면,bus_stop,공공데이터포털
35.963375,126.836142,구절리,platform,yes,임피면,bus_stop,공공데이터포털
35.91727,126.643732,구호촌사거리,platform,yes,옥서면,bus_stop,공공데이터포털
35.916712,126.643854,구호촌사거리,platform,yes,옥서면,bus_stop,공공데이터포털
36.030701,126.859259,군둔,platform,yes,나포면,bus_stop,공공데이터포털
35.948003,126.684901,군산대후문,platform,yes,미룡동,bus_stop,공공데이터포털
35.965311,126.735957,군산시농협본점,platform,yes,경장동,bus_stop,공공데이터포털
35.987876,126.71003,기업은행(군산지점),platform,yes,중앙로1가,bus_stop,공공데이터포털
35.942858,126.806249,군산남고,platform,yes,대야면,bus_stop,공공데이터포털
35.913906,126.688613,오리실,platform,yes,옥구읍,bus_stop,공공데이터포털
35.923616,126.686057,옥구파출소,platform,yes,옥구읍,bus_stop,공공데이터포털
35.921373,126.680328,옥구초등학교,platform,yes,옥구읍,bus_stop,공공데이터포털
35.934819,126.761888,우동마을,platform,yes,옥산면,bus_stop,공공데이터포털
35.959281,126.716815,남북로4,platform,yes,수송동,bus_stop,공공데이터포털
35.986915,126.855234,남상삼거리,platform,yes,임피면,bus_stop,공공데이터포털
35.928967,126.618435,남수라,platform,yes,옥서면,bus_stop,공공데이터포털
35.931273,126.809092,내상마을,platform,yes,대야면,bus_stop,공공데이터포털
36.014196,126.817721,대동마을,platform,yes,나포면,bus_stop,공공데이터포털
36.027222,126.861092,서지,platform,yes,나포면,bus_stop,공공데이터포털
36.016174,126.800301,서포,platform,yes,성산면,bus_stop,공공데이터포털
35.974103,126.710759,서흥중사거리,platform,yes,서흥남동,bus_stop,공공데이터포털
35.944362,126.728957,석교마을,platform,yes,옥산면,bus_stop,공공데이터포털
35.99563,126.896604,석화,platform,yes,서수면,bus_stop,공공데이터포털
35.990365,126.783995,성산파출소,platform,yes,성산면,bus_stop,공공데이터포털
35.955266,126.583135,성연산업사거리,platform,yes,소룡동,bus_stop,공공데이터포털
35.970031,126.721454,세영리첼아파트,platform,yes,수송동,bus_stop,공공데이터포털
36.029312,126.710079,송내리,platform,yes,마서면,bus_stop,공공데이터포털
35.955513,126.713851,수송동영아파트,platform,yes,지곡동,bus_stop,공공데이터포털
35.908789,126.752628,원당마을,platform,yes,회현면,bus_stop,공공데이터포털
35.971499,126.675462,원산북삼거리,platform,yes,소룡동,bus_stop,공공데이터포털
35.97299,126.674804,원산북삼거리,platform,yes,산북동,bus_stop,공공데이터포털
35.917041,126.692394,원오곡,platform,yes,옥구읍,bus_stop,공공데이터포털
36.042494,126.856407,원장상,platform,yes,나포면,bus_stop,공공데이터포털
36.007759,126.821966,원주곡,platform,yes,나포면,bus_stop,공공데이터포털
36.006366,126.823705,원주곡삼벌마을,platform,yes,나포면,bus_stop,공공데이터포털
35.988466,126.697283,월명터널,platform,yes,해망동,bus_stop,공공데이터포털
35.906516,126.740256,월평1구,platform,yes,회현면,bus_stop,공공데이터포털
35.955373,126.574512,(주)대상,platform,yes,오식도동,bus_stop,공공데이터포털
35.955126,126.576191,(주)대상,platform,yes,오식도동,bus_stop,공공데이터포털
35.948978,126.803941,신동화마을,platform,yes,개정면,bus_stop,공공데이터포털
36.04198,126.865614,신방마을,platform,yes,나포면,bus_stop,공공데이터포털
35.96092,126.797261,대방마을,platform,yes,개정면,bus_stop,공공데이터포털
35.916856,126.815854,대차,platform,yes,대야면,bus_stop,공공데이터포털
35.912851,126.667795,둔산,platform,yes,옥구읍,bus_stop,공공데이터포털
35.996659,126.78652,마동마을,platform,yes,성산면,bus_stop,공공데이터포털
35.941459,126.686141,미룡1주공,platform,yes,미룡동,bus_stop,공공데이터포털
35.942754,126.68745,미룡주공1차아파트,platform,yes,미룡동,bus_stop,공공데이터포털
35.979615,126.716162,미원동사거리,platform,yes,미원동,bus_stop,공공데이터포털
35.964005,126.732373,미장로,platform,yes,미장동,bus_stop,공공데이터포털
35.939136,126.723857,백석,platform,yes,옥산면,bus_stop,공공데이터포털
35.920532,126.677383,군산여객차고지,platform,yes,옥구읍,bus_stop,공공데이터포털
35.96078,126.842716,보암마을,platform,yes,임피면,bus_stop,공공데이터포털
35.945626,126.757346,봉동마을,platform,yes,옥산면,bus_stop,공공데이터포털
35.921259,126.832724,북촌,platform,yes,대야면,bus_stop,공공데이터포털
35.962353,126.745162,사정금호1차아파트,platform,yes,사정동,bus_stop,공공데이터포털
35.967939,126.678901,산북성일아파트,platform,yes,산북동,bus_stop,공공데이터포털
36.033892,126.709122,삼연리,platform,yes,마서면,bus_stop,공공데이터포털
35.983754,126.846059,서상마을,platform,yes,임피면,bus_stop,공공데이터포털
35.985089,126.753579,잠두마을,platform,yes,구암동,bus_stop,공공데이터포털
36.034139,126.8884,장점,platform,yes,함라면,bus_stop,공공데이터포털
35.983426,126.686182,전북외고정문,platform,yes,소룡동,bus_stop,공공데이터포털
35.914389,126.74407,죽동,platform,yes,회현면,bus_stop,공공데이터포털
35.969451,126.770323,충량마을,platform,yes,개정면,bus_stop,공공데이터포털
35.930593,126.729442,칠다리,platform,yes,옥산면,bus_stop,공공데이터포털
35.9191,126.773379,풍신,platform,yes,회현면,bus_stop,공공데이터포털
35.961098,126.872978,하갈마을,platform,yes,임피면,bus_stop,공공데이터포털
36.010597,126.759905,요동,platform,yes,성산면,bus_stop,공공데이터포털
36.001352,126.882211,하장곤,platform,yes,서수면,bus_stop,공공데이터포털
35.944433,126.548838,한남금속삼거리,platform,yes,오식도동,bus_stop,공공데이터포털
35.9729,126.6281,해원조선,platform,yes,소룡동,bus_stop,공공데이터포털
35.967834,126.705609,현대3차아파트,platform,yes,나운동,bus_stop,공공데이터포털
35.956706,126.662272,화흥마을,platform,yes,산북동,bus_stop,공공데이터포털
35.928841,126.618455,남수라,platform,yes,옥서면,bus_stop,공공데이터포털
35.910177,126.643828,오산촌,platform,yes,옥서면,bus_stop,공공데이터포털
35.970005,126.719182,수송아이파크,platform,yes,수송동,bus_stop,공공데이터포털
35.921272,126.633846,드림빌아파트,platform,yes,옥서면,bus_stop,공공데이터포털
35.914181,126.752103,회현초등학교,platform,yes,회현면,bus_stop,공공데이터포털
35.984674,126.787035,고봉마을입구,platform,yes,성산면,bus_stop,공공데이터포털
35.973173,126.796777,원아산마을,platform,yes,개정면,bus_stop,공공데이터포털
35.96918,126.797625,원발산,platform,yes,개정면,bus_stop,공공데이터포털
35.958694,126.797878,발산초교삼거리,platform,yes,개정면,bus_stop,공공데이터포털
35.881625,126.848529,청하중,platform,yes,청하면,bus_stop,공공데이터포털
35.921464,126.775711,신당,platform,yes,회현면,bus_stop,공공데이터포털
35.996625,126.78639,마동마을,platform,yes,성산면,bus_stop,공공데이터포털
36.063612,126.876592,웅포면사무소,platform,yes,웅포면,bus_stop,공공데이터포털
36.055495,126.706009,어리,platform,yes,마서면,bus_stop,공공데이터포털
35.944052,126.720437,원당마을,platform,yes,옥산면,bus_stop,공공데이터포털
36.003696,126.883727,하장곤,platform,yes,서수면,bus_stop,공공데이터포털
35.967513,126.838214,남산마을,platform,yes,임피면,bus_stop,공공데이터포털
35.967415,126.851528,남산마을,platform,yes,임피면,bus_stop,공공데이터포털
35.950747,126.825686,석화마을,platform,yes,대야면,bus_stop,공공데이터포털
35.940825,126.759971,구성,platform,yes,옥산면,bus_stop,공공데이터포털
35.868447,126.506377,돌고래쉼터,platform,yes,옥도면,bus_stop,공공데이터포털
35.968327,126.738008,군산시청,platform,yes,조촌동,bus_stop,공공데이터포털
35.956638,126.831737,덕곡,platform,yes,대야면,bus_stop,공공데이터포털
35.987308,126.772913,둔덕,platform,yes,성산면,bus_stop,공공데이터포털
35.960149,126.673539,산북부향1차아파트,platform,yes,산북동,bus_stop,공공데이터포털
35.985947,126.69207,성원상떼빌아파트,platform,yes,소룡동,bus_stop,공공데이터포털
35.911313,126.697995,수왕,platform,yes,옥구읍,bus_stop,공공데이터포털
35.953291,126.725057,신당마을,platform,yes,옥산면,bus_stop,공공데이터포털
35.956655,126.86881,양주,platform,yes,임피면,bus_stop,공공데이터포털
35.921426,126.680255,옥구초등학교,platform,yes,옥구읍,bus_stop,공공데이터포털
35.979185,126.681971,전북외고,platform,yes,소룡동,bus_stop,공공데이터포털
35.945437,126.80946,지경교회,platform,yes,대야면,bus_stop,공공데이터포털
35.955628,126.586287,변전소사거리,platform,yes,소룡동,bus_stop,공공데이터포털
35.895978,126.854558,대신,platform,yes,청하면,bus_stop,공공데이터포털
35.918984,126.773464,풍신,platform,yes,회현면,bus_stop,공공데이터포털
35.905053,126.703922,가산,platform,yes,옥구읍,bus_stop,공공데이터포털
35.962797,126.766997,개정파출소,platform,yes,개정동,bus_stop,공공데이터포털
35.970116,126.724831,미래와여성건너편,platform,yes,수송동,bus_stop,공공데이터포털
35.914034,126.806706,경창,platform,yes,대야면,bus_stop,공공데이터포털
35.975483,126.734192,경포초등학교,platform,yes,조촌동,bus_stop,공공데이터포털
35.906422,126.666038,광야,platform,yes,옥구읍,bus_stop,공공데이터포털
35.924703,126.697941,광월,platform,yes,옥구읍,bus_stop,공공데이터포털
36.031405,126.831523,나포파출소,platform,yes,나포면,bus_stop,공공데이터포털
35.98406,126.719527,구시장신세계약국,platform,yes,신영동,bus_stop,공공데이터포털
35.984077,126.757536,구암사거리,platform,yes,구암동,bus_stop,공공데이터포털
35.944071,126.550025,한남금속삼거리,platform,yes,오식도동,bus_stop,공공데이터포털
35.946042,126.569528,가도1삼거리,platform,yes,오식도동,bus_stop,공공데이터포털
35.902655,126.672831,신어은,platform,yes,옥구읍,bus_stop,공공데이터포털
35.90714,126.637387,신오산촌,platform,yes,옥서면,bus_stop,공공데이터포털
35.920728,126.632645,신장원,platform,yes,옥서면,bus_stop,공공데이터포털
35.97451,126.793452,아산,platform,yes,개정면,bus_stop,공공데이터포털
36.055353,126.705896,어리,platform,yes,마서면,bus_stop,공공데이터포털
35.916804,126.661234,어은삼거리,platform,yes,옥구읍,bus_stop,공공데이터포털
36.004675,126.803795,여방마을,platform,yes,성산면,bus_stop,공공데이터포털
36.030674,126.859373,군둔,platform,yes,나포면,bus_stop,공공데이터포털
35.975617,126.702526,군산기계공고,platform,yes,문화동,bus_stop,공공데이터포털
35.937417,126.686147,군산대교차로,platform,yes,신관동,bus_stop,공공데이터포털
35.970517,126.62825,군산항1부두,platform,yes,소룡동,bus_stop,공공데이터포털
35.963227,126.69222,나운사거리,platform,yes,나운동,bus_stop,공공데이터포털
35.913945,126.738899,금성마을,platform,yes,옥산면,bus_stop,공공데이터포털
35.969704,126.730709,오르빌아파트,platform,yes,경장동,bus_stop,공공데이터포털
35.923551,126.68638,옥구읍,platform,yes,옥구읍,bus_stop,공공데이터포털
36.032759,126.832937,외곤,platform,yes,나포면,bus_stop,공공데이터포털
35.950192,126.715899,외당마을,platform,yes,옥산면,bus_stop,공공데이터포털
35.977606,126.88367,용성마을,platform,yes,서수면,bus_stop,공공데이터포털
35.903657,126.755004,원당,platform,yes,회현면,bus_stop,공공데이터포털
35.98681,126.855932,남상삼거리,platform,yes,임피면,bus_stop,공공데이터포털
35.955388,126.593017,내초도마을입구,platform,yes,내초동,bus_stop,공공데이터포털
35.988682,126.712635,내항사거리,platform,yes,영화동,bus_stop,공공데이터포털
35.970264,126.764901,달려,platform,yes,개정동,bus_stop,공공데이터포털
35.959388,126.87148,서황,platform,yes,임피면,bus_stop,공공데이터포털
35.971574,126.7106,서흥중학교,platform,yes,서흥남동,bus_stop,공공데이터포털
35.995686,126.896675,석화,platform,yes,서수면,bus_stop,공공데이터포털
35.964494,126.674637,원산북,platform,yes,산북동,bus_stop,공공데이터포털
35.956576,126.723589,원예조합,platform,yes,수송동,bus_stop,공공데이터포털
36.007849,126.821522,원주곡,platform,yes,나포면,bus_stop,공공데이터포털
36.011365,126.819685,원주곡마을,platform,yes,나포면,bus_stop,공공데이터포털
35.98796,126.695843,월명터널,platform,yes,해망동,bus_stop,공공데이터포털
35.89485,126.736386,월하산마을,platform,yes,회현면,bus_stop,공공데이터포털
35.894932,126.736387,월하산마을,platform,yes,회현면,bus_stop,공공데이터포털
35.956358,126.688877,은파호수공원,platform,yes,나운동,bus_stop,공공데이터포털
35.954861,126.676237,은파장례식장,platform,yes,미룡동,bus_stop,공공데이터포털
36.024715,126.726601,신기,platform,yes,마서면,bus_stop,공공데이터포털
36.040586,126.862385,신방마을,platform,yes,나포면,bus_stop,공공데이터포털
36.042023,126.865437,신방마을,platform,yes,나포면,bus_stop,공공데이터포털
35.983363,126.872955,독자개,platform,yes,서수면,bus_stop,공공데이터포털
35.915141,126.669455,둔산,platform,yes,옥구읍,bus_stop,공공데이터포털
35.963283,126.70076,롯데2차,platform,yes,나운동,bus_stop,공공데이터포털
35.981575,126.78476,만동,platform,yes,성산면,bus_stop,공공데이터포털
35.981649,126.784698,만동,platform,yes,성산면,bus_stop,공공데이터포털
35.914564,126.735915,금성마을,platform,yes,회현면,bus_stop,공공데이터포털
35.942026,126.685653,미룡1주공아파트,platform,yes,미룡동,bus_stop,공공데이터포털
35.943252,126.689683,미룡주공APT,platform,yes,미룡동,bus_stop,공공데이터포털
35.99602,126.863625,복우마을,platform,yes,서수면,bus_stop,공공데이터포털
35.95045,126.752047,봉서마을,platform,yes,옥산면,bus_stop,공공데이터포털
35.959568,126.541719,비응1호교,platform,yes,오식도동,bus_stop,공공데이터포털
35.966265,126.874926,상갈,platform,yes,임피면,bus_stop,공공데이터포털
35.925973,126.82994,상리,platform,yes,대야면,bus_stop,공공데이터포털
35.98198,126.877898,서수삼거리,platform,yes,서수면,bus_stop,공공데이터포털
36.003452,126.869775,서울주유소,platform,yes,서수면,bus_stop,공공데이터포털
35.959968,126.549388,자유무역관리원,platform,yes,오식도동,bus_stop,공공데이터포털
36.034217,126.888313,장점,platform,yes,함라면,bus_stop,공공데이터포털
35.975789,126.744792,제일고앞,platform,yes,조촌동,bus_stop,공공데이터포털
35.964254,126.609549,세아베스틸,platform,yes,내초동,bus_stop,공공데이터포털
35.910165,126.723515,신평마을,platform,yes,옥구읍,bus_stop,공공데이터포털
35.974091,126.841232,서원,platform,yes,임피면,bus_stop,공공데이터포털
35.98476,126.870054,임피중학교,platform,yes,서수면,bus_stop,공공데이터포털
35.998003,126.751728,정자마을,platform,yes,내흥동,bus_stop,공공데이터포털
35.965975,126.863183,호원대후문,platform,yes,임피면,bus_stop,공공데이터포털
35.910144,126.656323,중야,platform,yes,옥구읍,bus_stop,공공데이터포털
35.99682,126.841148,축성로,platform,yes,임피면,bus_stop,공공데이터포털
35.996895,126.841184,축성로,platform,yes,임피면,bus_stop,공공데이터포털
35.919994,126.729615,평유,platform,yes,옥산면,bus_stop,공공데이터포털
35.978194,126.876617,하용전,platform,yes,서수면,bus_stop,공공데이터포털
35.933664,126.724708,한림마을,platform,yes,옥산면,bus_stop,공공데이터포털
35.946539,126.65523,해8마을,platform,yes,개사동,bus_stop,공공데이터포털
35.962955,126.661618,화흥,platform,yes,산북동,bus_stop,공공데이터포털
35.913124,126.755857,회현중학교,platform,yes,회현면,bus_stop,공공데이터포털
35.995679,126.777143,흔옥마을,platform,yes,성산면,bus_stop,공공데이터포털
35.998031,126.76246,안정마을(군산역입구),platform,yes,내흥동,bus_stop,공공데이터포털
35.959146,126.533803,현대중공업(남문),platform,yes,비응도동,bus_stop,공공데이터포털
35.968361,126.675355,시영아파트,platform,yes,산북동,bus_stop,공공데이터포털
35.974121,126.71059,서흥중사거리,platform,yes,서흥남동,bus_stop,공공데이터포털
35.974331,126.786817,당산경노당,platform,yes,개정면,bus_stop,공공데이터포털
35.891422,126.857074,대청리,platform,yes,청하면,bus_stop,공공데이터포털
35.905261,126.758217,금당,platform,yes,회현면,bus_stop,공공데이터포털
35.967174,126.883217,신기마을,platform,yes,임피면,bus_stop,공공데이터포털
36.006185,126.908704,금암초교,platform,yes,서수면,bus_stop,공공데이터포털
35.958534,126.861392,술산초등학교,platform,yes,임피면,bus_stop,공공데이터포털
35.964719,126.767833,율북마을,platform,yes,개정면,bus_stop,공공데이터포털
36.003763,126.820261,살구쟁이,platform,yes,나포면,bus_stop,공공데이터포털
35.955586,126.840786,왕산,platform,yes,임피면,bus_stop,공공데이터포털
36.02371,126.799768,원서포삼거리,platform,yes,나포면,bus_stop,공공데이터포털
36.048675,126.852956,옥동,platform,yes,나포면,bus_stop,공공데이터포털
35.991446,126.850219,교축,platform,yes,임피면,bus_stop,공공데이터포털
35.977177,126.630913,국제여객선터미널,platform,yes,소룡동,bus_stop,공공데이터포털
35.963576,126.874004,중갈,platform,yes,임피면,bus_stop,공공데이터포털
35.95488,126.686453,미룡육교삼거리,platform,yes,미룡동,bus_stop,공공데이터포털
35.975991,126.638036,서안주정,platform,yes,소룡동,bus_stop,공공데이터포털
35.959436,126.871387,서황,platform,yes,임피면,bus_stop,공공데이터포털
35.966733,126.749063,야구장,platform,yes,사정동,bus_stop,공공데이터포털
35.939662,126.752858,용호마을,platform,yes,옥산면,bus_stop,공공데이터포털
35.9601,126.601857,지엠대우자동차,platform,yes,내초동,bus_stop,공공데이터포털
36.049793,126.874908,입점,platform,yes,웅포면,bus_stop,공공데이터포털
35.96679,126.846484,봉황공원,platform,yes,임피면,bus_stop,공공데이터포털
35.957331,126.824226,외덕,platform,yes,대야면,bus_stop,공공데이터포털
36.023424,126.700316,성주,platform,yes,장항읍,bus_stop,공공데이터포털
35.81145,126.483609,신시33센터,platform,yes,,bus_stop,공공데이터포털
35.936012,126.652601,거사마을,platform,yes,개사동,bus_stop,공공데이터포털
35.972083,126.727833,경장사거리,platform,yes,경장동,bus_stop,공공데이터포털
35.993421,126.85036,교축,platform,yes,임피면,bus_stop,공공데이터포털
35.933481,126.7836,구율,platform,yes,회현면,bus_stop,공공데이터포털
35.943347,126.542796,중부발전삼거리,platform,yes,오식도동,bus_stop,공공데이터포털
35.947407,126.583687,자동차엑스포,platform,yes,오식도동,bus_stop,공공데이터포털
35.984032,126.841087,안흥,platform,yes,임피면,bus_stop,공공데이터포털
35.950673,126.655669,국제문화마을,platform,yes,산북동,bus_stop,공공데이터포털
35.97374,126.719736,군산고등학교,platform,yes,동흥남동,bus_stop,공공데이터포털
35.966167,126.738057,군산교육지원청,platform,yes,조촌동,bus_stop,공공데이터포털
35.944753,126.685301,군산대정문,platform,yes,미룡동,bus_stop,공공데이터포털
35.985512,126.705891,군산여자고등학교,platform,yes,월명동,bus_stop,공공데이터포털
35.973773,126.586396,군산항5부두,platform,yes,소룡동,bus_stop,공공데이터포털
35.94862,126.541483,기펠이엔씨사거리,platform,yes,비응도동,bus_stop,공공데이터포털
35.966916,126.704498,나운금호아파트,platform,yes,나운동,bus_stop,공공데이터포털
35.937923,126.635884,남동,platform,yes,옥서면,bus_stop,공공데이터포털
35.91394,126.688501,오리실,platform,yes,옥구읍,bus_stop,공공데이터포털
35.910119,126.642144,오산촌,platform,yes,옥서면,bus_stop,공공데이터포털
35.963852,126.71248,오투그란데아파트,platform,yes,수송동,bus_stop,공공데이터포털
35.896688,126.741018,옥삼마을,platform,yes,회현면,bus_stop,공공데이터포털
35.957292,126.824164,외덕,platform,yes,대야면,bus_stop,공공데이터포털
35.931461,126.781954,용화마을,platform,yes,회현면,bus_stop,공공데이터포털
35.901979,126.725794,용연,platform,yes,회현면,bus_stop,공공데이터포털
35.938063,126.847963,용절마을,platform,yes,대야면,bus_stop,공공데이터포털
35.983467,126.716871,우리은행,platform,yes,중앙로2가,bus_stop,공공데이터포털
35.915305,126.757166,전중마을,platform,yes,회현면,bus_stop,공공데이터포털
35.952604,126.796861,능동,platform,yes,개정면,bus_stop,공공데이터포털
35.944381,126.728853,석교마을,platform,yes,옥산면,bus_stop,공공데이터포털
35.926049,126.624386,송촌,platform,yes,옥서면,bus_stop,공공데이터포털
36.025397,126.790359,수례마을,platform,yes,나포면,bus_stop,공공데이터포털
36.004965,126.831513,원부곡,platform,yes,나포면,bus_stop,공공데이터포털
35.965291,126.675001,원산북,platform,yes,산북동,bus_stop,공공데이터포털
35.93685,126.855234,원접산,platform,yes,대야면,bus_stop,공공데이터포털
35.957911,126.689946,나운3동주민센터,platform,yes,나운동,bus_stop,공공데이터포털
35.965843,126.734953,시청사거리,platform,yes,경장동,bus_stop,공공데이터포털
35.988441,126.791658,식천마을,platform,yes,성산면,bus_stop,공공데이터포털
35.925457,126.856122,신광마을,platform,yes,대야면,bus_stop,공공데이터포털
35.905921,126.710496,신기,platform,yes,옥구읍,bus_stop,공공데이터포털
36.014117,126.806682,신기,platform,yes,나포면,bus_stop,공공데이터포털
36.040301,126.857556,신방,platform,yes,나포면,bus_stop,공공데이터포털
35.916894,126.6466,신성산,platform,yes,옥서면,bus_stop,공공데이터포털
36.001332,126.82099,대명삼거리,platform,yes,성산면,bus_stop,공공데이터포털
35.943986,126.81781,대야검문소,platform,yes,대야면,bus_stop,공공데이터포털
35.945652,126.817926,대야시장,platform,yes,대야면,bus_stop,공공데이터포털
35.970514,126.585593,대우출고사무소건너편,platform,yes,소룡동,bus_stop,공공데이터포털
36.039068,126.705237,대치,platform,yes,마서면,bus_stop,공공데이터포털
35.976898,126.737475,동군산병원,platform,yes,조촌동,bus_stop,공공데이터포털
36.006447,126.794294,동요마을,platform,yes,성산면,bus_stop,공공데이터포털
36.003709,126.790407,동요마을,platform,yes,성산면,bus_stop,공공데이터포털
35.91522,126.669378,둔산,platform,yes,옥구읍,bus_stop,공공데이터포털
35.963241,126.705971,롯데시네마,platform,yes,나운동,bus_stop,공공데이터포털
35.997783,126.78574,도암마을,platform,yes,성산면,bus_stop,공공데이터포털
35.969783,126.723916,미래와여성,platform,yes,수송동,bus_stop,공공데이터포털
35.955543,126.794541,발산,platform,yes,개정면,bus_stop,공공데이터포털
35.939126,126.72375,백석,platform,yes,옥산면,bus_stop,공공데이터포털
35.957828,126.678152,부향하나로3차아파트,platform,yes,미룡동,bus_stop,공공데이터포털
35.916834,126.665282,상산,platform,yes,옥구읍,bus_stop,공공데이터포털
36.005499,126.883911,상장곤보건소,platform,yes,서수면,bus_stop,공공데이터포털
35.926477,126.70797,상평광원마을,platform,yes,옥구읍,bus_stop,공공데이터포털
35.9717,126.839726,서원마을,platform,yes,임피면,bus_stop,공공데이터포털
35.991608,126.911139,장자마을,platform,yes,서수면,bus_stop,공공데이터포털
35.955821,126.708274,지곡코아루아파트,platform,yes,지곡동,bus_stop,공공데이터포털
35.975168,126.886874,창성,platform,yes,임피면,bus_stop,공공데이터포털
36.011817,126.86675,산간마을,platform,yes,서수면,bus_stop,공공데이터포털
36.00625,126.818033,삼덕아스콘,platform,yes,성산면,bus_stop,공공데이터포털
35.963517,126.75605,군산간호대학입구,platform,yes,사정동,bus_stop,공공데이터포털
36.006367,126.818133,삼덕아스콘,platform,yes,나포면,bus_stop,공공데이터포털
35.98435,126.8506,임피파출소,platform,yes,임피면,bus_stop,공공데이터포털
35.963567,126.86395,호원대체육관,platform,yes,임피면,bus_stop,공공데이터포털
35.963467,126.86405,호원대체육관,platform,yes,임피면,bus_stop,공공데이터포털
35.947233,126.715567,힐스테이트아파트,platform,yes,옥산면,bus_stop,공공데이터포털
36.026667,126.720583,국립생태원,platform,yes,마서면,bus_stop,공공데이터포털
36.026633,126.71995,국립생태원,platform,yes,마서면,bus_stop,공공데이터포털
35.96385,126.708583,옥산공원,platform,yes,수송동,bus_stop,공공데이터포털
35.976817,126.70355,군산중학교,platform,yes,문화동,bus_stop,공공데이터포털
35.996767,126.7986,기린,platform,yes,성산면,bus_stop,공공데이터포털
35.996833,126.79845,기린,platform,yes,성산면,bus_stop,공공데이터포털
35.948517,126.592867,내초도공원,platform,yes,내초동,bus_stop,공공데이터포털
35.9599,126.5405,비응1호교,platform,yes,오식도동,bus_stop,공공데이터포털
35.962733,126.750333,사정금호2차아파트,platform,yes,사정동,bus_stop,공공데이터포털
35.964188,126.726344,미장로사거리,platform,yes,미장동,bus_stop,공공데이터포털
35.966811,126.565353,한성필하우스,platform,yes,오식도동,bus_stop,공공데이터포털
35.963242,126.560959,새만금초등학교,platform,yes,오식도동,bus_stop,공공데이터포털
35.947254,126.72805,섬다리마을,platform,yes,옥산면,bus_stop,공공데이터포털
35.94712,126.728295,섬다리마을,platform,yes,옥산면,bus_stop,공공데이터포털
35.822066,126.47707,신시도입구,platform,yes,옥도면,bus_stop,공공데이터포털
35.823476,126.472203,신시도항,platform,yes,옥도면,bus_stop,공공데이터포털
35.823087,126.461102,신시2사거리,platform,yes,옥도면,bus_stop,공공데이터포털
35.816458,126.453559,신시3삼거리,platform,yes,옥도면,bus_stop,공공데이터포털
35.814452,126.449631,신시초교삼거리,platform,yes,옥도면,bus_stop,공공데이터포털
35.80833,126.438732,무녀1교차로,platform,yes,옥도면,bus_stop,공공데이터포털
35.808347,126.438931,무녀1교차로,platform,yes,옥도면,bus_stop,공공데이터포털
35.814292,126.449893,신시초교삼거리,platform,yes,옥도면,bus_stop,공공데이터포털
35.816585,126.453773,신시3삼거리,platform,yes,옥도면,bus_stop,공공데이터포털
35.82313,126.461846,신시2사거리,platform,yes,옥도면,bus_stop,공공데이터포털
35.823251,126.472333,신시도항,platform,yes,옥도면,bus_stop,공공데이터포털
35.821255,126.47679,신시1교차로,platform,yes,옥도면,bus_stop,공공데이터포털
35.818321,126.476924,새만금광장,platform,yes,옥도면,bus_stop,공공데이터포털
35.955243,126.586302,변전소사거리,platform,yes,내초동,bus_stop,공공데이터포털
36.063497,126.876532,웅포면사무소,platform,yes,웅포면,bus_stop,공공데이터포털
35.818241,126.477019,새만금광장,platform,yes,옥도면,bus_stop,공공데이터포털
35.82176,126.476263,신시1교차로,platform,yes,옥도면,bus_stop,공공데이터포털
35.975372,126.776102,송호,platform,yes,개정면,bus_stop,공공데이터포털
35.975561,126.77609,송호,platform,yes,개정면,bus_stop,공공데이터포털
35.974666,126.737484,조촌동사거리,platform,yes,조촌동,bus_stop,공공데이터포털
35.969646,126.708537,주공4차,platform,yes,문화동,bus_stop,공공데이터포털
35.989262,126.819262,창안마을,platform,yes,성산면,bus_stop,공공데이터포털
35.984839,126.814995,창오,platform,yes,성산면,bus_stop,공공데이터포털
35.932905,126.70356,척동,platform,yes,옥구읍,bus_stop,공공데이터포털
35.994964,126.845605,축산저수지,platform,yes,임피면,bus_stop,공공데이터포털
35.965737,126.586538,타타상용차출고,platform,yes,소룡동,bus_stop,공공데이터포털
35.943288,126.855421,탑동,platform,yes,대야면,bus_stop,공공데이터포털
35.919959,126.771226,풍신,platform,yes,회현면,bus_stop,공공데이터포털
35.960812,126.699619,한울아파트,platform,yes,나운동,bus_stop,공공데이터포털
35.990587,126.700792,참사랑교회,platform,yes,해망동,bus_stop,공공데이터포털
35.991784,126.703105,수산물센터,platform,yes,해망동,bus_stop,공공데이터포털
35.9565,126.656738,미성사거리,platform,yes,산북동,bus_stop,공공데이터포털
35.974203,126.657562,해이마을,platform,yes,산북동,bus_stop,공공데이터포털
35.968998,126.540985,현대중공업삼거리,platform,yes,오식도동,bus_stop,공공데이터포털
35.95881,126.861496,술산초등학교,platform,yes,임피면,bus_stop,공공데이터포털
35.995693,126.777007,흔옥마을,platform,yes,성산면,bus_stop,공공데이터포털
35.947476,126.768841,흙석,platform,yes,옥산면,bus_stop,공공데이터포털
35.977984,126.715703,흥남주민센터,platform,yes,미원동,bus_stop,공공데이터포털
35.975872,126.715501,흥남치안센터맞은편,platform,yes,삼학동,bus_stop,공공데이터포털
35.968443,126.634555,대신아스콘,platform,yes,소룡동,bus_stop,공공데이터포털
35.997922,126.761831,군산역입구,platform,yes,내흥동,bus_stop,공공데이터포털
35.952308,126.651996,미성동,platform,yes,산북동,bus_stop,공공데이터포털
35.9115,126.661087,사호촌,platform,yes,옥구읍,bus_stop,공공데이터포털
35.964056,126.756783,군산간호대학입구,platform,yes,개정동,bus_stop,공공데이터포털
35.967727,126.780729,와룡,platform,yes,개정면,bus_stop,공공데이터포털
35.971539,126.783762,와룡,platform,yes,개정면,bus_stop,공공데이터포털
35.973746,126.579455,자동차야적장입구,platform,yes,소룡동,bus_stop,공공데이터포털
35.977781,126.861742,도축장,platform,yes,서수면,bus_stop,공공데이터포털
35.96199,126.856756,공창마을,platform,yes,임피면,bus_stop,공공데이터포털
35.92955,126.867167,대광,platform,yes,대야면,bus_stop,공공데이터포털
36.072905,126.939787,와초주유소,platform,yes,성당면,bus_stop,공공데이터포털
35.951284,126.594035,내초도,platform,yes,내초동,bus_stop,공공데이터포털
35.965582,126.620878,구해양경찰서,platform,yes,소룡동,bus_stop,공공데이터포털
35.779764,126.498767,소라쉼터,platform,yes,옥도면,bus_stop,공공데이터포털
35.98497,126.795822,고봉,platform,yes,성산면,bus_stop,공공데이터포털
35.927035,126.617419,군산공항,platform,yes,옥서면,bus_stop,공공데이터포털
35.955498,126.711925,군산의료원,platform,yes,지곡동,bus_stop,공공데이터포털
35.905227,126.852547,궁동,platform,yes,청하면,bus_stop,공공데이터포털
35.928422,126.640269,내성산,platform,yes,옥서면,bus_stop,공공데이터포털
36.028134,126.713362,송내,platform,yes,마서면,bus_stop,공공데이터포털
35.965106,126.719532,보건소,platform,yes,수송동,bus_stop,공공데이터포털
35.92523,126.70453,신흥,platform,yes,옥구읍,bus_stop,공공데이터포털
35.991793,126.799898,창암마을,platform,yes,성산면,bus_stop,공공데이터포털
36.008242,126.758392,채만식문학관,platform,yes,내흥동,bus_stop,공공데이터포털
35.91779,126.689719,원오곡,platform,yes,옥구읍,bus_stop,공공데이터포털
36.040271,126.837993,강정,platform,yes,나포면,bus_stop,공공데이터포털
36.041778,126.84001,강정,platform,yes,나포면,bus_stop,공공데이터포털
36.043907,126.84157,경원산업,platform,yes,나포면,bus_stop,공공데이터포털
36.064697,126.707569,계동,platform,yes,마서면,bus_stop,공공데이터포털
35.984994,126.795976,고봉,platform,yes,성산면,bus_stop,공공데이터포털
35.961235,126.586329,교통공원사거리,platform,yes,소룡동,bus_stop,공공데이터포털
35.96587,126.623241,해양경찰서,platform,yes,소룡동,bus_stop,공공데이터포털
35.91192,126.800016,구복,platform,yes,회현면,bus_stop,공공데이터포털
35.980005,126.750935,구암현대아파트,platform,yes,구암동,bus_stop,공공데이터포털
35.891697,126.516004,해넘이휴게소,platform,yes,비응도동,bus_stop,공공데이터포털
35.933745,126.686356,월명장례예식장,platform,yes,옥구읍,bus_stop,공공데이터포털
35.943157,126.536279,신시도입구삼거리,platform,yes,비응도동,bus_stop,공공데이터포털
35.903753,126.670833,신어은마을,platform,yes,옥구읍,bus_stop,공공데이터포털
35.909696,126.838799,신창,platform,yes,청하면,bus_stop,공공데이터포털
36.024113,126.823835,신촌,platform,yes,나포면,bus_stop,공공데이터포털
35.966918,126.617186,쌍용양회,platform,yes,소룡동,bus_stop,공공데이터포털
35.980359,126.737441,연안도로사거리,platform,yes,경암동,bus_stop,공공데이터포털
35.988437,126.715731,예수한방병원,platform,yes,장미동,bus_stop,공공데이터포털
35.917122,126.760383,구학당,platform,yes,회현면,bus_stop,공공데이터포털
35.939303,126.707102,군부대,platform,yes,옥구읍,bus_stop,공공데이터포털
35.93928,126.707208,군부대,platform,yes,옥구읍,bus_stop,공공데이터포털
35.962428,126.678669,산북초등학교,platform,yes,산북동,bus_stop,공공데이터포털
35.942515,126.825878,군산IC,platform,yes,대야면,bus_stop,공공데이터포털
35.9051,126.852604,궁둥,platform,yes,청하면,bus_stop,공공데이터포털
35.9011,126.747166,금광마을,platform,yes,회현면,bus_stop,공공데이터포털
35.905951,126.759465,금당,platform,yes,회현면,bus_stop,공공데이터포털
35.972103,126.705666,김성배정형외과,platform,yes,문화동,bus_stop,공공데이터포털
35.939154,126.765143,남내마을,platform,yes,옥산면,bus_stop,공공데이터포털
35.986022,126.86632,오일마을,platform,yes,서수면,bus_stop,공공데이터포털
35.92232,126.683305,옥구읍보건지소,platform,yes,옥구읍,bus_stop,공공데이터포털
35.924709,126.644718,옥서면사무소,platform,yes,옥서면,bus_stop,공공데이터포털
36.017396,126.816007,외곡,platform,yes,나포면,bus_stop,공공데이터포털
35.927494,126.729395,외류,platform,yes,옥산면,bus_stop,공공데이터포털
35.939931,126.752587,용호마을,platform,yes,옥산면,bus_stop,공공데이터포털
35.961542,126.567236,우리은행,platform,yes,오식도동,bus_stop,공공데이터포털
35.950246,126.679762,원당,platform,yes,미룡동,bus_stop,공공데이터포털
36.06762,126.929709,대기,platform,yes,함라면,bus_stop,공공데이터포털
36.067648,126.929525,대기,platform,yes,함라면,bus_stop,공공데이터포털
35.960873,126.658488,서흥마을,platform,yes,산북동,bus_stop,공공데이터포털
35.933903,126.643515,성남동,platform,yes,옥서면,bus_stop,공공데이터포털
35.989931,126.787153,성산,platform,yes,성산면,bus_stop,공공데이터포털
36.07792,126.967231,원광대제2캠퍼스,platform,yes,함열읍,bus_stop,공공데이터포털
36.004924,126.831614,원부곡,platform,yes,나포면,bus_stop,공공데이터포털
35.917939,126.689992,원오곡,platform,yes,옥구읍,bus_stop,공공데이터포털
35.905861,126.713704,신기마을,platform,yes,옥구읍,bus_stop,공공데이터포털
35.901905,126.768068,신기촌,platform,yes,회현면,bus_stop,공공데이터포털
35.941253,126.831463,신동마을,platform,yes,대야면,bus_stop,공공데이터포털
35.943954,126.816783,대야성당,platform,yes,대야면,bus_stop,공공데이터포털
35.916959,126.815858,대차마을,platform,yes,대야면,bus_stop,공공데이터포털
35.956591,126.791521,대황,platform,yes,개정면,bus_stop,공공데이터포털
35.971648,126.822305,덕봉마을,platform,yes,대야면,bus_stop,공공데이터포털
35.985086,126.689764,동진조선소,platform,yes,소룡동,bus_stop,공공데이터포털
35.962798,126.739261,동초등학교,platform,yes,조촌동,bus_stop,공공데이터포털
35.983439,126.709551,명산사거리,platform,yes,명산동,bus_stop,공공데이터포털
35.934194,126.824827,대야농협미곡처리장,platform,yes,대야면,bus_stop,공공데이터포털
35.969819,126.726829,미장현대파인빌2차,platform,yes,미장동,bus_stop,공공데이터포털
36.02322,126.884728,방령,platform,yes,서수면,bus_stop,공공데이터포털
35.961152,126.699622,늘푸른도서관,platform,yes,나운동,bus_stop,공공데이터포털
35.963366,126.750825,사정금호2차아파트,platform,yes,사정동,bus_stop,공공데이터포털
35.9205,126.827422,상리,platform,yes,대야면,bus_stop,공공데이터포털
35.984174,126.834666,서모마을,platform,yes,임피면,bus_stop,공공데이터포털
35.977762,126.705881,서문교회,platform,yes,문화동,bus_stop,공공데이터포털
36.013653,126.879485,서수농공단지,platform,yes,서수면,bus_stop,공공데이터포털
35.984689,126.869895,임피중학교,platform,yes,서수면,bus_stop,공공데이터포털
35.984116,126.851431,임피파출소,platform,yes,임피면,bus_stop,공공데이터포털
35.98442,126.737383,잠둑,platform,yes,경암동,bus_stop,공공데이터포털
35.974899,126.607517,장산도사거리,platform,yes,소룡동,bus_stop,공공데이터포털
35.991602,126.911024,장자마을,platform,yes,서수면,bus_stop,공공데이터포털
35.973729,126.737899,조촌동주민센터,platform,yes,조촌동,bus_stop,공공데이터포털
35.960455,126.710636,수송동신정문,platform,yes,지곡동,bus_stop,공공데이터포털
35.96633,126.705578,진포초등학교,platform,yes,나운동,bus_stop,공공데이터포털
35.991743,126.799912,창암마을,platform,yes,성산면,bus_stop,공공데이터포털
35.987356,126.856018,축산마을,platform,yes,임피면,bus_stop,공공데이터포털
35.972533,126.771523,충량마을,platform,yes,개정면,bus_stop,공공데이터포털
35.967022,126.569919,투자유치사업단,platform,yes,오식도동,bus_stop,공공데이터포털
35.919107,126.768741,풍촌,platform,yes,회현면,bus_stop,공공데이터포털
35.947075,126.575192,국일철강,platform,yes,오식도동,bus_stop,공공데이터포털
36.077709,126.965969,함열초등학교,platform,yes,함열읍,bus_stop,공공데이터포털
35.990865,126.707824,해양경찰서,platform,yes,금동,bus_stop,공공데이터포털
35.963532,126.865138,호원대학교,platform,yes,임피면,bus_stop,공공데이터포털
35.975073,126.660193,동양제철화학,platform,yes,소룡동,bus_stop,공공데이터포털
35.993077,126.764878,혜령,platform,yes,성산면,bus_stop,공공데이터포털
35.952703,126.648812,미성동,platform,yes,산북동,bus_stop,공공데이터포털
35.896186,126.676469,어은동,platform,yes,옥구읍,bus_stop,공공데이터포털
35.967239,126.627786,대신아스콘,platform,yes,소룡동,bus_stop,공공데이터포털
35.926084,126.70781,상평.광월마을,platform,yes,옥구읍,bus_stop,공공데이터포털
35.933118,126.678544,개사리,platform,yes,개사동,bus_stop,공공데이터포털
35.936012,126.674104,개사동,platform,yes,개사동,bus_stop,공공데이터포털
35.964563,126.763702,동안마을,platform,yes,개정동,bus_stop,공공데이터포털
35.929503,126.781659,용화마을,platform,yes,회현면,bus_stop,공공데이터포털
35.894217,126.731667,월연교회,platform,yes,회현면,bus_stop,공공데이터포털
35.929648,126.867105,대광,platform,yes,대야면,bus_stop,공공데이터포털
36.073676,126.9422,영광승리교회,platform,yes,성당면,bus_stop,공공데이터포털
35.949164,126.864547,금암,platform,yes,임피면,bus_stop,공공데이터포털
36.002808,126.825389,후죽,platform,yes,나포면,bus_stop,공공데이터포털
35.969238,126.616689,군산항3부두,platform,yes,소룡동,bus_stop,공공데이터포털
35.762727,126.506859,너울쉼터,platform,yes,옥도면,bus_stop,공공데이터포털
35.933521,126.783551,구율,platform,yes,회현면,bus_stop,공공데이터포털
35.958095,126.70435,백토사거리,platform,yes,지곡동,bus_stop,공공데이터포털
35.940114,126.76826,망동,platform,yes,옥산면,bus_stop,공공데이터포털
35.97556,126.742451,삼정주택,platform,yes,조촌동,bus_stop,공공데이터포털
35.91541,126.836261,신촌,platform,yes,대야면,bus_stop,공공데이터포털
35.993063,126.882888,옥하,platform,yes,서수면,bus_stop,공공데이터포털
35.928702,126.80848,천수마을,platform,yes,대야면,bus_stop,공공데이터포털
35.974299,126.638605,퓨리나사료,platform,yes,소룡동,bus_stop,공공데이터포털
35.911617,126.661109,사호촌,platform,yes,옥구읍,bus_stop,공공데이터포털
35.986633,126.794076,성산농공단지,platform,yes,성산면,bus_stop,공공데이터포털
36.04981,126.899316,와우,platform,yes,함라면,bus_stop,공공데이터포털
35.950098,126.679952,원당,platform,yes,미룡동,bus_stop,공공데이터포털
35.904982,126.703981,가산,platform,yes,옥구읍,bus_stop,공공데이터포털
35.986148,126.73913,강변삼거리,platform,yes,구암동,bus_stop,공공데이터포털
36.040269,126.838114,강정,platform,yes,나포면,bus_stop,공공데이터포털
35.983331,126.724303,경암사거리,platform,yes,중동,bus_stop,공공데이터포털
35.994721,126.861124,계남,platform,yes,임피면,bus_stop,공공데이터포털
35.984726,126.786924,고봉마을입구,platform,yes,성산면,bus_stop,공공데이터포털
35.899257,126.674679,신어은,platform,yes,옥구읍,bus_stop,공공데이터포털
35.953979,126.547968,신영목재앞,platform,yes,오식도동,bus_stop,공공데이터포털
35.90713,126.637312,신오산촌,platform,yes,옥서면,bus_stop,공공데이터포털
35.90655,126.689179,양등,platform,yes,옥구읍,bus_stop,공공데이터포털
35.977816,126.63121,국제여객선터미널,platform,yes,소룡동,bus_stop,공공데이터포털
35.956278,126.706365,군산여상,platform,yes,지곡동,bus_stop,공공데이터포털
35.897939,126.659397,군산컨트리클럽,platform,yes,옥구읍,bus_stop,공공데이터포털
35.926546,126.798854,금반,platform,yes,대야면,bus_stop,공공데이터포털
35.91453,126.735814,금성마을,platform,yes,회현면,bus_stop,공공데이터포털
36.00414,126.798829,기린,platform,yes,성산면,bus_stop,공공데이터포털
35.976526,126.70758,삼학주민센터,platform,yes,오룡동,bus_stop,공공데이터포털
35.904699,126.777437,오산촌,platform,yes,회현면,bus_stop,공공데이터포털
35.90551,126.639003,신오산촌마을,platform,yes,옥서면,bus_stop,공공데이터포털
35.924949,126.645202,옥서면사무소,platform,yes,옥서면,bus_stop,공공데이터포털
35.993103,126.882842,옥하,platform,yes,서수면,bus_stop,공공데이터포털
35.955511,126.840814,왕산,platform,yes,임피면,bus_stop,공공데이터포털
35.985027,126.709909,월명주민센터,platform,yes,명산동,bus_stop,공공데이터포털
36.027113,126.828082,용호초리,platform,yes,나포면,bus_stop,공공데이터포털
35.960717,126.568038,우리은행4,platform,yes,소룡동,bus_stop,공공데이터포털
35.950344,126.800386,우산마을,platform,yes,개정면,bus_stop,공공데이터포털
36.019375,126.882386,운원,platform,yes,서수면,bus_stop,공공데이터포털
35.93177,126.732233,내류,platform,yes,옥산면,bus_stop,공공데이터포털
35.930046,126.641135,성남동,platform,yes,옥서면,bus_stop,공공데이터포털
35.973586,126.676301,소룡사거리,platform,yes,소룡동,bus_stop,공공데이터포털
35.974318,126.676914,소룡사거리,platform,yes,산북동,bus_stop,공공데이터포털
36.029299,126.710166,송내삼거리,platform,yes,마서면,bus_stop,공공데이터포털
36.00303,126.833079,원부곡,platform,yes,나포면,bus_stop,공공데이터포털
35.917085,126.6925,원오곡,platform,yes,옥구읍,bus_stop,공공데이터포털
36.01402,126.806523,신기,platform,yes,나포면,bus_stop,공공데이터포털
35.923279,126.776765,신당,platform,yes,회현면,bus_stop,공공데이터포털
35.94151,126.830891,신동마을,platform,yes,대야면,bus_stop,공공데이터포털
36.040354,126.85767,신방,platform,yes,나포면,bus_stop,공공데이터포털
35.939013,126.747609,옥산,platform,yes,옥산면,bus_stop,공공데이터포털
35.893681,126.857618,대신,platform,yes,청하면,bus_stop,공공데이터포털
35.947096,126.809405,대야우체국,platform,yes,대야면,bus_stop,공공데이터포털
35.963484,126.607386,대우자동차,platform,yes,소룡동,bus_stop,공공데이터포털
35.927847,126.765636,대위마을,platform,yes,회현면,bus_stop,공공데이터포털
35.98343,126.873003,독자개,platform,yes,서수면,bus_stop,공공데이터포털
35.920447,126.674966,동마산마을,platform,yes,옥구읍,bus_stop,공공데이터포털
35.969916,126.708857,동부교회,platform,yes,문화동,bus_stop,공공데이터포털
36.022051,126.81979,둔기,platform,yes,나포면,bus_stop,공공데이터포털
35.964642,126.567003,맨하탄프라자,platform,yes,오식도동,bus_stop,공공데이터포털
35.980206,126.715032,미원사거리,platform,yes,미원동,bus_stop,공공데이터포털
35.958425,126.796094,발산면사무소,platform,yes,개정면,bus_stop,공공데이터포털
35.961075,126.8556,보석리,platform,yes,임피면,bus_stop,공공데이터포털
35.959523,126.692437,부곡사거리,platform,yes,나운동,bus_stop,공공데이터포털
36.002966,126.754113,사옥계,platform,yes,내흥동,bus_stop,공공데이터포털
35.962858,126.750007,사정금호2차아파트,platform,yes,사정동,bus_stop,공공데이터포털
35.923862,126.642409,삼거리,platform,yes,옥서면,bus_stop,공공데이터포털
35.926147,126.829956,상리,platform,yes,대야면,bus_stop,공공데이터포털
35.971382,126.839324,서원마을,platform,yes,임피면,bus_stop,공공데이터포털
35.923564,126.629748,장원,platform,yes,옥서면,bus_stop,공공데이터포털
35.924992,126.627424,장전,platform,yes,옥서면,bus_stop,공공데이터포털
35.981263,126.718688,중앙초등학교,platform,yes,중앙로3가,bus_stop,공공데이터포털
35.893879,126.725622,중야,platform,yes,회현면,bus_stop,공공데이터포털
35.959195,126.712269,지곡동신건너편,platform,yes,지곡동,bus_stop,공공데이터포털
35.99586,126.818254,대명마을,platform,yes,성산면,bus_stop,공공데이터포털
35.935959,126.704487,척동,platform,yes,옥구읍,bus_stop,공공데이터포털
35.91881,126.760996,척동,platform,yes,회현면,bus_stop,공공데이터포털
35.910155,126.650233,칠호촌,platform,yes,옥구읍,bus_stop,공공데이터포털
35.916401,126.77021,풍성,platform,yes,회현면,bus_stop,공공데이터포털
35.960393,126.561836,한국산업단지공단,platform,yes,오식도동,bus_stop,공공데이터포털
35.963199,126.719529,한라비발디1단지,platform,yes,수송동,bus_stop,공공데이터포털
35.918511,126.820844,함열,platform,yes,대야면,bus_stop,공공데이터포털
35.946439,126.6549,해팔마을,platform,yes,개사동,bus_stop,공공데이터포털
35.969217,126.705609,현대코아사거리,platform,yes,문화동,bus_stop,공공데이터포털
35.941315,126.749686,옥산,platform,yes,옥산면,bus_stop,공공데이터포털
35.910611,126.763415,광지산사거리,platform,yes,회현면,bus_stop,공공데이터포털
35.998015,126.866483,대나무식당,platform,yes,서수면,bus_stop,공공데이터포털
35.912868,126.75659,회현면사무소,platform,yes,회현면,bus_stop,공공데이터포털
35.997942,126.866654,마룡,platform,yes,서수면,bus_stop,공공데이터포털
35.894853,126.67665,어은동종점,platform,yes,옥구읍,bus_stop,공공데이터포털
36.006332,126.908719,금암초교,platform,yes,함라면,bus_stop,공공데이터포털
36.024744,126.885539,관운정삼거리,platform,yes,함라면,bus_stop,공공데이터포털
35.910693,126.763608,광지산사거리,platform,yes,회현면,bus_stop,공공데이터포털
36.024639,126.885439,관운정삼거리,platform,yes,함라면,bus_stop,공공데이터포털
36.049546,126.854562,옥동,platform,yes,나포면,bus_stop,공공데이터포털
35.941385,126.749779,옥산,platform,yes,옥산면,bus_stop,공공데이터포털
35.997973,126.866544,대나무식당,platform,yes,서수면,bus_stop,공공데이터포털
