경도,위도,ref,name,name:en,name:ko,phone,highway,public_transport
35.22125141,126.8283206,2513,동원촌,Dongwonchon,동원촌,+82 62 613 5700,bus_stop,platform
35.218626,126.84211,2534,첨단1동행정복지센터,Cheomdan 1(il)-dong Administration Welfare Center,첨단1동행정복지센터,+82 62 613 5700,bus_stop,platform
35.26986667,126.8294056,196,남계(장성),Namgye (Jangseong),남계(장성),+82 62 613 5700,bus_stop,platform
35.175739,126.7466901,3355,노동,Nodong,노동,+82 62 613 5700,bus_stop,platform
35.27655833,126.8872778,1866,대치,Daechi,대치,+82 62 613 5700,bus_stop,platform
35.17156944,126.9356333,409,두암라인동산아파트,Duam Line Dongsan Apt.,두암라인동산아파트,+82 62 613 5700,bus_stop,platform
35.24446111,126.8637222,2072,월정,Woljeong ,월정,+82 62 613 5700,bus_stop,platform
35.019726,126.828486,1951,매화동(나주),Maehwadong(Naju),매화동(나주),+82 62 613 5700,bus_stop,platform
35.149933,126.933181,579,법원,District Court,법원,+82 62 613 5700,bus_stop,platform
35.18729722,126.7372389,1308,산음,Saneum,산음,+82 62 613 5700,bus_stop,platform
35.17567603,126.8706791,2887,서영대,Seoyeong university,서영대,+82 62 613 5700,bus_stop,platform
35.13603333,126.9085361,2756,석산고,Seoksan High School,석산고,+82 62 613 5700,bus_stop,platform
35.05800556,126.7865167,1787,승촌주택단지,Seungchon Housing Area,승촌주택단지,+82 62 613 5700,bus_stop,platform
35.23963533,126.8936793,3936,대진운수,Daejin Transportation Company,대진운수,+82 62 613 5700,bus_stop,platform
35.24057876,126.895318,3940,용전입구,Yongjeon Entrance,용전입구,+82 62 613 5700,bus_stop,platform
35.14707778,126.89755,1113,월산초교,Wolsan Elementary School,월산초교,+82 62 613 5700,bus_stop,platform
35.06996674,126.8351375,3142,하칠석/고싸움전수관,Hachilseok / Gossaum Training Center,하칠석/고싸움전수관,+82 62 613 5700,bus_stop,platform
35.158585,126.894939,2776,발산교(남),Balsangyo Bridge (South),발산교(남),+82 62 613 5700,bus_stop,platform
35.226362,126.652144,3372,송곡,Songgok,송곡,+82 62 613 5700,bus_stop,platform
35.24619167,126.7784778,3166,선평선창마을입구,Seonpyeong Seonchangmaeul Entrance,선평선창마을입구,+82 62 613 5700,bus_stop,platform
35.13159444,126.9287611,3195,학2마을아파트,Hak 2(i) Village Apt.,학2마을아파트,+82 62 613 5700,bus_stop,platform
35.18860278,126.9052417,766,서산초교,Seosan Elementary School,서산초교,+82 62 613 5700,bus_stop,platform
35.184491,126.675138,828,수성,Suseong,수성,+82 62 613 5700,bus_stop,platform
35.00851389,126.9571806,1081,원지리,Wonji-li,원지리,+82 62 613 5700,bus_stop,platform
35.16195833,126.9802306,2304,충장사(북),Chungjangsa Shrine (North),충장사(북),+82 62 613 5700,bus_stop,platform
35.273815,126.830357,2345,중앙교회,Jungang Church,중앙교회,+82 62 613 5700,bus_stop,platform
35.190757,126.7648001,2051,신봉정,Sinbongjeong,신봉정,+82 62 613 5700,bus_stop,platform
35.244187,126.914817,1878,북초교,Buk Elemetary School,북초교,+82 62 613 5700,bus_stop,platform
35.19659444,126.8021667,222,호남샤니,Honam Shany,호남샤니,+82 62 613 5700,bus_stop,platform
35.18105076,126.9043055,1003,용봉한화꿈에그린,Yongbong Hanwha Dream & Green Apt.,용봉한화꿈에그린,+82 62 613 5700,bus_stop,platform
35.21681111,126.8055611,2910,안청,Ancheong,안청,+82 62 613 5700,bus_stop,platform
35.18274707,126.930973,2958,동광주진입로,East Gwangju IC Access Road,동광주진입로,+82 62 613 5700,bus_stop,platform
35.14920278,126.9433222,2978,지산유원지입구,Jisan Recreation Area Entrance,지산유원지입구,+82 62 613 5700,bus_stop,platform
35.18003056,126.8309972,899,신가사거리,Singa Sageori,신가사거리,+82 62 613 5700,bus_stop,platform
35.13504444,126.91065,2758,수피아여고,Speer Girls' High School,수피아여고,+82 62 613 5700,bus_stop,platform
35.15818377,126.920686,73,광주고/419역사관,GwangJu High School/419 History Hall,광주고/419역사관,+82 62 613 5700,bus_stop,platform
35.12147207,126.8845544,880,신암마을,Sinam Village,신암마을,+82 62 613 5700,bus_stop,platform
35.051625,126.9586444,16,계소리1구,Gyesori District 1,계소리1구,+82 62 613 5700,bus_stop,platform
35.16055833,126.9239306,3029,계림초교후문,Gyerim Elementary School Back Gate,계림초교후문,+82 62 613 5700,bus_stop,platform
35.05436111,126.9764194,2107,화순제일중,Hwasun Jeil Middle School,화순제일중,+82 62 613 5700,bus_stop,platform
35.23895,126.9545583,1901,담양월곡,Damyang Wolgok,담양월곡,+82 62 613 5700,bus_stop,platform
35.19215845,126.937066,3938,보광사,Bogwangsa Temple,보광사,+82 62 613 5700,bus_stop,platform
35.03476389,126.9609194,2060,연화공장,Yeonhwa Factory,연화공장,+82 62 613 5700,bus_stop,platform
35.15638361,126.9109269,2953,대인광장(서),Daein Plaza (West),대인광장(서),+82 62 613 5700,bus_stop,platform
35.22469831,126.840987,2574,과기원,Gwangju Institute of Science and Technology,과기원,+82 62 613 5700,bus_stop,platform
35.122842,126.911688,615,조봉초교,Jobong Elementary School,조봉초교,+82 62 613 5700,bus_stop,platform
35.14840116,126.848689,2876,농협운천지점,Nonghyup Uncheon Branch,농협운천지점,+82 62 613 5700,bus_stop,platform
35.151455,126.840556,948,일가정양립지원본부,work-family Balance Assisttance Center,일가정양립지원본부,+82 62 613 5700,bus_stop,platform
35.15053815,126.7729182,2729,선암,Seonam,선암,+82 62 613 5700,bus_stop,platform
35.04589722,126.7184083,3447,싸이클경기장,Cycle Stadium,싸이클경기장,+82 62 613 5700,bus_stop,platform
35.156992,126.9399001,3026,산수무등파크,Sansu Mudeung Park Apt.,산수무등파크,+82 62 613 5700,bus_stop,platform
35.22506111,126.9846083,3148,교산,Gyosan,교산,+82 62 613 5700,bus_stop,platform
35.13846577,126.82324,3400,구야촌,Guyachon,구야촌,+82 62 613 5700,bus_stop,platform
35.2297066,126.6465776,3487,삼서우체국,Samseo Post Office,삼서우체국,+82 62 613 5700,bus_stop,platform
35.175755,126.746551,3498,노동,Nodong,노동,+82 62 613 5700,bus_stop,platform
35.06936944,126.8024,2217,월성,Wolseong,월성,+82 62 613 5700,bus_stop,platform
35.114656,126.815036,3405,문촌,Munchon,문촌,+82 62 613 5700,bus_stop,platform
35.14788626,126.8454898,3413,상무라인대주,Sangmu Line Daeju Apt.,상무라인대주,+82 62 613 5700,bus_stop,platform
35.10014722,126.8780889,3491,도동교,Dodonggyo Bridge,도동교,+82 62 613 5700,bus_stop,platform
35.23046944,126.9176889,3502,영락공원,Yeongnak Cemetery Park,영락공원,+82 62 613 5700,bus_stop,platform
35.11649722,126.8113,3404,도호,Doho,도호,+82 62 613 5700,bus_stop,platform
35.03075,127.0419806,3411,동면,Dongmyeon,동면,+82 62 613 5700,bus_stop,platform
35.177614,126.804347,3489,하남홈플러스,Hanam Home Plus,하남홈플러스,+82 62 613 5700,bus_stop,platform
35.173973,126.745135,3499,박호1리,Bakho 1(il)-ri,박호1리,+82 62 613 5700,bus_stop,platform
35.15370262,126.8428329,3416,상무해광한신아파트,Sangmu Haegwang Hanshin Apt.,상무해광한신아파트,+82 62 613 5700,bus_stop,platform
35.156507,126.839031,3441,상무지구,Sangmu District,상무지구,,bus_stop,platform
35.07535556,126.9611306,3496,화순터널,Hwasun Tunnel,화순터널,+82 62 613 5700,bus_stop,platform
35.03906667,126.7159444,1694,나주금성고,Naju Geumseong High School,나주금성고,+82 62 613 5700,bus_stop,platform
35.23752778,126.803325,2032,남면보건지소,Nammyeon Branch Community Health Center,남면보건지소,+82 62 613 5700,bus_stop,platform
35.08901944,126.9313167,226,내남,Naenam,내남,+82 62 613 5700,bus_stop,platform
35.200536,126.665292,1997,녹서,Nokseo,녹서,+82 62 613 5700,bus_stop,platform
35.15236111,126.8996861,2703,농협공판장,Nonghyup Joint Market,농협공판장,+82 62 613 5700,bus_stop,platform
35.23808056,126.9551222,1834,담양월곡,Damyang Wolgok,담양월곡,+82 62 613 5700,bus_stop,platform
35.12873478,126.6801173,1660,대산삼거리,Daesan Samgeori,대산삼거리,+82 62 613 5700,bus_stop,platform
35.15596052,126.9114206,296,대인광장(서),Daein Plaza (West),대인광장(서),+82 62 613 5700,bus_stop,platform
35.27651111,126.8873167,2262,대치,Daechi,대치,+82 62 613 5700,bus_stop,platform
35.16655,126.7009639,2723,도림,Dorim,도림,+82 62 613 5700,bus_stop,platform
35.21284167,126.7958194,343,도현,Dohyeon,도현,+82 62 613 5700,bus_stop,platform
35.18274575,126.9313568,2959,동광주진입로,East Gwangju IC Access Road,동광주진입로,+82 62 613 5700,bus_stop,platform
35.20970833,126.6890472,2008,동림마을,Dongnim Village,동림마을,+82 62 613 5700,bus_stop,platform
35.14705788,126.839074,3274,김대중컨벤션센터,Kimdaejung Convention Center,김대중컨벤션센터,+82 62 613 5700,bus_stop,platform
35.050625,126.7229639,1699,나주농협송현지점,Naju Nonghyup Songhyun Branch,나주농협송현지점,+82 62 613 5700,bus_stop,platform
35.17956111,126.6821444,208,남동,Nam-dong,남동,+82 62 613 5700,bus_stop,platform
35.21638333,126.8095972,218,신흥목재포장,Sinheung Wood Package,신흥목재포장,+82 62 613 5700,bus_stop,platform
35.09906389,126.9050528,1996,노대,Nodae,노대,+82 62 613 5700,bus_stop,platform
35.02319722,126.82975,3464,농업기술원,Agricultural Research and Extension Services,농업기술원,+82 62 613 5700,bus_stop,platform
35.248936,126.925496,1884,단지삼거리,Danji Samgeori,단지삼거리,+82 62 613 5700,bus_stop,platform
35.12879118,126.6814673,2168,대산,Daesan  ,대산,+82 62 613 5700,bus_stop,platform
35.15704167,126.9117639,390,대인광장(북),Daein Plaza (North),대인광장(북),+82 62 613 5700,bus_stop,platform
35.08201967,126.8316248,2197,대촌한일베라체,Daechon Hanil Verace Apt.,대촌한일베라체,+82 62 613 5700,bus_stop,platform
34.997661,126.820986,2332,도래,Dorae,도래,+82 62 613 5700,bus_stop,platform
35.12569722,126.6892111,2166,도야,Doya,도야,+82 62 613 5700,bus_stop,platform
35.17044722,126.9248528,347,동강대후문,Dongkang College Back Gate,동강대후문,+82 62 613 5700,bus_stop,platform
35.17731389,126.8643028,360,동림삼익아파트,Dongnim Samik Apt.,동림삼익아파트,+82 62 613 5700,bus_stop,platform
35.15504605,126.7391863,2360,동명고,Dongmyoung High School,동명고,+82 62 613 5700,bus_stop,platform
35.15146389,126.9366333,370,동산아파트,Dongsan Apt.,동산아파트,+82 62 613 5700,bus_stop,platform
35.12714722,126.6865333,3395,동촌,Dongchon,동촌,+82 62 613 5700,bus_stop,platform
35.21550556,126.7617889,3312,두동,Dudong,두동,+82 62 613 5700,bus_stop,platform
35.16931667,126.9325361,395,두암초교,Duam Elementary School,두암초교,+82 62 613 5700,bus_stop,platform
35.12758056,126.8311528,1718,마산(서창),Masan (Seochang),마산(서창),+82 62 613 5700,bus_stop,platform
35.15598713,126.8953257,142,그린파크,Green Park Apt.,그린파크,+82 62 613 5700,bus_stop,platform
35.048113,126.905647,4157,앵남2구,Aengnam District 2,앵남2구,+82 62 613 5700,bus_stop,platform
35.148679,126.91785,3192,국립아시아문화전당(구.도청),Asia Culture Center,국립아시아문화전당(구.도청),+82 62 613 5700,bus_stop,platform
35.16266111,126.8577806,29,계수,Gyesu,계수,+82 62 613 5700,bus_stop,platform
35.20683056,126.6869111,124,구룡(본량),Guryong (Bollyang),구룡(본량),+82 62 613 5700,bus_stop,platform
35.1481301,126.841176,188,5.18자유공원,May 18th Liberty Park,5.18자유공원,+82 62 613 5700,bus_stop,platform
35.22226093,126.8808873,252,건국동행정복지센터,Geonguk-dong Administration Welfare Center,건국동행정복지센터,+82 62 613 5700,bus_stop,platform
35.17422778,126.8171889,1049,운남삼성아파트,Unnam Samsung Apt.,운남삼성아파트,+82 62 613 5700,bus_stop,platform
35.302083,126.930313,3467,수북사거리,Subuk 4-Way Junc,수북사거리,+82 62 613 5700,bus_stop,platform
35.15374342,126.8884048,316,광주시립미술관하정웅미술관,Gwangju Museum of Art and Ha Jung-woong Museum of Art,광주시립미술관하정웅미술관,+82 62 613 5700,bus_stop,platform
35.2068883,126.8941497,1457,일동초교,Ildong Elementary School,일동초교,+82 62 613 5700,bus_stop,platform
35.150164,126.896205,378,동신대한방병원,Dongshin University Oriental Hospital,동신대한방병원,+82 62 613 5700,bus_stop,platform
35.16578611,126.8761,806,광천E편한세상,Gwangcheon e-Pyeonhan Sesang Apt.,광천E편한세상,+82 62 613 5700,bus_stop,platform
35.15390862,126.7989897,3766,광주지방경찰청,Gwangju Metropolitan Police Agency,광주지방경찰청,+82 62 613 5700,bus_stop,platform
35.183122,126.813456,3815,수완중흥S-클래스 2차,Suwan Jungheung S-Class 2nd Apt.,수완중흥S-클래스 2차,+82 62 613 5700,bus_stop,platform
35.1726753,126.8014288,3849,산정초교,Sanjeong Elementary School,산정초교,+82 62 613 5700,bus_stop,platform
35.1143901,126.829717,2182,서창동주민센터,Seochang-dong Community Service Center,서창동주민센터,+82 62 613 5700,bus_stop,platform
35.107397,126.820966,1764,서창치안센터,Seochang Police Patrol & Services Center,서창치안센터,+82 62 613 5700,bus_stop,platform
35.09339882,126.8147248,3293,석교삼거리,Seokgyo Samgeori,석교삼거리,+82 62 613 5700,bus_stop,platform
35.246215,126.778316,3165,선평선창마을입구,Seonpyeong Seonchangmaeul Entrance,선평선창마을입구,+82 62 613 5700,bus_stop,platform
35.03578056,126.7165306,1696,성북육교,Seongbuk Overpass,성북육교,+82 62 613 5700,bus_stop,platform
35.18835,126.7949194,3088,세방전지,Global Battery Co. Ltd,세방전지,+82 62 613 5700,bus_stop,platform
35.15177514,126.804922,3768,소촌남계길,Sochon Namgye-gil,소촌남계길,+82 62 613 5700,bus_stop,platform
35.12393113,126.9320336,511,소태역,Sotae Station,소태역,+82 62 613 5700,bus_stop,platform
35.15757222,126.8715889,800,솔뫼타운,Solmeo Town Apt.,솔뫼타운,+82 62 613 5700,bus_stop,platform
35.13103202,126.9181452,802,송림주택,Songnim Jutaek Apt. ,송림주택,+82 62 613 5700,bus_stop,platform
35.14241344,126.6608022,1635,대봉,Daebong,대봉,+82 62 613 5700,bus_stop,platform
35.063325,126.9800056,1522,화순군선거관리위원회,Hwasun-gun Election Commission,화순군선거관리위원회,+82 62 613 5700,bus_stop,platform
35.03582222,126.7207111,1691,성북아파트,Naju Police Station,성북아파트,+82 62 613 5700,bus_stop,platform
35.12587402,126.8696067,1416,풍암저수지,Pungam Reservoir,풍암저수지,+82 62 613 5700,bus_stop,platform
35.17925278,126.7230028,608,본량초교,Bollyang Elementary School,본량초교,+82 62 613 5700,bus_stop,platform
35.24460278,126.7400667,2085,종산제입구,Jongsanje Entrance,종산제입구,+82 62 613 5700,bus_stop,platform
35.29493333,126.9237667,2253,고성리,Goseong-li,고성리,+82 62 613 5700,bus_stop,platform
35.02916667,127.0505028,382,동암,Dongam,동암,+82 62 613 5700,bus_stop,platform
35.14741111,126.9217889,352,동구청,Dong-gu Office,동구청,+82 62 613 5700,bus_stop,platform
35.12888856,126.6814817,1659,대산,Daesan  ,대산,+82 62 613 5700,bus_stop,platform
35.21174012,126.8277401,3896,도천저수지,Docheon Reservoir,도천저수지,+82 62 613 5700,bus_stop,platform
35.1821165,127.0079259,3903,닭뫼,Dakmoe,닭뫼,+82 62 613 5700,bus_stop,platform
35.16740169,126.8381614,2718,덕흥삼거리,Deokheung Samgeori,덕흥삼거리,+82 62 613 5700,bus_stop,platform
35.17238829,126.9248344,472,말바우시장(동),Malbau Market (East),말바우시장(동),+82 62 613 5700,bus_stop,platform
35.11892011,126.7806477,3116,상선,Sangseon,상선,+82 62 613 5700,bus_stop,platform
35.149305,126.788724,818,송정한전,Songjeong KEPCO,송정한전,+82 62 613 5700,bus_stop,platform
35.12699506,126.7896994,1503,송정호반아파트,Songjeong Hoban Apt.,송정호반아파트,+82 62 613 5700,bus_stop,platform
35.21108302,126.8755831,2950,광주은행양산동지점,Kwangju Bank Yangsan-dong Branch,광주은행양산동지점,+82 62 613 5700,bus_stop,platform
35.132235,126.938232,959,연진회미술원,Yeonjinhoe Academy Of Art,연진회미술원,+82 62 613 5700,bus_stop,platform
35.18394516,126.9116701,1019,오정초교입구,Ojung Elementary School Entrance,오정초교입구,+82 62 613 5700,bus_stop,platform
35.07411667,126.7697944,1677,용봉마을,Yongbong Village,용봉마을,+82 62 613 5700,bus_stop,platform
35.094001,126.962321,2690,용연동,Yongyeon-dong,용연동,+82 62 613 5700,bus_stop,platform
35.14762879,126.8806515,53,광주광역시교육청(광덕고),Gwangju Metropolitan Office of Education,광주광역시교육청(광덕고),+82 62 613 5700,bus_stop,platform
35.217955,126.811145,335,도촌교,Dochon Gyo Birdge,도촌교,+82 62 613 5700,bus_stop,platform
35.14188786,126.8250273,144,장암마을,Jangam Village,장암마을,+82 62 613 5700,bus_stop,platform
35.140992,126.92149,1191,전남대병원/남광주시장,Chonnam National University Hospital / Namgwangju Market,전남대병원/남광주시장,+82 62 613 5700,bus_stop,platform
35.14486111,126.9237806,1232,서남동행정복지센터,Seonam-dong Administration Welfare Center,서남동행정복지센터,+82 62 613 5700,bus_stop,platform
35.168008,126.729344,2123,죽산,Juksan,죽산,+82 62 613 5700,bus_stop,platform
35.16099298,126.9104456,1289,중흥시장,Jungheung Market,중흥시장,+82 62 613 5700,bus_stop,platform
35.16604167,126.872925,1323,진성아파트,Jinseong Apt.,진성아파트,+82 62 613 5700,bus_stop,platform
35.237555,127.014602,2232,창평고입구,Changpyeong High School Entrance,창평고입구,+82 62 613 5700,bus_stop,platform
35.25101389,126.9277444,1893,태령,Taeryeong,태령,+82 62 613 5700,bus_stop,platform
35.20603056,126.7633139,2026,보화촌,Bohwachon,보화촌,+82 62 613 5700,bus_stop,platform
35.195885,126.682098,2028,본량학생야영장,Bollyang Student Camping Site,본량학생야영장,+82 62 613 5700,bus_stop,platform
35.17644444,126.7120278,2031,북성,Bukseong,북성,+82 62 613 5700,bus_stop,platform
35.21756667,126.8511722,3184,우편집중국,Mail Center,우편집중국,+82 62 613 5700,bus_stop,platform
35.135536,126.900186,3561,백운초교(남),Baegun Elementary School (South),백운초교(남),+82 62 613 5700,bus_stop,platform
35.179823,126.814517,1473,목련마을8단지,Mongryeon Village Apt. Complex 8,목련마을8단지,+82 62 613 5700,bus_stop,platform
35.15773333,126.7929222,835,소촌스위트밸리,Sochon Sweet Valley Apt.,소촌스위트밸리,+82 62 613 5700,bus_stop,platform
35.14544429,126.9212464,3907,문화전당역,Culture Complex Station,문화전당역,+82 62 613 5700,bus_stop,platform
35.14624502,126.9189595,3908,문화전당역,Culture Complex Station,문화전당역,+82 62 613 5700,bus_stop,platform
35.18447612,126.8268907,3911,수완아름공원,Suwan Areum Park,수완아름공원,+82 62 613 5700,bus_stop,platform
35.18449198,126.8275376,3912,수완아름공원,Suwan Areum Park,수완아름공원,+82 62 613 5700,bus_stop,platform
35.15549707,126.9308626,672,산수동우체국,Sansu-dong Post Office ,산수동우체국,+82 62 613 5700,bus_stop,platform
35.27086,126.862422,2039,상림,Sanglim,상림,+82 62 613 5700,bus_stop,platform
35.111716,126.691415,1648,내기마을,Naegi Village,내기마을,+82 62 613 5700,bus_stop,platform
35.15098713,126.9022659,276,닭전머리,Dakjeonmeori,닭전머리,+82 62 613 5700,bus_stop,platform
35.16763611,126.9162111,1296,향토문화거리입구,Folk Culture Street Entrance ,향토문화거리입구,+82 62 613 5700,bus_stop,platform
35.1430516,126.8575651,733,금호초교,Kumho Elementary School,금호초교,+82 62 613 5700,bus_stop,platform
35.251165,126.890756,1869,응기,Unggi,응기,+82 62 613 5700,bus_stop,platform
35.17953056,126.6821,2362,남동,Nam-dong,남동,+82 62 613 5700,bus_stop,platform
35.153036,126.731641,2122,운평,Unpyeong,운평,+82 62 613 5700,bus_stop,platform
35.09606858,126.9406167,2667,내남입구,Naenam Entrance,내남입구,+82 62 613 5700,bus_stop,platform
35.24585,126.9190694,2276,수곡,Sugok ,수곡,+82 62 613 5700,bus_stop,platform
35.04568056,126.7184167,3446,싸이클경기장,Cycle Stadium,싸이클경기장,+82 62 613 5700,bus_stop,platform
35.05125278,126.7258889,1683,나주북초교,Naju Buk Elementary School,나주북초교,+82 62 613 5700,bus_stop,platform
35.18571667,126.7992222,3329,정우화학,Jeongwoo Eztech,정우화학,+82 62 613 5700,bus_stop,platform
35.06039722,126.9914917,1528,화순우체국,Hwasun Post Office,화순우체국,+82 62 613 5700,bus_stop,platform
35.18373889,126.9119528,1020,오정초교입구,Ojung Elementary School Entrance,오정초교입구,+82 62 613 5700,bus_stop,platform
35.16683056,126.9107806,93,광주역육교,Gwangju Station Overpass,광주역육교,+82 62 613 5700,bus_stop,platform
35.19918039,126.8326916,3919,수완지구,Suwan District,수완지구,+82 62 613 5700,bus_stop,platform
35.27188611,126.8886056,3928,신남마을,Shinnam Village,신남마을,+82 62 613 5700,bus_stop,platform
35.27190282,126.8887742,3929,신남마을,Shinnam Village,신남마을,+82 62 613 5700,bus_stop,platform
35.18305996,126.8212151,3909,큰별초교,Keunbyeol Elementary School,큰별초교,+82 62 613 5700,bus_stop,platform
35.27700833,126.8882917,3923,대전파출소(서),Daejeon Police Box(west),대전파출소(서),+82 62 613 5700,bus_stop,platform
35.276925,126.8882611,3924,대전파출소(서),Daejeon Police Box(west),대전파출소(서),+82 62 613 5700,bus_stop,platform
35.29617838,126.9346644,3926,대흥리,Daeheung-ri,대흥리,+82 62 613 5700,bus_stop,platform
35.19744179,126.8254343,3947,수완보건지소,Suwan Branch of Community Health Center,수완보건지소,+82 62 613 5700,bus_stop,platform
34.99663794,126.959768,3956,능주교,Neungjugyo(Bridge),능주교,+82 62 613 5700,bus_stop,platform
35.0293976,126.9544901,3958,주도리입구,Judori  Entrance,주도리입구,+82 62 613 5700,bus_stop,platform
35.02935775,126.9546044,3959,주도리입구,Judori  Entrance,주도리입구,+82 62 613 5700,bus_stop,platform
35.20461667,126.8816347,3962,양지마을,Yangji Village,양지마을,+82 62 613 5700,bus_stop,platform
35.20441745,126.8815912,3963,양지마을,Yangji Village,양지마을,+82 62 613 5700,bus_stop,platform
35.17223187,126.8977224,869,용봉2휴먼시아아파트,Yongbong 2 Humansia Apt,용봉2휴먼시아아파트,+82 62 613 5700,bus_stop,platform
35.17648611,126.9338167,909,신흥맨션,Sinheung Mansion Apt.,신흥맨션,+82 62 613 5700,bus_stop,platform
35.04193889,126.9627944,956,연양리1구,Yeonyangli District 1,연양리1구,+82 62 613 5700,bus_stop,platform
35.032785,127.057297,978,천운장,Cheonunjang,천운장,+82 62 613 5700,bus_stop,platform
35.18081944,126.9022278,1009,삼원맨션,Samwon Mansion Apt.,삼원맨션,+82 62 613 5700,bus_stop,platform
35.17535278,126.9319472,526,문화아파트,Munhwa Apt.,문화아파트,+82 62 613 5700,bus_stop,platform
35.115246,126.85905,1727,종합유통단지,Complex Distribution Center,종합유통단지,+82 62 613 5700,bus_stop,platform
35.11098009,126.8940253,1746,송하삼익아파트,Songha Samik Apt.,송하삼익아파트,+82 62 613 5700,bus_stop,platform
35.193037,126.774284,557,방혜,Banghye,방혜,+82 62 613 5700,bus_stop,platform
35.16235833,126.8627861,574,버들마을,Beodeul Village,버들마을,+82 62 613 5700,bus_stop,platform
35.18660918,126.8673913,604,시립장애인복지관,Community Rehabilitation Center,시립장애인복지관,+82 62 613 5700,bus_stop,platform
35.20195,126.9539556,1271,죽곡(남),Jukgok (South),죽곡(남),+82 62 613 5700,bus_stop,platform
35.145193,126.869428,1293,쌍촌시영아파트,Ssangchon Siyeong Apt.,쌍촌시영아파트,+82 62 613 5700,bus_stop,platform
35.16588056,126.8729861,1322,진성아파트,Jinseong Apt.,진성아파트,+82 62 613 5700,bus_stop,platform
35.1933001,126.877223,1353,광주다문화가족지원거점센터,Gwangju Multicultural Family Support Center,광주다문화가족지원거점센터,+82 62 613 5700,bus_stop,platform
35.16642778,126.8583611,1126,극락초교,Geungnak Elementary School,극락초교,+82 62 613 5700,bus_stop,platform
35.229605,126.733384,1150,임동교,Imdonggyo Bridge,임동교,+82 62 613 5700,bus_stop,platform
35.13359531,126.9071462,1172,남광주농협,Namgwangju Nonghyup,남광주농협,+82 62 613 5700,bus_stop,platform
35.158794,126.943186,1213,전망대,Observatory,전망대,+82 62 613 5700,bus_stop,platform
35.15432568,126.7399712,1596,동명고입구,Dongmyoung High School Entrance,동명고입구,+82 62 613 5700,bus_stop,platform
35.12364722,126.9302583,1384,가야농원,Gaya Nongwon,가야농원,+82 62 613 5700,bus_stop,platform
35.16618771,126.8641064,1373,칠성마을,Chilseong Village,칠성마을,+82 62 613 5700,bus_stop,platform
34.997617,126.8209001,1957,도래,Dorae,도래,+82 62 613 5700,bus_stop,platform
35.11649444,126.6846556,2156,광산구유스호스텔,Gwangsan-gu Youth Hostel,광산구유스호스텔,+82 62 613 5700,bus_stop,platform
35.24159722,127.0227306,2233,창평훈련장,Changpyeong Army Training Center,창평훈련장,+82 62 613 5700,bus_stop,platform
35.26915,126.940125,1846,삼지리,Samji-li,삼지리,+82 62 613 5700,bus_stop,platform
35.23015556,126.7368472,2043,석동,Seokdong ,석동,+82 62 613 5700,bus_stop,platform
35.12125117,126.8985147,305,진월대주아파트,Jinwol Daeju Apt.,진월대주아파트,+82 62 613 5700,bus_stop,platform
35.18389167,127.0004861,1913,광주호호수생태원,Gwangjuho Lake Eco Park,광주호호수생태원,+82 62 613 5700,bus_stop,platform
35.21204514,126.8275497,3895,도천저수지,Docheon Reservoir,도천저수지,+82 62 613 5700,bus_stop,platform
35.18212148,127.0078114,3902,닭뫼,Dakmoe,닭뫼,+82 62 613 5700,bus_stop,platform
35.1057026,126.9374428,234,녹동,Nokdong,녹동,+82 62 613 5700,bus_stop,platform
35.12602862,126.7560331,1666,평동초교,Pyeongdong Elementary School,평동초교,+82 62 613 5700,bus_stop,platform
35.15855774,126.9017156,2778,북성중,Buksung Middle School,북성중,+82 62 613 5700,bus_stop,platform
35.11042154,126.9045997,3897,송화마을3단지,Songhwa Village Apt. Complex 3,송화마을3단지,+82 62 613 5700,bus_stop,platform
35.176154,127.010321,3904,평촌,Pyeongchon,평촌,+82 62 613 5700,bus_stop,platform
35.22115,126.82835,71,동원촌,Dongwonchon,동원촌,+82 62 613 5700,bus_stop,platform
35.18688056,126.880775,548,박물관입구,Museum Entrance,박물관입구,+82 62 613 5700,bus_stop,platform
35.14372061,126.799657,808,송정공원역,Songjeong Park Station,송정공원역,+82 62 613 5700,bus_stop,platform
35.17457002,126.8177683,1048,운남삼성아파트,Unnam Samsung Apt,운남삼성아파트,+82 62 613 5700,bus_stop,platform
35.244393,126.914834,2272,북초교,Buk Elemetary School,북초교,+82 62 613 5700,bus_stop,platform
35.220006,126.831417,2736,첨단대우아파트,Cheomdan Daewoo Apt.,첨단대우아파트,+82 62 613 5700,bus_stop,platform
35.21298101,126.9009619,3950,유격훈련장,Ranger Training Center,유격훈련장,+82 62 613 5700,bus_stop,platform
35.16106374,126.8098032,3951,광주무역회관,Gwangju Trade Center,광주무역회관,+82 62 613 5700,bus_stop,platform
35.16178039,126.8098829,3952,광주무역회관,Gwangju Trade Center,광주무역회관,+82 62 613 5700,bus_stop,platform
35.10941883,126.8672849,3953,광주김치타운,Gwangju Kimchi Town,광주김치타운,,bus_stop,platform
35.18170419,126.9374767,3552,각화중,Gakhwa Middle School,각화중,+82 62 613 5700,bus_stop,platform
35.29496111,126.9237139,1857,고성리,Goseong-li,고성리,+82 62 613 5700,bus_stop,platform
35.05329041,126.9713763,1520,대리교통광장(서),Daeri Traffic plaza(West),대리교통광장(서),+82 62 613 5700,bus_stop,platform
35.16138157,126.8856972,2873,현대자동차,Hyundai Motors,현대자동차,+82 62 613 5700,bus_stop,platform
35.15114722,126.9269278,254,농장다리,Nongjangdari Overpass,농장다리,+82 62 613 5700,bus_stop,platform
35.155079,126.845536,1450,계수초교,Gyesu Elementary School,계수초교,+82 62 613 5700,bus_stop,platform
35.15699824,126.9088846,830,수창초교후문,Soochang Elementary School Back Gate,수창초교후문,+82 62 613 5700,bus_stop,platform
35.24446667,126.8638321,1116,월정,Woljeong ,월정,+82 62 613 5700,bus_stop,platform
35.16021082,126.9871504,1396,풍암정,Pungamjeong Pavilion,풍암정,+82 62 613 5700,bus_stop,platform
35.12163611,126.8329667,2181,동하,Dongha,동하,+82 62 613 5700,bus_stop,platform
35.18701256,126.9141228,76,자연과학고,Natural Science High School,자연과학고,+82 62 613 5700,bus_stop,platform
35.20246536,126.9354549,1581,중소기업진흥공단호남연수원,SBC Honam Training Institute,중소기업진흥공단호남연수원,+82 62 613 5700,bus_stop,platform
35.160597,126.900038,639,서림초교입구,Seorim Elementary School Entrance,서림초교입구,+82 62 613 5700,bus_stop,platform
35.147873,126.888924,19,건강협회(남),Association of Health Promotion (South),건강협회(남),+82 62 613 5700,bus_stop,platform
35.185051,126.820281,3652,광주농수산물유통센터(북),Agricultural Products Distribution Center (North),광주농수산물유통센터(북),+82 62 613 5700,bus_stop,platform
35.09730155,126.8951288,3794,고령친화종합체험관,Senior Technology Complex,고령친화종합체험관,+82 62 613 5700,bus_stop,platform
35.05306111,126.9662944,2023,벽라리(화순역),Byeongna-ri (Hwasun Station),벽라리(화순역),+82 62 613 5700,bus_stop,platform
35.12358684,126.9092292,206,구남구청,Former Nam-gu Office,구남구청,+82 62 613 5700,bus_stop,platform
35.13443408,126.9138515,618,양림휴먼시아1차,Yangnim Humansia 1st Apt.,양림휴먼시아1차,+82 62 613 5700,bus_stop,platform
35.12675556,126.9112,623,봉선삼익사거리,Bongseon Samik Sageori,봉선삼익사거리,+82 62 613 5700,bus_stop,platform
35.155075,126.846058,3422,상무한국아파트,Sangmu Hankuk Apt.,상무한국아파트,+82 62 613 5700,bus_stop,platform
35.15717778,126.6939611,3569,양촌(삼도),Yangchon (Samdo),양촌(삼도),+82 62 613 5700,bus_stop,platform
35.21004839,126.9314426,3900,망향동산길,Manghyangdongsan Road,망향동산길,+82 62 613 5700,bus_stop,platform
35.00706052,126.8199378,3140,산림자원연구소,Forest Resources Research Institute,산림자원연구소,+82 62 613 5700,bus_stop,platform
35.18608876,126.9237274,2361,문흥라인아파트,Munheung Line Apt.,문흥라인아파트,+82 62 613 5700,bus_stop,platform
35.15047778,126.9058889,1035,우진아파트,Woojin Apt.,우진아파트,+82 62 613 5700,bus_stop,platform
35.1631456,126.9137952,834,중흥초교,Jungheung Elementary School,중흥초교,+82 62 613 5700,bus_stop,platform
35.18345278,126.9213972,543,문흥중앙초교,Munheung Jungang Elementary School,문흥중앙초교,+82 62 613 5700,bus_stop,platform
35.15182193,126.8720355,1181,잿등,Jaetdeung,잿등,+82 62 613 5700,bus_stop,platform
35.12437512,126.7371815,1663,용강입구,Yonggang Entrance,용강입구,+82 62 613 5700,bus_stop,platform
35.11890753,126.7804083,1669,상선,Sangseon,상선,+82 62 613 5700,bus_stop,platform
35.20888521,126.8448679,3557,봉산중,Bongsan Middle School,봉산중,+82 62 613 5700,bus_stop,platform
35.146727,126.912419,3577,중앙대교(동),Jungangdaegyo Bridge (East),중앙대교(동),+82 62 613 5700,bus_stop,platform
35.13796111,126.9014556,570,백운초교(북),Baegun Elementary School (North),백운초교(북),+82 62 613 5700,bus_stop,platform
35.21047216,126.8962577,1445,일신초교,Ilsin Elementary School,일신초교,+82 62 613 5700,bus_stop,platform
35.032874,127.057255,979,천운장,Cheonunjang,천운장,+82 62 613 5700,bus_stop,platform
35.249875,127.0382,2236,대덕,Daedeok,대덕,+82 62 613 5700,bus_stop,platform
35.14454,126.914496,2971,사직공원앞,Sajik Park Front,사직공원앞,+82 62 613 5700,bus_stop,platform
35.17942109,126.8954762,1000,용봉동성당,Yongbong-dong Catholic Church,용봉동성당,+82 62 613 5700,bus_stop,platform
35.22716944,126.8839611,3306,대원정사,Daewonjeongsa Temple,대원정사,+82 62 613 5700,bus_stop,platform
35.15290833,126.8071889,171,소촌금호아파트,Sochon Kumho Apt.,소촌금호아파트,+82 62 613 5700,bus_stop,platform
35.11215278,126.9005139,3016,효덕동행정복지센터,Hyodeok-dong Administration Welfare Center,효덕동행정복지센터,+82 62 613 5700,bus_stop,platform
35.14890833,126.9084,844,시민회관,Civic Center,시민회관,+82 62 613 5700,bus_stop,platform
35.0719001,126.804146,1790,지동,Jidong,지동,+82 62 613 5700,bus_stop,platform
35.23856679,126.8628165,1344,고내입구,Gonae Entrance,고내입구,+82 62 613 5700,bus_stop,platform
35.08640692,126.7720809,1675,창교,Changgyo,창교,+82 62 613 5700,bus_stop,platform
35.03220556,126.9396417,2087,주도리3구,Judori District 3,주도리3구,+82 62 613 5700,bus_stop,platform
35.28760833,126.9089,2257,행정리,HaengJeong-li,행정리,+82 62 613 5700,bus_stop,platform
35.07438333,126.91365,2045,세량리,Seryang-li,세량리,+82 62 613 5700,bus_stop,platform
35.12959092,126.7534774,3630,평동중,Pyeongdong Middle School,평동중,+82 62 613 5700,bus_stop,platform
35.14144722,126.7630917,3759,지죽동,Jijuk-dong,지죽동,+82 62 613 5700,bus_stop,platform
35.182663,126.794791,2628,하남3지구모아엘가,Hanam 3 District Moaelga,하남3지구모아엘가,+82 62 613 5700,bus_stop,platform
35.18598889,126.9051194,1459,오치한전(북),Ochi KEPCO (North),오치한전(북),+82 62 613 5700,bus_stop,platform
35.15055833,126.9110778,1365,충장로5가입구,Chungjangno 5(o)-ga Entrance,충장로5가입구,+82 62 613 5700,bus_stop,platform
35.08144317,126.7671462,1678,용봉입구,Yongbong Entrance,용봉입구,+82 62 613 5700,bus_stop,platform
35.03850833,126.8421472,2320,광남고,Gwangnam High School,광남고,+82 62 613 5700,bus_stop,platform
35.15267,126.908613,97,광주학생운동기념탑,Monument for Gwangju Student Movement,광주학생운동기념탑,+82 62 613 5700,bus_stop,platform
35.06032778,126.9978028,1454,화순용곡마을,Hwasun Yonggokmaeul,화순용곡마을,+82 62 613 5700,bus_stop,platform
35.075863,126.804238,1792,화장뒷길,Hwajang Back Road,화장뒷길,+82 62 613 5700,bus_stop,platform
35.17154489,126.869739,3506,동천마을6단지,Dongcheon Village Apt Complex 6,동천마을6단지,+82 62 613 5700,bus_stop,platform
35.15948757,126.8630565,496,상무호반3차,Sangmu Hoban 3rd Apt.,상무호반3차,+82 62 613 5700,bus_stop,platform
35.03010833,126.8330667,2323,방축마을,Bangchuk Maeul,방축마을,+82 62 613 5700,bus_stop,platform
35.17995833,126.914,1249,주공아파트,Jugong Apt.,주공아파트,+82 62 613 5700,bus_stop,platform
35.17090556,126.8810972,786,공구의거리,Street of Tools,공구의거리,+82 62 613 5700,bus_stop,platform
35.1433,126.884116,1265,주월초교,Juwol Elementary School,주월초교,+82 62 613 5700,bus_stop,platform
35.16069,126.900396,640,서림초교입구,Seorim Elementary School Entrance,서림초교입구,+82 62 613 5700,bus_stop,platform
35.16369444,126.9195528,2770,서방사거리육교,Seobang Sageori Overpass,서방사거리육교,+82 62 613 5700,bus_stop,platform
35.18707778,126.6822333,2052,신촌(본량),Sinchon (Bollyang),신촌(본량),+82 62 613 5700,bus_stop,platform
35.20750743,126.7954964,3249,진곡 동길,Jingok East Road,진곡 동길,+82 62 613 5700,bus_stop,platform
35.10098485,126.7775932,1672,유림,Yurim,유림,+82 62 613 5700,bus_stop,platform
35.13819297,126.7917682,811,광주송정역,Gwangju Songjeong Station ,광주송정역,+82 62 613 5700,bus_stop,platform
35.16229444,126.920025,2771,계림사거리,Gyerim Sageori,계림사거리,+82 62 613 5700,bus_stop,platform
35.01728611,126.8265389,1952,산제 아랫길,Sanje Downside,산제 아랫길,+82 62 613 5700,bus_stop,platform
35.019676,126.82854,2326,매화동(나주),Maehwadong(Naju),매화동(나주),+82 62 613 5700,bus_stop,platform
35.16332236,126.9091623,89,삼성콜센터,Samsung Call Center,삼성콜센터,+82 62 613 5700,bus_stop,platform
35.256504,126.779236,2007,덕성,Deokseong,덕성,+82 62 613 5700,bus_stop,platform
35.229539,126.733335,2732,임동교,Imdonggyo Bridge,임동교,+82 62 613 5700,bus_stop,platform
35.24351667,126.8126944,2089,장성남중,Jangseong Nam Middle School,장성남중,+82 62 613 5700,bus_stop,platform
35.21121389,126.7885194,1320,진곡 서길,Jingok West Road,진곡 서길,+82 62 613 5700,bus_stop,platform
35.21048889,126.7611778,2097,천동(광산구),Cheondong (Gwangsan-gu),천동(광산구),+82 62 613 5700,bus_stop,platform
35.17252778,126.8886,25,경신여고,Gyeongsin Girls' High School,경신여고,+82 62 613 5700,bus_stop,platform
35.26185556,126.8448639,1163,작동,Jakdong,작동,+82 62 613 5700,bus_stop,platform
35.160944,126.893999,3047,전남방직,Chonbang Textile,전남방직,+82 62 613 5700,bus_stop,platform
35.15220731,126.8971293,345,돌고개역(동),Dolgogae Station (East),돌고개역(동),+82 62 613 5700,bus_stop,platform
35.15428231,126.931509,673,산수시장,Sansu Market,산수시장,+82 62 613 5700,bus_stop,platform
35.13796389,126.8746806,426,럭키아파트,Lucky Apt.,럭키아파트,+82 62 613 5700,bus_stop,platform
35.21282789,126.9486399,475,석곡동행정복지센터,Seokgok-dong Administration Welfare Center,석곡동행정복지센터,+82 62 613 5700,bus_stop,platform
35.13246944,126.8615611,747,금호도개공아파트,Kumho Dogaegong Apt.,금호도개공아파트,+82 62 613 5700,bus_stop,platform
35.18066111,126.9363361,15,각화초교,Gakhwa Elementary School,각화초교,+82 62 613 5700,bus_stop,platform
35.04730833,126.9565722,28,계소리3구,Gyesori District 3,계소리3구,+82 62 613 5700,bus_stop,platform
35.14410716,126.8124846,48,공항역,Airport Station,공항역,+82 62 613 5700,bus_stop,platform
35.20635556,126.95105,83,동초교,Dong Elementary School,동초교,+82 62 613 5700,bus_stop,platform
35.17746667,126.8367111,65,풍영정입구,Pungyeongcheong entrance,풍영정입구,+82 62 613 5700,bus_stop,platform
35.12663933,126.89785,278,대광여고,Daegwang Girls' High School,대광여고,+82 62 613 5700,bus_stop,platform
35.09395556,126.8988944,2006,덕남,Deongnam,덕남,+82 62 613 5700,bus_stop,platform
35.15617222,126.7923806,420,어룡초교,Eoryong Elementary School,어룡초교,+82 62 613 5700,bus_stop,platform
35.16395818,126.909743,90,광주역(동),Gwangju Station (East),광주역(동),+82 62 613 5700,bus_stop,platform
35.13793681,126.7562872,3633,영천,Yeongcheon,영천,+82 62 613 5700,bus_stop,platform
35.11430833,126.8295722,1720,서창동주민센터,Seochang-dong Community Service Center,서창동주민센터,+82 62 613 5700,bus_stop,platform
35.2421639,126.9167129,3854,효령동,Hyoyeong-dong,효령동,+82 62 613 5700,bus_stop,platform
35.223484,126.825694,3493,비아사거리,Bia Sageori,비아사거리,+82 62 613 5700,bus_stop,platform
35.206398,126.774475,955,연동삼거리,Yeondong Samgeori,연동삼거리,+82 62 613 5700,bus_stop,platform
35.19901819,126.8324368,3934,수완지구,Suwan District,수완지구,+82 62 613 5700,bus_stop,platform
35.19180343,126.8515758,552,반촌,Banchon,반촌,+82 62 613 5700,bus_stop,platform
35.211757,126.872376,704,양산타운,Yangsan Town Apt.,양산타운,+82 62 613 5700,bus_stop,platform
35.158925,126.895063,3490,발산교(남),Balsangyo Bridge (South),발산교(남),+82 62 613 5700,bus_stop,platform
35.093399,126.81464,3294,석교삼거리,Seokgyo Samgeori,석교삼거리,+82 62 613 5700,bus_stop,platform
35.15481944,126.9111306,3581,롯데백화점(북),Lotte Department Store (North),롯데백화점(북),+82 62 613 5700,bus_stop,platform
35.16095556,126.9332528,400,두암타운후문,Duam Town Apt. Back Gate,두암타운후문,+82 62 613 5700,bus_stop,platform
35.23633056,126.7380222,2069,월봉서원입구,Wolbongseowon Confucian Academy Entrance,월봉서원입구,+82 62 613 5700,bus_stop,platform
35.19884167,126.875825,437,롯데칠성,Lotte Chilsung Beverage,롯데칠성,+82 62 613 5700,bus_stop,platform
35.1108996,126.8291842,3789,절골입구(북),Jeolgol Entrance (North),절골입구(북),+82 62 613 5700,bus_stop,platform
35.120657,126.866152,3694,풍암동부센트리빌,Pungam Dongbu Centreville Apt.,풍암동부센트리빌,+82 62 613 5700,bus_stop,platform
35.13468273,126.7503146,3754,용동(평동),Yong-dong (Pyeong-dong),용동(평동),+82 62 613 5700,bus_stop,platform
35.154147,126.843109,3415,상무해광한신아파트,Sangmu Haegwang Hanshin Apt.,상무해광한신아파트,+82 62 613 5700,bus_stop,platform
35.30080556,126.9323639,1854,농협판매장,Agricultural Cooperative Product Market,농협판매장,+82 62 613 5700,bus_stop,platform
35.17008859,126.8638365,2996,동천동행정복지센터,Dongcheon-dong  Administration Welfare Center,동천동행정복지센터,+82 62 613 5700,bus_stop,platform
35.22831389,126.8602667,1392,광주테크노파크,Gwangju Techno Park,광주테크노파크,+82 62 613 5700,bus_stop,platform
35.135008,126.895598,508,무등시장입구(북),Mudeung Market Entrance (North),무등시장입구(북),+82 62 613 5700,bus_stop,platform
35.13518611,126.9016,569,백운우체국,Baegun Post Office,백운우체국,+82 62 613 5700,bus_stop,platform
35.1211801,126.815328,3403,신야촌,Sinyachon,신야촌,+82 62 613 5700,bus_stop,platform
35.18247293,126.909043,290,도로교통공단 대신파크,KoROAD / Daesin Park Apt.,도로교통공단 대신파크,+82 62 613 5700,bus_stop,platform
35.15523084,126.9133383,366,동부소방서,Dongbu Fire Station,동부소방서,+82 62 613 5700,bus_stop,platform
35.13689444,126.9139222,2760,기독병원,Christian Hospital,기독병원,+82 62 613 5700,bus_stop,platform
35.1224794,126.8613893,2955,풍암사거리(동),Pungam Sageori (East),풍암사거리(동),+82 62 613 5700,bus_stop,platform
35.2424519,126.9164833,3853,효령동,Hyoyeong-dong,효령동,+82 62 613 5700,bus_stop,platform
35.185249,126.794971,3093,광산소방서입구,Gwangsan Fire Station Entrance,광산소방서입구,+82 62 613 5700,bus_stop,platform
35.00778889,127.0933167,668,사평초교,Sapyeong Elementary School,사평초교,+82 62 613 5700,bus_stop,platform
35.162644,126.6791901,1620,삼암,Samam,삼암,+82 62 613 5700,bus_stop,platform
35.17759722,126.9236389,532,문화중,Munhwa Middle School,문화중,+82 62 613 5700,bus_stop,platform
35.188375,126.7951028,3094,세방전지,Global Battery Co. Ltd,세방전지,+82 62 613 5700,bus_stop,platform
35.134893,126.786499,257,신덕마을,Sindeok Village,신덕마을,+82 62 613 5700,bus_stop,platform
35.14496111,126.8686611,1295,쌍촌시영아파트,Ssangchon Siyeong Apt.,쌍촌시영아파트,+82 62 613 5700,bus_stop,platform
35.03487222,126.8370028,2321,광주어망,Kwangju Fishing Net,광주어망,+82 62 613 5700,bus_stop,platform
35.29386111,126.9350111,1852,나산리,Nasanli,나산리,+82 62 613 5700,bus_stop,platform
35.048077,126.905535,4158,앵남2구,Aengnam District 2,앵남2구,+82 62 613 5700,bus_stop,platform
35.26608173,126.9029527,3158,강의리,Gangui-li,강의리,+82 62 613 5700,bus_stop,platform
35.23437778,126.8605972,3198,현진기업,Hyunjin Enterprise,현진기업,+82 62 613 5700,bus_stop,platform
35.166044,126.8472801,3288,유덕2교차로,Yudeok 2 Intersection,유덕2교차로,+82 62 613 5700,bus_stop,platform
35.18575278,126.8031972,3331,신성화학,Sinseong Chemical,신성화학,+82 62 613 5700,bus_stop,platform
35.16882034,126.7416184,3357,박뫼,Bangmoe,박뫼,+82 62 613 5700,bus_stop,platform
35.16208889,126.9176389,96,4.19기념관,April 19th Memorial Hall,4.19기념관,+82 62 613 5700,bus_stop,platform
35.158998,126.889058,107,광천초교,Gwangcheon Elementary School,광천초교,+82 62 613 5700,bus_stop,platform
35.152818,126.911605,155,금남로5가역,Geumnamno 5(o)-ga Station,금남로5가역,+82 62 613 5700,bus_stop,platform
35.1714401,126.876691,215,광암교입구,Gwangamgyo Bridge Entrance,광암교입구,+82 62 613 5700,bus_stop,platform
35.12684766,126.8974717,277,대광여고,Daegwang Girls' High School,대광여고,+82 62 613 5700,bus_stop,platform
35.13049167,126.8873056,1076,금당중,Keumdang Middle School,금당중,+82 62 613 5700,bus_stop,platform
35.0937386,126.9406891,101,남계촌,Namgyechon,남계촌,+82 62 613 5700,bus_stop,platform
35.16595833,126.8704611,699,삼우아파트,Samwoo Apt.,삼우아파트,+82 62 613 5700,bus_stop,platform
35.21810278,126.8112889,341,도촌교,Dochon Gyo Birdge,도촌교,+82 62 613 5700,bus_stop,platform
35.15431389,126.8766333,1484,화정현대아파트,Hwajeong Hyundai Apt.,화정현대아파트,+82 62 613 5700,bus_stop,platform
35.17033611,126.803175,1389,산정중입구,Sanjeong Middle School Entrance,산정중입구,+82 62 613 5700,bus_stop,platform
35.13391944,126.9523417,790,성촌마을/전통문화관,Seongchon Village/Traditional Literature Museum,성촌마을/전통문화관,+82 62 613 5700,bus_stop,platform
35.15733611,126.7963167,838,광주인력개발원,Gwangju Human Resources Development Center,광주인력개발원,+82 62 613 5700,bus_stop,platform
35.181975,126.8807,1359,체육고/폴리텍5대학,Physical Education High School / Korea Polytechnic V,체육고/폴리텍5대학,+82 62 613 5700,bus_stop,platform
35.19662636,126.8067847,3836,화천기공,Hwacheon Machine Tool,화천기공,+82 62 613 5700,bus_stop,platform
35.12530407,126.7585267,1667,옥동,Ok-dong,옥동,+82 62 613 5700,bus_stop,platform
35.17009722,126.7000639,691,명도삼거리,Myeongdo Samgeori,명도삼거리,+82 62 613 5700,bus_stop,platform
35.25033056,126.7428306,980,오룡,Oryong,오룡,+82 62 613 5700,bus_stop,platform
35.10364444,126.8975361,1993,구암,Guam,구암,+82 62 613 5700,bus_stop,platform
35.13633333,126.6635528,2142,쌍내,Ssangnae,쌍내,+82 62 613 5700,bus_stop,platform
35.05631667,126.7840472,2216,승촌,Seungchon,승촌,+82 62 613 5700,bus_stop,platform
35.222522,126.958363,1807,보촌2구,Bochon District 2,보촌2구,+82 62 613 5700,bus_stop,platform
35.149861,126.889012,244,농성파출소,Nongseong Police Substaion,농성파출소,+82 62 613 5700,bus_stop,platform
35.14366417,126.9071001,1576,대성초교,Daeseong Elemntary School,대성초교,+82 62 613 5700,bus_stop,platform
35.22325833,126.946425,1890,주룡,Juryong,주룡,+82 62 613 5700,bus_stop,platform
35.222975,126.8265194,3492,비아사거리,Bia Sageori,비아사거리,+82 62 613 5700,bus_stop,platform
35.13219997,126.8584634,772,서창농협,Seochang Nonghyup,서창농협,+82 62 613 5700,bus_stop,platform
35.1252,126.8196556,3402,신야촌입구,Sinyachon Entrance,신야촌입구,+82 62 613 5700,bus_stop,platform
35.16975,126.9989222,2303,금곡,Geumgok,금곡,+82 62 613 5700,bus_stop,platform
35.02625833,126.8321222,1949,팔마아파트,Palma Apt,팔마아파트,+82 62 613 5700,bus_stop,platform
35.164518,126.8528401,3000,유덕동주민센터,Yudeok-dong Community Service Center,유덕동주민센터,+82 62 613 5700,bus_stop,platform
35.20327778,126.8703167,3205,연제주공아파트,Yeonje Jugong Apt.,연제주공아파트,+82 62 613 5700,bus_stop,platform
35.085025,126.867259,2309,수춘,Suchun,수춘,+82 62 613 5700,bus_stop,platform
35.202594,126.665232,439,마령,Maryeong,마령,+82 62 613 5700,bus_stop,platform
35.0343,127.0133889,1011,용생,Yongsaeng,용생,+82 62 613 5700,bus_stop,platform
35.12582397,126.7874338,1585,공군부대후문,Air Unit Back Gate,공군부대후문,+82 62 613 5700,bus_stop,platform
35.17615556,126.8155944,1043,금구중,Geumgu Middle School,금구중,+82 62 613 5700,bus_stop,platform
35.18144066,126.9042762,1004,용봉한화꿈에그린,Yongbong Hanwha Dream & Green Apt.,용봉한화꿈에그린,+82 62 613 5700,bus_stop,platform
35.06053056,126.9915,2112,화순우체국,Hwasun Post Office,화순우체국,+82 62 613 5700,bus_stop,platform
35.19431318,126.8459014,1183,전남공고,Jeonnam Technical High School ,전남공고,+82 62 613 5700,bus_stop,platform
35.01183889,127.0818722,585,벽송,Byeoksong,벽송,+82 62 613 5700,bus_stop,platform
35.17916576,126.8980202,1021,유창허니문입구,Yuchang Honeymoon Apt. Entrance,유창허니문입구,+82 62 613 5700,bus_stop,platform
35.23715556,126.8214361,711,서태마을입구,Setaemaeul Entrance,서태마을입구,+82 62 613 5700,bus_stop,platform
35.1675554,126.9090803,92,광주역육교,Gwangju Station Overpass,광주역육교,+82 62 613 5700,bus_stop,platform
35.17051374,126.9216712,470,말바우시장(남),Malbawoo market(South),말바우시장(남),+82 62 613 5700,bus_stop,platform
35.16101944,126.9351306,397,율곡초교,Yulgok Elementary School,율곡초교,+82 62 613 5700,bus_stop,platform
35.17841067,126.9122255,908,전남대공과대학,Chonnam National University of Technology,전남대공과대학,+82 62 613 5700,bus_stop,platform
35.20999042,126.9313286,3901,망향동산길,Manghyangdongsan Road,망향동산길,+82 62 613 5700,bus_stop,platform
35.150875,126.8928111,744,서광주한전,Seogwangju KEPCO,서광주한전,+82 62 613 5700,bus_stop,platform
35.10765833,126.8848806,1739,남선산업,Namsun Industry,남선산업,+82 62 613 5700,bus_stop,platform
35.1245076,126.7373736,2172,용강입구,Yonggang Entrance,용강입구,+82 62 613 5700,bus_stop,platform
35.06637222,126.7518639,1703,노안남초교,Noan nam Elementary School,노안남초교,+82 62 613 5700,bus_stop,platform
35.151892,126.888923,751,서구청,Seo-gu Office,서구청,+82 62 613 5700,bus_stop,platform
35.12094738,126.7596199,3776,옥동차량기지,Ok-dong Garage,옥동차량기지,+82 62 613 5700,bus_stop,platform
35.12453056,126.76125,1401,평동우체국,Pyeong-dong Post Office,평동우체국,+82 62 613 5700,bus_stop,platform
35.12457691,126.7614861,2177,평동우체국,Pyeong-dong Post Office,평동우체국,+82 62 613 5700,bus_stop,platform
35.16072865,126.9102273,1288,중흥시장,Jungheung Market,중흥시장,+82 62 613 5700,bus_stop,platform
35.15280146,126.9091722,98,광주학생운동기념탑,Monument for Gwangju Student Movement,광주학생운동기념탑,+82 62 613 5700,bus_stop,platform
35.23721111,126.8215139,2037,서태마을입구,Setaemaeul Entrance,서태마을입구,+82 62 613 5700,bus_stop,platform
35.27383333,126.8301861,323,중앙교회,Jungang Church,중앙교회,+82 62 613 5700,bus_stop,platform
35.2653,126.8386528,1406,평촌,Pyeongchon,평촌,+82 62 613 5700,bus_stop,platform
35.23746667,126.8033167,649,남면보건지소,Nammyeon Branch Community Health Center,남면보건지소,+82 62 613 5700,bus_stop,platform
35.21678611,126.8013139,1421,안청농협,Ancheong Nonghyup,안청농협,+82 62 613 5700,bus_stop,platform
35.17301111,126.9104361,644,북구보건소,Buk-gu Community Health Center,북구보건소,+82 62 613 5700,bus_stop,platform
35.15248333,126.8547556,726,상무병원,Sangmoo Hospital,상무병원,+82 62 613 5700,bus_stop,platform
35.11062588,126.8991488,3772,송화마을1단지입구,Songhwa Village Apt. Complex 1 Entrance,송화마을1단지입구,+82 62 613 5700,bus_stop,platform
35.12988872,126.756869,3639,연호전자,Yeonho Electronics,연호전자,+82 62 613 5700,bus_stop,platform
35.223348,126.824079,1500,비아호반아파트,Bia Hoban Apt.,비아호반아파트,+82 62 613 5700,bus_stop,platform
35.03223611,126.9396333,1258,주도리3구,Judori District 3,주도리3구,+82 62 613 5700,bus_stop,platform
35.00706111,126.8198417,3144,산림자원연구소,Forest Resources Research Institute,산림자원연구소,+82 62 613 5700,bus_stop,platform
35.228731,126.899374,230,생룡,Saengnyong,생룡,+82 62 613 5700,bus_stop,platform
35.09990833,126.8855667,3023,도동,Dodong ,도동,+82 62 613 5700,bus_stop,platform
35.23409722,126.8641667,3199,전남과학대학포스트비,Chunnam Techno University POST-BI,전남과학대학포스트비,+82 62 613 5700,bus_stop,platform
35.15889591,126.8029718,848,우산시영2단지(동),Usan Siyeong Apt. Complex 2 (East),우산시영2단지(동),+82 62 613 5700,bus_stop,platform
35.243689,126.878332,3427,신용마을,Sinyong Village,신용마을,+82 62 613 5700,bus_stop,platform
35.124834,126.906727,3433,봉선대화아파트,Bongseon Daehwa Apt.,봉선대화아파트,+82 62 613 5700,bus_stop,platform
35.05221944,126.7313056,3450,천동입구,Cheondong Entrance,천동입구,+82 62 613 5700,bus_stop,platform
35.15890276,126.8079032,63,광산중,Gwangsan Middle School,광산중,+82 62 613 5700,bus_stop,platform
35.19740278,126.9534444,3044,분토(북구),Bunto (Buk-gu),분토(북구),+82 62 613 5700,bus_stop,platform
35.160417,126.892024,3281,발산,Balsan,발산,+82 62 613 5700,bus_stop,platform
35.10836944,126.6851972,2153,송학,Songhak,송학,+82 62 613 5700,bus_stop,platform
35.224075,126.978375,1812,고서중,Goseo Middle School,고서중,+82 62 613 5700,bus_stop,platform
35.21664811,126.834627,755,응암공원,Eungam Park,응암공원,+82 62 613 5700,bus_stop,platform
35.052275,126.9621917,3124,화순역,Hwasun Station,화순역,+82 62 613 5700,bus_stop,platform
35.0567701,126.834787,3143,평산리,Pyeongsan-li,평산리,+82 62 613 5700,bus_stop,platform
35.26609284,126.9028409,3151,강의리,Gangui-li,강의리,+82 62 613 5700,bus_stop,platform
35.274493,126.888556,1867,한재중,Hanjae Middle School,한재중,+82 62 613 5700,bus_stop,platform
35.27680496,126.8886938,3160,대전파출소(남),Daejeon Police Box(South),대전파출소(남),+82 62 613 5700,bus_stop,platform
35.13650528,126.9008702,3197,백운초교(남),Baegun Elementary School (South),백운초교(남),+82 62 613 5700,bus_stop,platform
35.20636957,126.8708624,3208,양산초교,Yangsan Elementary School,양산초교,+82 62 613 5700,bus_stop,platform
35.145397,126.839575,3275,김대중컨벤션센터,Kimdaejung Convention Center,김대중컨벤션센터,+82 62 613 5700,bus_stop,platform
35.21554444,126.7617806,3313,두동,Dudong,두동,+82 62 613 5700,bus_stop,platform
35.202673,126.804376,3321,하남삼성전자사거리(북),Hanam Samsung Electronics Sageori (North),하남삼성전자사거리(북),+82 62 613 5700,bus_stop,platform
35.08111944,126.9518083,3348,너릿재공원,Neoritjae Park,너릿재공원,+82 62 613 5700,bus_stop,platform
35.155161,126.901354,3283,양동시장역(천변),Yangdong Market Station (Riverside),양동시장역(천변),+82 62 613 5700,bus_stop,platform
35.29771111,126.9342333,1853,하촌1길,Hachon 1-gil,하촌1길,+82 62 613 5700,bus_stop,platform
35.09810127,126.7751292,1708,동곡,Donggok,동곡,+82 62 613 5700,bus_stop,platform
34.99941389,126.8205417,3138,다도초교,Dado Elementary School,다도초교,+82 62 613 5700,bus_stop,platform
35.27880833,126.8943806,3159,원천리,Woncheol-li,원천리,+82 62 613 5700,bus_stop,platform
35.13581636,126.8978922,1261,주월주택단지,Juwol Housing Area,주월주택단지,+82 62 613 5700,bus_stop,platform
35.23397222,126.8642361,3200,전남과학대학포스트비,Chunnam Techno University POST-BI,전남과학대학포스트비,+82 62 613 5700,bus_stop,platform
35.21787765,126.8550833,3273,교통공원,Transportation Park,교통공원,+82 62 613 5700,bus_stop,platform
35.09909777,126.8732092,3298,임암,Imam,임암,+82 62 613 5700,bus_stop,platform
35.220656,126.77352,3317,신촌 아랫길(임곡),Sinchon Lower Road (Imgok),신촌 아랫길(임곡),+82 62 613 5700,bus_stop,platform
35.09227778,126.9584,3504,용연정수장,Yongyeon Purification Plant,용연정수장,+82 62 613 5700,bus_stop,platform
35.22200043,126.8408897,3194,쌍암공원,Ssangam Park,쌍암공원,+82 62 613 5700,bus_stop,platform
35.2115358,126.845688,3217,첨단부영아파트,Cheomdan Booyoung Apt.,첨단부영아파트,+82 62 613 5700,bus_stop,platform
35.15477836,126.8914269,3232,담배인삼공사,KT&G,담배인삼공사,+82 62 613 5700,bus_stop,platform
35.10013333,126.8780833,3022,도동교,Dodonggyo Bridge,도동교,+82 62 613 5700,bus_stop,platform
35.123705,126.912451,706,봉선삼익아파트(남),Bongseon Samik Apt. (South),봉선삼익아파트(남),+82 62 613 5700,bus_stop,platform
35.16668333,126.8917889,1156,임동한국아델리움1차,Im-dong Hankuk Adelium 1st Apt.,임동한국아델리움1차,+82 62 613 5700,bus_stop,platform
35.21751697,126.855003,3272,교통공원,Transportation Park,교통공원,+82 62 613 5700,bus_stop,platform
35.2206001,126.773583,3316,신촌 아랫길(임곡),Sinchon Lower Road (Imgok),신촌 아랫길(임곡),+82 62 613 5700,bus_stop,platform
35.178272,126.807785,3359,흑석사거리(남),Heukseok Sageori (South),흑석사거리(남),+82 62 613 5700,bus_stop,platform
35.18501869,126.9057045,1460,오치한전,Ochi KEPCO,오치한전,+82 62 613 5700,bus_stop,platform
35.232311,126.895902,3212,지산마을,Jisan Village,지산마을,+82 62 613 5700,bus_stop,platform
35.17370897,126.8885741,26,경신여고(일방로),Gyeongsin Girls' High School (One-way road),경신여고(일방로),+82 62 613 5700,bus_stop,platform
35.2076269,126.7952522,3250,진곡 동길,Jingok East Road,진곡 동길,+82 62 613 5700,bus_stop,platform
35.16126826,126.879837,110,광주종합버스터미널,U.square Gwangju Bus Terminal,광주종합버스터미널,+82 62 613 5700,bus_stop,platform
35.19453509,126.9040784,118,31사단,31st Infantry Division,31사단,+82 62 613 5700,bus_stop,platform
35.030303,127.075646,128,구암2리,Guam-li 2,구암2리,+82 62 613 5700,bus_stop,platform
35.166497,126.861119,147,버들주공1단지,Beodeul Jugong Apt. Complex 1,버들주공1단지,+82 62 613 5700,bus_stop,platform
35.16459969,126.8087118,168,어등초교,Odung Elementary School,어등초교,+82 62 613 5700,bus_stop,platform
35.18872487,126.8991799,176,광주공고입구,Gwangju Technical High School Entrance,광주공고입구,+82 62 613 5700,bus_stop,platform
35.14048611,126.90205,191,까치고개,Kkachi Pass,까치고개,+82 62 613 5700,bus_stop,platform
35.00697222,127.0953167,211,남면사무소,Nam-Myeon Office(Hwasun),남면사무소,+82 62 613 5700,bus_stop,platform
35.0917625,126.9421844,228,육판리,Yukpalli,육판리,+82 62 613 5700,bus_stop,platform
35.14913318,126.9370161,3300,동산초교옆,Side of Dongsan Elementary School,동산초교옆,+82 62 613 5700,bus_stop,platform
35.17780688,126.8951955,3303,용봉모아아파트,Yongbong Moa Apt.,용봉모아아파트,+82 62 613 5700,bus_stop,platform
35.20024269,126.934141,3311,중소기업진흥공단호남연수원,SBC Honam Training Institute,중소기업진흥공단호남연수원,+82 62 613 5700,bus_stop,platform
35.22463889,126.8252833,3319,비아1동,Bia 1(il)-dong,비아1동,+82 62 613 5700,bus_stop,platform
35.12933333,126.8174944,3342,신광,Shingwang,신광,+82 62 613 5700,bus_stop,platform
35.11076085,126.8287126,1762,절골입구(서),Jeolgol Entrance (West),절골입구(서),+82 62 613 5700,bus_stop,platform
35.17503333,126.9124722,1199,전남대스포츠센터,Chonnam National University Sport Center,전남대스포츠센터,+82 62 613 5700,bus_stop,platform
35.235746,126.893748,3210,용전사거리(남),Yongjeon Sageori (South),용전사거리(남),+82 62 613 5700,bus_stop,platform
35.18740827,126.8648818,3214,동림푸른마을,Dongnim Pureun Village Apt.,동림푸른마을,+82 62 613 5700,bus_stop,platform
35.206175,126.7970111,3251,원예농협,Horticultural Cooperative,원예농협,+82 62 613 5700,bus_stop,platform
35.30769167,126.9199056,3471,수북,Subuk,수북,+82 62 613 5700,bus_stop,platform
35.186276,126.7824601,123,구강리,Gugang-ri,구강리,+82 62 613 5700,bus_stop,platform
35.03346667,127.0730389,130,구암1리,Guam-li 1,구암1리,+82 62 613 5700,bus_stop,platform
35.17508597,126.81355,150,풍영정천1교,Pungyeongjeongcheongyo 1 Bridge,풍영정천1교,+82 62 613 5700,bus_stop,platform
35.15424152,126.8074216,170,소촌금호아파트,Sochon Kumho Apt.,소촌금호아파트,+82 62 613 5700,bus_stop,platform
35.18888509,126.898859,177,광주공고입구,Gwangju Technical High School Entrance,광주공고입구,+82 62 613 5700,bus_stop,platform
35.12693817,126.7768935,193,꽃동네,Kkot Village,꽃동네,+82 62 613 5700,bus_stop,platform
35.00700556,127.0954917,212,남면사무소,Nam-Myeon Office(Hwasun),남면사무소,+82 62 613 5700,bus_stop,platform
35.200548,126.665425,235,녹서,Nokseo,녹서,+82 62 613 5700,bus_stop,platform
35.02645556,127.0175389,239,동면농공단지,Dongmyeon Agricultural Complex ,동면농공단지,+82 62 613 5700,bus_stop,platform
35.15002163,126.8890678,245,농성파출소,Nongseong Police Substaion,농성파출소,+82 62 613 5700,bus_stop,platform
35.20534,126.663865,255,패밀리농장,Family Farmland,패밀리농장,+82 62 613 5700,bus_stop,platform
34.99188611,126.9579583,265,능주사거리,Neungju 4-Way Junc,능주사거리,+82 62 613 5700,bus_stop,platform
35.151785,126.779912,3228,보문고,Bomun High School,보문고,+82 62 613 5700,bus_stop,platform
35.193711,126.899406,39,고려고,Korea High School,고려고,+82 62 613 5700,bus_stop,platform
35.1643997,126.8019858,87,광주여대,Kwangju Women's University,광주여대,+82 62 613 5700,bus_stop,platform
35.159266,126.888679,108,광천초교,Gwangcheon Elementary School,광천초교,+82 62 613 5700,bus_stop,platform
35.16312862,126.9067131,116,광호예식장,Gwangho Wedding Hall,광호예식장,+82 62 613 5700,bus_stop,platform
35.03023056,127.0754861,127,구암2리,Guam-li 2,구암2리,+82 62 613 5700,bus_stop,platform
35.14220804,126.8250024,145,장암마을,Jangam Village,장암마을,+82 62 613 5700,bus_stop,platform
35.18143889,126.9333528,166,금호아파트,Kumho Apt.,금호아파트,+82 62 613 5700,bus_stop,platform
35.14468333,126.7903361,174,금호타이어,Kumho Tire,금호타이어,+82 62 613 5700,bus_stop,platform
35.14786447,126.8404194,189,5.18자유공원,May 18th Liberty Park,5.18자유공원,+82 62 613 5700,bus_stop,platform
35.12214722,126.9176528,204,남구문화예술회관,Nam-gu Culture and Art Center,남구문화예술회관,+82 62 613 5700,bus_stop,platform
35.12702426,126.9308279,225,광주남초교,Gwangju Nam Elementary School,광주남초교,+82 62 613 5700,bus_stop,platform
35.02638889,127.0174472,238,동면농공단지,Dongmyeon Agricultural Complex ,동면농공단지,+82 62 613 5700,bus_stop,platform
35.15607192,126.8945042,242,그린파크,Green Park Apt.,그린파크,+82 62 613 5700,bus_stop,platform
35.15102514,126.9292384,253,농장다리,Nongjangdari Overpass,농장다리,+82 62 613 5700,bus_stop,platform
34.98648056,126.9599972,262,능주고,Neungju High School,능주고,+82 62 613 5700,bus_stop,platform
35.04297778,127.0035917,272,다지2구,Daji District 2,다지2구,+82 62 613 5700,bus_stop,platform
35.304507,126.926033,3470,포백,Pobaek,포백,+82 62 613 5700,bus_stop,platform
35.15208947,126.8098833,1031,우산동중흥S클래스,Usan-dong Jungheung S-Class,우산동중흥S클래스,+82 62 613 5700,bus_stop,platform
35.17922002,126.8200363,1046,목련마을,Mongryeon Village,목련마을,+82 62 613 5700,bus_stop,platform
35.13226111,126.9424167,1057,운림중,Unlim Middle School,운림중,+82 62 613 5700,bus_stop,platform
35.15347189,126.8475225,1071,운천초교,Uncheon Elementary School,운천초교,+82 62 613 5700,bus_stop,platform
35.16750863,126.8087464,1090,월곡일신아파트,Wolgok Ilshin Apt.,월곡일신아파트,+82 62 613 5700,bus_stop,platform
35.141367,126.8939,1103,월산5동,Wolsan 5(o)-dong,월산5동,+82 62 613 5700,bus_stop,platform
35.17156944,126.90325,1209,전대치과병원,Chonnam National University hospital,전대치과병원,+82 62 613 5700,bus_stop,platform
35.15872338,126.8768489,179,기아자동차,Kia Motors,기아자동차,+82 62 613 5700,bus_stop,platform
35.12705833,126.7767543,194,꽃동네,Kkot Village,꽃동네,+82 62 613 5700,bus_stop,platform
35.13822542,126.9218245,214,남광주역,Namgwangju Station,남광주역,+82 62 613 5700,bus_stop,platform
35.20687877,126.8430141,2527,남부대,Nambu University,남부대,+82 62 613 5700,bus_stop,platform
35.09913611,126.9051667,233,노대,Nodae,노대,+82 62 613 5700,bus_stop,platform
35.24904444,126.9253556,2278,단지삼거리,Danji Samgeori,단지삼거리,+82 62 613 5700,bus_stop,platform
35.15441286,126.8151809,281,대덕아파트,Daedeok Apt.,대덕아파트,+82 62 613 5700,bus_stop,platform
35.18222411,126.9091617,289,도로교통공단 대신파크,KoROAD / Daesin Park Apt.,도로교통공단 대신파크,+82 62 613 5700,bus_stop,platform
35.081111,126.834266,3004,대촌동행정복지센터,Daechon-dong Administration Welfare Center,대촌동행정복지센터,+82 62 613 5700,bus_stop,platform
35.16883056,126.931575,320,덕산아파트,Deoksan Apt.,덕산아파트,+82 62 613 5700,bus_stop,platform
35.12843056,126.7853472,331,도산파출소,Dosan Police Box,도산파출소,+82 62 613 5700,bus_stop,platform
35.15170102,126.8946688,745,돌고개역(서),Dolgogae Station (West),돌고개역(서),+82 62 613 5700,bus_stop,platform
35.17440026,126.8515189,141,동림I.C입구,Dongnim IC Entrance,동림I.C입구,+82 62 613 5700,bus_stop,platform
35.15512836,126.7392419,1598,동명고,Dongmyoung High School,동명고,+82 62 613 5700,bus_stop,platform
35.16844167,126.9132194,1563,동부교육청,Dongbu District Office of Education,동부교육청,+82 62 613 5700,bus_stop,platform
35.206143,126.951392,82,동초교,Dong Elementary School,동초교,+82 62 613 5700,bus_stop,platform
35.169748,126.684378,2009,동호,Dongho,동호,+82 62 613 5700,bus_stop,platform
35.24676111,126.9225333,2277,두촌,Duchon,두촌,+82 62 613 5700,bus_stop,platform
35.126237,126.856187,102,마재호반아파트,Majae Hoban Apt.,마재호반아파트,+82 62 613 5700,bus_stop,platform
35.13666608,126.8591819,163,금호시영아파트,Kumho Siyeong Apt.,금호시영아파트,+82 62 613 5700,bus_stop,platform
35.164438,126.877293,182,기아차정문,Kia Motors Main Gate,기아차정문,+82 62 613 5700,bus_stop,platform
35.20432222,126.90135,1107,월산(삼각동),Wolsan (Samgak-dong),월산(삼각동),+82 62 613 5700,bus_stop,platform
35.1434431,126.8909204,1108,월산마을입구,Wolsan Village Entrance,월산마을입구,+82 62 613 5700,bus_stop,platform
35.14096856,126.8372437,1114,월암,Woram,월암,+82 62 613 5700,bus_stop,platform
35.25396111,126.943,2290,월전(담양),Woljeon(Damyang),월전(담양),+82 62 613 5700,bus_stop,platform
35.15973056,126.9065833,522,유동사거리,Yu-dong Sageori,유동사거리,+82 62 613 5700,bus_stop,platform
35.11186566,126.7795734,1670,하선,Haseon,하선,+82 62 613 5700,bus_stop,platform
35.13701257,126.9254033,1430,조선대병원,Chosun University Hospital,조선대병원,+82 62 613 5700,bus_stop,platform
35.136048,126.922258,1433,학림교,Hangnimgyo Bridge,학림교,+82 62 613 5700,bus_stop,platform
35.05577778,126.9888778,2046,만연빌딩,Manyeon Building ,만연빌딩,+82 62 613 5700,bus_stop,platform
35.11275819,126.8443274,1723,매월동(북),Maewol-dong (North),매월동(북),+82 62 613 5700,bus_stop,platform
35.12135556,126.7157583,2162,명동삼거리,Myeongdong Samgeori,명동삼거리,+82 62 613 5700,bus_stop,platform
35.158405,126.861516,485,모아제일아파트,Moa Jeil Apt.,모아제일아파트,+82 62 613 5700,bus_stop,platform
35.17321667,126.9326944,534,문화초교,Munhwa Elementary School,문화초교,+82 62 613 5700,bus_stop,platform
35.19087413,126.9348739,326,문흥지구입구(동),Munheung District Entrance (East),문흥지구입구(동),+82 62 613 5700,bus_stop,platform
35.20963889,126.8371472,555,방송통신대,Korea National Open University,방송통신대,+82 62 613 5700,bus_stop,platform
35.13589167,126.9014417,567,백운우체국,Baegun Post Office,백운우체국,+82 62 613 5700,bus_stop,platform
35.015658,127.078883,587,벽송저수지,Byeoksong Reservoir,벽송저수지,+82 62 613 5700,bus_stop,platform
35.223579,126.659551,3373,인지,Inji,인지,+82 62 613 5700,bus_stop,platform
35.180028,126.806694,3051,흑석사거리(서),Heukseok Sageori (West),흑석사거리(서),+82 62 613 5700,bus_stop,platform
35.18467675,126.9325638,2961,농산물공판장,Agricultural Wholesale Market,농산물공판장,+82 62 613 5700,bus_stop,platform
34.98851667,126.9585167,2005,능주초교,Neungju Elementary School,능주초교,+82 62 613 5700,bus_stop,platform
35.11362015,126.7124016,1652,대덕마을,Daedeok Village,대덕마을,+82 62 613 5700,bus_stop,platform
35.14321242,126.9058454,288,대성초교,Daesung Elementary School,대성초교,+82 62 613 5700,bus_stop,platform
35.16947778,126.9372361,302,대주빌라,Daeju Villa,대주빌라,+82 62 613 5700,bus_stop,platform
35.1261902,126.9059766,318,봉선대화아파트,Bongseon Daehwa Apt.,봉선대화아파트,+82 62 613 5700,bus_stop,platform
35.12701872,126.7841783,328,도산동,Dosan-dong,도산동,+82 62 613 5700,bus_stop,platform
35.11650278,126.8113,3345,도호,Doho,도호,+82 62 613 5700,bus_stop,platform
35.15096944,126.9235667,351,동구노인종합복지관,Donggu General Welfare Center,동구노인종합복지관,+82 62 613 5700,bus_stop,platform
35.03070556,127.0420194,3132,동면,Dongmyeon,동면,+82 62 613 5700,bus_stop,platform
35.1141,126.8705556,1755,동명회/송원고,DongMyung Welfare Society / Songwon High School,동명회/송원고,+82 62 613 5700,bus_stop,platform
35.151487,126.936818,369,동산아파트,Dongsan Apt.,동산아파트,+82 62 613 5700,bus_stop,platform
35.12712778,126.6863278,3396,동촌,Dongchon,동촌,+82 62 613 5700,bus_stop,platform
35.16458889,126.9310389,393,교대금호어울림,Gyodae Kumho Oullim,교대금호어울림,+82 62 613 5700,bus_stop,platform
35.16827222,126.9326722,2938,두암초교,Duam Elementary School,두암초교,+82 62 613 5700,bus_stop,platform
35.13013889,126.8550222,1238,마재종원아파트,Majae Jongwon Apt.,마재종원아파트,+82 62 613 5700,bus_stop,platform
35.17864152,126.829566,148,극락강역입구,Geungnakgang Station Entrance,극락강역입구,+82 62 613 5700,bus_stop,platform
35.144996,126.7904401,175,금호타이어,Kumho Tire,금호타이어,+82 62 613 5700,bus_stop,platform
35.13563756,126.8742059,1094,월드컵경기장,World Cup Stadium,월드컵경기장,+82 62 613 5700,bus_stop,platform
35.14194969,126.8882697,1106,월산마을,Wolsan Village,월산마을,+82 62 613 5700,bus_stop,platform
35.293237,126.920865,1858,월성(담양),Wolseong(Damyang),월성(담양),+82 62 613 5700,bus_stop,platform
35.25384167,126.9430083,1897,월전(담양),Woljeon(Damyang),월전(담양),+82 62 613 5700,bus_stop,platform
35.12557723,126.7737173,3340,월전(광산구),Woljeon,월전(광산구),+82 62 613 5700,bus_stop,platform
35.165868,126.854825,3002,유덕치안센터,Yudeok Police Patrol & Services Center,유덕치안센터,+82 62 613 5700,bus_stop,platform
35.26191111,126.8974472,3152,태목,Taemok,태목,+82 62 613 5700,bus_stop,platform
35.12498495,126.7674387,1080,평동역(서),Pyeong-dong Station (West),평동역(서),+82 62 613 5700,bus_stop,platform
35.056339,126.835138,1967,평산리,Pyeongsan-li,평산리,+82 62 613 5700,bus_stop,platform
35.23506389,126.8671611,3201,풍기산업,Poongki Industrial,풍기산업,+82 62 613 5700,bus_stop,platform
35.16276651,126.9277899,2849,풍향삼거리,Punghyang Samgeori,풍향삼거리,+82 62 613 5700,bus_stop,platform
35.21344167,126.8005583,1391,하남철강,Hanam Steel,하남철강,+82 62 613 5700,bus_stop,platform
35.08368556,126.8363983,1933,하지석,Hajiseok,하지석,+82 62 613 5700,bus_stop,platform
35.24855747,126.8137302,3460,산정,Sanjeong(Jangseong),산정,+82 62 613 5700,bus_stop,platform
35.1979,126.8752056,3105,한양아파트,Hanyang Apt.,한양아파트,+82 62 613 5700,bus_stop,platform
35.237186,126.7948901,3167,승가마을,Seunggamaeul,승가마을,+82 62 613 5700,bus_stop,platform
35.22655719,126.8475306,3180,한국생산기술연구원,Korea Institute of Industrial Technology,한국생산기술연구원,+82 62 613 5700,bus_stop,platform
35.19611594,126.8998037,3262,삼각그린타운,Samgak Greentown Apt.,삼각그린타운,+82 62 613 5700,bus_stop,platform
35.20872135,126.8397489,518,무양서원,Muyangsewon Confucian Academy,무양서원,+82 62 613 5700,bus_stop,platform
35.14471944,126.8995333,521,무진중,Mujin Middle School,무진중,+82 62 613 5700,bus_stop,platform
35.19099722,126.9240361,524,문산중,Munsan Middle School,문산중,+82 62 613 5700,bus_stop,platform
35.122032,126.907212,3013,문성고,Munseong High School,문성고,+82 62 613 5700,bus_stop,platform
35.114552,126.815154,3346,문촌,Munchon,문촌,+82 62 613 5700,bus_stop,platform
35.14738333,126.918875,339,문화전당역(동),Culture Complex Subway Station(East),문화전당역(동),+82 62 613 5700,bus_stop,platform
35.14800379,126.9184421,340,국립아시아문화전당(구.도청),Asia Culture Center,국립아시아문화전당(구.도청),+82 62 613 5700,bus_stop,platform
35.19093975,126.9267625,2952,문흥금호아파트,Munheung Kumho Apt.,문흥금호아파트,+82 62 613 5700,bus_stop,platform
35.13344209,126.9181822,2687,방림삼거리,Bangnim Samgeori,방림삼거리,+82 62 613 5700,bus_stop,platform
35.04080556,127.0069889,560,백동,Baekdong,백동,+82 62 613 5700,bus_stop,platform
35.15172134,126.9308902,1310,법원입구,District Court Entrance,법원입구,+82 62 613 5700,bus_stop,platform
35.16950278,126.6951361,2061,예림,Yerim,예림,+82 62 613 5700,bus_stop,platform
35.16612778,126.9323222,1254,두암주공입구,Duam Jugong Apt. Entrance,두암주공입구,+82 62 613 5700,bus_stop,platform
35.17435833,126.9639583,403,등촌,Deungchon,등촌,+82 62 613 5700,bus_stop,platform
35.09539303,126.814843,3478,마현,Mahyeon,마현,+82 62 613 5700,bus_stop,platform
35.206577,126.804356,3095,금호전기,Kumho Electric,금호전기,+82 62 613 5700,bus_stop,platform
35.162035,126.872462,184,기아차중문,Kia Motors Center Gate,기아차중문,+82 62 613 5700,bus_stop,platform
35.21053056,126.9495833,1098,월산(석곡),Wolsan (Seokgok),월산(석곡),+82 62 613 5700,bus_stop,platform
35.293122,126.920865,2254,월성(담양),Wolseong(Damyang),월성(담양),+82 62 613 5700,bus_stop,platform
35.14127662,126.8371648,1583,월암,Woram,월암,+82 62 613 5700,bus_stop,platform
35.12526723,126.7737447,3339,월전(광산구),Woljeon,월전(광산구),+82 62 613 5700,bus_stop,platform
35.238417,126.817901,2071,월정(장성),Woljeong (Jangseong),월정(장성),+82 62 613 5700,bus_stop,platform
35.15886126,126.9064952,693,유동사거리,Yu-dong Sageori,유동사거리,+82 62 613 5700,bus_stop,platform
35.167753,126.690889,1404,평림,Pyeongnim,평림,+82 62 613 5700,bus_stop,platform
35.22096389,126.8527306,432,폭스존,Fox Zone,폭스존,+82 62 613 5700,bus_stop,platform
35.16244868,126.9277823,2768,풍향삼거리,Punghyang Samgeori,풍향삼거리,+82 62 613 5700,bus_stop,platform
35.16655335,126.805106,1252,하남중,Hanam Middle School,하남중,+82 62 613 5700,bus_stop,platform
35.11094257,126.7796431,1711,하선,Haseon,하선,+82 62 613 5700,bus_stop,platform
35.13033889,126.9327861,1409,학동평화맨션,Hak-dong Pyeonghwa Mansion Apt.,학동평화맨션,+82 62 613 5700,bus_stop,platform
35.01251667,126.9534056,264,만수리,Mansu-li,만수리,+82 62 613 5700,bus_stop,platform
35.15175278,126.7770389,1591,매방골,Maebanggol,매방골,+82 62 613 5700,bus_stop,platform
35.16999225,126.699837,1616,명도삼거리,Myeongdo Samgeori,명도삼거리,+82 62 613 5700,bus_stop,platform
35.12808684,126.914148,488,모아2차아파트,Moa 2nd Apt.,모아2차아파트,+82 62 613 5700,bus_stop,platform
35.16062721,126.7077973,1612,지동(광산구),Jidong (Gwangsan-gu),지동(광산구),+82 62 613 5700,bus_stop,platform
35.1376,126.8936306,505,무등시장,Mudeung Market,무등시장,+82 62 613 5700,bus_stop,platform
35.1349516,126.8958673,507,무등시장입구(북),Mudeung Market Entrance (North),무등시장입구(북),+82 62 613 5700,bus_stop,platform
35.13376963,126.8950373,509,무등시장입구(남),Mudeung Market Entrance (South),무등시장입구(남),+82 62 613 5700,bus_stop,platform
35.18135642,126.9290752,540,문흥고가,Munheung Overpass,문흥고가,+82 62 613 5700,bus_stop,platform
35.1641001,126.740679,3358,박호동,Bakho-dong,박호동,+82 62 613 5700,bus_stop,platform
35.21068056,126.7839556,2018,백길마을,Baekgil Village,백길마을,+82 62 613 5700,bus_stop,platform
35.15040556,126.9330611,578,법원,District Court,법원,+82 62 613 5700,bus_stop,platform
35.22331667,126.9631889,1829,보촌1구,Bochon District 1,보촌1구,+82 62 613 5700,bus_stop,platform
35.22897831,126.6501792,3371,삼서초교,Samseo Elementary School,삼서초교,+82 62 613 5700,bus_stop,platform
35.25506944,126.9566639,3368,유산리,Yusal-li,유산리,+82 62 613 5700,bus_stop,platform
35.1667,126.7009806,1615,도림,Dorim,도림,+82 62 613 5700,bus_stop,platform
35.206729,126.804616,3082,금호전기,Kumho Electric,금호전기,+82 62 613 5700,bus_stop,platform
35.220243,126.831546,3096,첨단대우아파트,Cheomdan Daewoo Apt.,첨단대우아파트,+82 62 613 5700,bus_stop,platform
35.2421164,126.8722421,3100,석수정,Seoksujeong ,석수정,+82 62 613 5700,bus_stop,platform
35.15640394,126.9313809,3162,산수오거리(연천),Sansu Ogeori (Yeoncheon),산수오거리(연천),+82 62 613 5700,bus_stop,platform
35.22977789,126.6466843,3461,삼서우체국,Samseo Post Office,삼서우체국,+82 62 613 5700,bus_stop,platform
35.2179,126.8513194,3183,우편집중국,Mail Center,우편집중국,+82 62 613 5700,bus_stop,platform
35.22275,126.8351556,659,비아중,Bia Middle School,비아중,+82 62 613 5700,bus_stop,platform
35.127055,126.929803,783,빛고을복지회관,Bitgoeul Welfare Center,빛고을복지회관,+82 62 613 5700,bus_stop,platform
35.198303,126.767279,2067,산막,Sanmak,산막,+82 62 613 5700,bus_stop,platform
35.14721797,126.9280273,683,살레시오여고,Salesio Girls' High School,살레시오여고,+82 62 613 5700,bus_stop,platform
35.203084,126.804645,3322,하남삼성전자사거리(북),Hanam Samsung Electronics Sageori (North),하남삼성전자사거리(북),+82 62 613 5700,bus_stop,platform
35.26555,126.864325,3177,학산,Haksan,학산,+82 62 613 5700,bus_stop,platform
35.15560278,126.9315562,3189,산수오거리,Sansu Ogeori,산수오거리,+82 62 613 5700,bus_stop,platform
35.16632222,126.9194472,761,서방시장(남),Seobang Market (South),서방시장(남),+82 62 613 5700,bus_stop,platform
35.127083,126.929601,782,빛고을복지회관,Bitgoeul Welfare Center,빛고을복지회관,+82 62 613 5700,bus_stop,platform
35.18966555,126.8576092,2525,산동교,Sandonggyo Bridge,산동교,+82 62 613 5700,bus_stop,platform
35.15383056,126.9364722,482,산수2동행정복지센터,Sansu 2(i)-dong Adminstration Welfare Center,산수2동행정복지센터,+82 62 613 5700,bus_stop,platform
35.193428,126.900977,3309,삼각호반아파트,Samgak Hoban Apt.,삼각호반아파트,+82 62 613 5700,bus_stop,platform
35.246563,126.887869,2266,삼소동입구,Samso-dong Entrance,삼소동입구,+82 62 613 5700,bus_stop,platform
35.13074638,126.9294744,701,삼익세라믹,Samik Ceramic Apt.,삼익세라믹,+82 62 613 5700,bus_stop,platform
35.15269444,126.8693611,721,상무1동행정복지센터,Sangmu 1(il)-dong Administration Welfare Center,상무1동행정복지센터,+82 62 613 5700,bus_stop,platform
35.14430833,126.8584167,732,상무중,Sangmu Middle School,상무중,+82 62 613 5700,bus_stop,platform
35.231178,126.73101,697,상촌(임곡),Sangchon (Imgok),상촌(임곡),+82 62 613 5700,bus_stop,platform
35.146158,126.872469,740,서광주우체국,Seogwangju Post Office,서광주우체국,+82 62 613 5700,bus_stop,platform
35.1316437,126.8906977,752,서남하이츠(국제양궁장),International Archery Field,서남하이츠(국제양궁장),+82 62 613 5700,bus_stop,platform
35.211668,126.89763,919,서일초교,Seoil Elementary School,서일초교,+82 62 613 5700,bus_stop,platform
35.03948611,126.9509472,2041,서태리1구,Setae-li district 1,서태리1구,+82 62 613 5700,bus_stop,platform
35.18031944,126.9989833,1915,석제,Seokje,석제,+82 62 613 5700,bus_stop,platform
35.171145,126.882024,785,공구의거리,Street of Tools,공구의거리,+82 62 613 5700,bus_stop,platform
35.18263611,127.0119222,1907,소쇄원,Soswaewon,소쇄원,+82 62 613 5700,bus_stop,platform
35.16273056,126.7399028,1601,송산유원지(종점),Songsan Recreation Area (Last stop),송산유원지(종점),+82 62 613 5700,bus_stop,platform
35.13085204,126.7871028,814,도산역,Dosan Station,도산역,+82 62 613 5700,bus_stop,platform
35.12124808,126.683095,1643,송학입구,Songhak Entrance,송학입구,+82 62 613 5700,bus_stop,platform
35.18438611,126.6751111,2047,수성,Suseong,수성,+82 62 613 5700,bus_stop,platform
35.257878,126.816195,832,수촌,Suchon,수촌,+82 62 613 5700,bus_stop,platform
35.15872266,126.8545253,852,시청,City Hall ,시청,+82 62 613 5700,bus_stop,platform
35.135063,126.786627,256,신덕마을,Sindeok Village,신덕마을,+82 62 613 5700,bus_stop,platform
35.17064722,126.8961389,868,신안교,Sinangyo Bridge,신안교,+82 62 613 5700,bus_stop,platform
35.19224722,126.7461778,670,산수보건소,Sansu Community Health Center ,산수보건소,+82 62 613 5700,bus_stop,platform
35.163617,126.674652,1621,삼도삼거리,Samdo Samgeori,삼도삼거리,+82 62 613 5700,bus_stop,platform
35.23571389,126.8540417,313,대촌마을,Daechon Village,대촌마을,+82 62 613 5700,bus_stop,platform
35.16684444,126.9372111,709,삼정초교,Samjeong Elementary School,삼정초교,+82 62 613 5700,bus_stop,platform
35.14947661,126.842842,164,상무금호아파트,Sangmu Kumho Apt.,상무금호아파트,+82 62 613 5700,bus_stop,platform
35.15176287,126.845145,1302,상무중흥아파트,Sangmu Jungheung Apt.,상무중흥아파트,+82 62 613 5700,bus_stop,platform
35.232666,126.728894,2351,상촌(임곡),Sangchon (Imgok),상촌(임곡),+82 62 613 5700,bus_stop,platform
35.1533595,126.8945705,763,서광주전화국,KT Seogwangju District Office,서광주전화국,+82 62 613 5700,bus_stop,platform
35.16505862,126.9187373,757,서방사거리,Seobang Sageori,서방사거리,+82 62 613 5700,bus_stop,platform
35.14270966,126.840096,1579,김대중컨벤션센터(마륵)역,Kimdaejung Convention Center (Mareuk) Station,김대중컨벤션센터(마륵)역,+82 62 613 5700,bus_stop,platform
35.03155556,126.9444083,2042,서태리2구,Setae-li district 2,서태리2구,+82 62 613 5700,bus_stop,platform
35.08895556,126.9471694,2339,선교,Seongyo,선교,+82 62 613 5700,bus_stop,platform
35.289002,126.913949,2256,성산리,Seongsan-li,성산리,+82 62 613 5700,bus_stop,platform
35.15787222,126.7928667,836,소촌스위트밸리,Sochon Sweet Valley Apt.,소촌스위트밸리,+82 62 613 5700,bus_stop,platform
35.13377207,126.9185365,554,방림삼거리,Bangnim Samgeori,방림삼거리,+82 62 613 5700,bus_stop,platform
35.13334444,126.7959528,824,송정초교,Songjeong Elementary School,송정초교,+82 62 613 5700,bus_stop,platform
35.24568333,126.9191222,1882,수곡,Sugok ,수곡,+82 62 613 5700,bus_stop,platform
35.20471845,126.8365967,3338,수완동,Suwan-dong ,수완동,+82 62 613 5700,bus_stop,platform
35.23747778,126.932625,1886,시립공원묘지,Municipal Cemetery Park,시립공원묘지,+82 62 613 5700,bus_stop,platform
35.17528113,126.8134691,151,풍영정천1교,Pungyeongjeongcheongyo 1 Bridge,풍영정천1교,+82 62 613 5700,bus_stop,platform
35.19529735,126.7705651,860,신등,Sindeung,신등,+82 62 613 5700,bus_stop,platform
35.16720964,126.8982689,874,신안동행정복지센터,Sinan-dong Administration Welfare Center,신안동행정복지센터,+82 62 613 5700,bus_stop,platform
35.17152778,126.9214278,474,말바우시장(서),Malbau Market (West),말바우시장(서),+82 62 613 5700,bus_stop,platform
35.15156111,126.7766972,2896,매방골,Maebanggol,매방골,+82 62 613 5700,bus_stop,platform
35.05007778,126.9669444,580,벽라교,Byeongnagyo Bridge,벽라교,+82 62 613 5700,bus_stop,platform
35.24044444,126.7896028,1405,평산리(장성),Pyeongsan-li(Jangseong),평산리(장성),+82 62 613 5700,bus_stop,platform
35.15888889,126.8583972,12,5.18기념문화센터,May 18th Memorial Culture Center,5.18기념문화센터,+82 62 613 5700,bus_stop,platform
35.15684722,126.9127389,348,대인광장(동),Daein Plaza (East),대인광장(동),+82 62 613 5700,bus_stop,platform
35.17708889,127.0278722,2292,연천,Yeoncheon,연천,+82 62 613 5700,bus_stop,platform
35.12162222,126.8329056,1719,동하,Dongha,동하,+82 62 613 5700,bus_stop,platform
35.183817,127.000655,2300,광주호수생태원,Gwangjuho Lake Eco Park,광주호수생태원,+82 62 613 5700,bus_stop,platform
35.18559839,126.9056244,1461,오치한전,Ochi KEPCO,오치한전,+82 62 613 5700,bus_stop,platform
35.088644,126.845164,2311,원산,Wonsan,원산,+82 62 613 5700,bus_stop,platform
35.045395,126.842827,2318,나주축산농협,Naju Livestock Agricultural Cooperative Federation,나주축산농협,+82 62 613 5700,bus_stop,platform
35.21651518,126.8811992,3041,지산중,Jisan Middle School,지산중,+82 62 613 5700,bus_stop,platform
35.18256667,127.0119139,2294,소쇄원,Soswaewon,소쇄원,+82 62 613 5700,bus_stop,platform
35.070098,126.973775,2341,이십곡리,Isipgok-li,이십곡리,+82 62 613 5700,bus_stop,platform
35.09586667,126.8591556,2307,이동입구,Idong Entrance,이동입구,+82 62 613 5700,bus_stop,platform
35.05090278,126.8384833,2315,남평교,Nampyeonggyo(Bridge),남평교,+82 62 613 5700,bus_stop,platform
35.30105,126.9278944,2347,수북면사무소,Subukmyeon Office,수북면사무소,+82 62 613 5700,bus_stop,platform
35.0613,126.9863528,2336,자치샘삼거리,Jachisaem 3-Way Junc,자치샘삼거리,+82 62 613 5700,bus_stop,platform
35.26271944,126.8410194,2358,덕촌,Deokchon,덕촌,+82 62 613 5700,bus_stop,platform
35.1355136,126.917504,2344,양림휴먼시아2차,Yangnim Humansia 2nd Apt.,양림휴먼시아2차,+82 62 613 5700,bus_stop,platform
35.1239,126.6957417,2165,회룡(광산구),Hoeryong (Gwangsan-gu),회룡(광산구),+82 62 613 5700,bus_stop,platform
35.24231389,126.8976528,2354,전통공예문화학교,Traditional Crafts Culture School,전통공예문화학교,+82 62 613 5700,bus_stop,platform
35.2503,126.7428139,2062,오룡,Oryong,오룡,+82 62 613 5700,bus_stop,platform
35.06156944,126.7938167,2213,양촌(대촌),Yangchon(Daechon),양촌(대촌),+82 62 613 5700,bus_stop,platform
35.00290278,126.9589056,2096,천덕리,Cheondeok-li,천덕리,+82 62 613 5700,bus_stop,platform
35.28427778,126.9372861,1850,남산마을입구,Namsanmaeul Entrance,남산마을입구,+82 62 613 5700,bus_stop,platform
35.28766667,126.9088611,1861,행정리,HaengJeong-li,행정리,+82 62 613 5700,bus_stop,platform
35.24610556,126.9261806,1885,단지마을,Danji Village,단지마을,+82 62 613 5700,bus_stop,platform
35.21623142,126.9495217,1892,공원묘지입구,Cemetery Park Entrance,공원묘지입구,+82 62 613 5700,bus_stop,platform
35.187297,127.004485,1910,가사문학관,Gasa Literary House,가사문학관,+82 62 613 5700,bus_stop,platform
35.09856111,126.8771278,1919,송암동,Songam-dong,송암동,+82 62 613 5700,bus_stop,platform
35.07749722,126.8366611,1936,도촌,Dochon,도촌,+82 62 613 5700,bus_stop,platform
35.03852778,126.8420778,1945,광남고,Gwangnam High School,광남고,+82 62 613 5700,bus_stop,platform
35.22455833,126.8413694,51,과기원,Gwangju Institute of Science and Technology,과기원,+82 62 613 5700,bus_stop,platform
35.21637222,126.8094583,217,신흥목재포장,Sinheung Wood Package,신흥목재포장,+82 62 613 5700,bus_stop,platform
35.21796045,126.8386606,178,첨단라인아파트,Cheomdan Line Apt.,첨단라인아파트,+82 62 613 5700,bus_stop,platform
35.14641389,126.8477364,730,상무역,Sangmu Station,상무역,+82 62 613 5700,bus_stop,platform
35.08631004,126.840174,1972,상지석,Sangjiseok,상지석,+82 62 613 5700,bus_stop,platform
35.21352222,126.8102833,132,새한철강,Saehan Steel,새한철강,+82 62 613 5700,bus_stop,platform
35.13688889,126.9040889,2753,서광중,Seogwang Middle School,서광중,+82 62 613 5700,bus_stop,platform
35.15129444,126.7565084,1594,샛터마을,Saetteo Village,샛터마을,+82 62 613 5700,bus_stop,platform
35.14021171,126.833054,776,서창입구,Seochang Entrance,서창입구,+82 62 613 5700,bus_stop,platform
35.21392324,126.9485627,1805,석곡파출소,Seokgok Police Box,석곡파출소,+82 62 613 5700,bus_stop,platform
35.08886389,126.9470611,780,선교,Seongyo,선교,+82 62 613 5700,bus_stop,platform
35.07332778,126.757975,1679,성산마을,Seongsanmaeul,성산마을,+82 62 613 5700,bus_stop,platform
35.120785,126.933176,799,지원2동행정복지센터입구,Jiwon 2(i)-dong Administration Welfare Center Entrance,지원2동행정복지센터입구,+82 62 613 5700,bus_stop,platform
35.15833611,126.7381389,2119,송산유원지,Songsan Recreation Area,송산유원지,+82 62 613 5700,bus_stop,platform
35.14397573,126.8030019,825,송정파출소(북),Songjeong Police Box (North),송정파출소(북),+82 62 613 5700,bus_stop,platform
35.182765,127.000085,2301,수리,World Cup stadium parking lot,수리,+82 62 613 5700,bus_stop,platform
35.20750357,126.8335752,3335,수완자동차매매단지,Suwan Automobile Dealing Center,수완자동차매매단지,+82 62 613 5700,bus_stop,platform
35.18625278,126.8676528,605,시립장애인복지관,Community Rehabilitation Center,시립장애인복지관,+82 62 613 5700,bus_stop,platform
35.24520278,127.0250944,2235,신갈,Shingal,신갈,+82 62 613 5700,bus_stop,platform
35.18553611,126.8035806,3330,신성화학,Sinseong Chemical,신성화학,+82 62 613 5700,bus_stop,platform
35.16539986,126.9042888,876,신안사거리,Sinan Sageori,신안사거리,+82 62 613 5700,bus_stop,platform
35.175845,126.870961,2895,서영대,Seoyeong university,서영대,+82 62 613 5700,bus_stop,platform
35.21237212,126.8814204,2987,양산호반2차,Yangsan Hoban 2nd Apt.,양산호반2차,+82 62 613 5700,bus_stop,platform
35.17949738,126.872144,2991,운암초교,Unam Elementary School,운암초교,+82 62 613 5700,bus_stop,platform
35.15941,126.895079,2993,발산교(북),Balsangyo Bridge (North),발산교(북),+82 62 613 5700,bus_stop,platform
35.107417,126.897262,80,광주대,Gwangju University,광주대,+82 62 613 5700,bus_stop,platform
35.15620979,126.8912712,243,농성1동주민센터,Nongseong 1(il)-dong Community Service Center,농성1동주민센터,+82 62 613 5700,bus_stop,platform
35.16749414,126.802464,789,역산공원입구,Yeoksan Park Enterance,역산공원입구,+82 62 613 5700,bus_stop,platform
35.23342651,126.8893446,3034,지산입구,Jisan Entrance,지산입구,+82 62 613 5700,bus_stop,platform
35.17885833,127.0221278,2293,반석,Banseok,반석,+82 62 613 5700,bus_stop,platform
35.18031667,126.9990583,2302,석제,Seokje,석제,+82 62 613 5700,bus_stop,platform
35.055184,126.835447,2314,광이리,Gwangui-li,광이리,+82 62 613 5700,bus_stop,platform
35.00937778,126.82135,2329,국립나주병원,Naju National Hospital,국립나주병원,+82 62 613 5700,bus_stop,platform
35.05405278,126.9978722,2342,정수장입구,Purification Plant Entrance,정수장입구,+82 62 613 5700,bus_stop,platform
35.251666,126.891195,2348,응기,Unggi,응기,+82 62 613 5700,bus_stop,platform
35.087552,126.809048,2223,석정,Seokjeong ,석정,+82 62 613 5700,bus_stop,platform
35.1951322,126.8470861,2878,전남공고입구,Jeonnam Technical High School Entrance,전남공고입구,+82 62 613 5700,bus_stop,platform
35.27758056,126.9360944,2245,정중리,Jeongjung-li,정중리,+82 62 613 5700,bus_stop,platform
35.289099,126.913959,1860,성산리,Seongsan-li,성산리,+82 62 613 5700,bus_stop,platform
35.24433889,126.8905833,1872,용산교(북구),Yongsangyo Bridge (Buk-gu),용산교(북구),+82 62 613 5700,bus_stop,platform
35.21809167,126.9480667,1891,복다우,Bokdau,복다우,+82 62 613 5700,bus_stop,platform
35.098607,126.8187797,2227,봉학,Bonghak,봉학,+82 62 613 5700,bus_stop,platform
35.14994049,126.6590415,2136,용성자동차학원,Yongseong Driving Academy,용성자동차학원,+82 62 613 5700,bus_stop,platform
35.30113333,126.9278333,1855,수북면사무소,Subukmyeon Office,수북면사무소,+82 62 613 5700,bus_stop,platform
35.24637441,126.887518,1871,삼소동입구,Samso-dong Entrance,삼소동입구,+82 62 613 5700,bus_stop,platform
35.169752,126.9988701,1916,금곡,Geumgok,금곡,+82 62 613 5700,bus_stop,platform
35.08964577,126.8498031,1930,포충사,Pochungsa Shrine,포충사,+82 62 613 5700,bus_stop,platform
35.046651,126.839732,1942,남평농협,Nampyeong Agricultural Cooperative Federation,남평농협,+82 62 613 5700,bus_stop,platform
35.1439899,126.921276,210,전남대병원오거리,Chonnam National University Hospital Ogeori,전남대병원오거리,+82 62 613 5700,bus_stop,platform
35.15406914,126.901182,935,양동시장역(북),Yangdong Market Station (North),양동시장역(북),+82 62 613 5700,bus_stop,platform
35.18755556,126.8896528,1189,용봉쌍용아파트,Yongbong Ssangyong Apt.,용봉쌍용아파트,+82 62 613 5700,bus_stop,platform
35.15086082,126.9202341,1193,전남여고,Chonnam Girls' High School,전남여고,+82 62 613 5700,bus_stop,platform
35.240875,126.730275,2064,와산,Wasan,와산,+82 62 613 5700,bus_stop,platform
35.231889,126.94201,1888,국립5.18민주묘지,May 18th National Cemetery,국립5.18민주묘지,+82 62 613 5700,bus_stop,platform
35.12443551,126.8833202,161,풍암금호아파트,Pungam Kumho Apt.,풍암금호아파트,+82 62 613 5700,bus_stop,platform
35.23582222,126.955025,1902,노안동,Noandong,노안동,+82 62 613 5700,bus_stop,platform
35.17715278,127.0279028,1904,연천,Yeoncheon,연천,+82 62 613 5700,bus_stop,platform
35.186737,127.002427,1912,충효동환벽당,Chunghyo-dong Hwanbyeokdang Pavilion,충효동환벽당,+82 62 613 5700,bus_stop,platform
35.090127,126.877388,1924,향등,Hyangdeung,향등,+82 62 613 5700,bus_stop,platform
35.054803,126.835284,1939,광이리,Gwangui-li,광이리,+82 62 613 5700,bus_stop,platform
35.12245278,126.9176139,205,남구문화예술회관,Nam-gu Culture and Art Center,남구문화예술회관,+82 62 613 5700,bus_stop,platform
35.15415833,126.9882361,929,안양사,Anyangsa Temple,안양사,+82 62 613 5700,bus_stop,platform
35.180943,126.9341332,167,금호아파트,Kumho Apt.,금호아파트,+82 62 613 5700,bus_stop,platform
35.13170833,126.9359444,1510,홍림교,Hongnimgyo Bridge,홍림교,+82 62 613 5700,bus_stop,platform
35.16177646,126.9292389,2848,풍향시장,Punghyang Market,풍향시장,+82 62 613 5700,bus_stop,platform
35.17451811,126.8827104,2867,운암시장,Unam Market,운암시장,+82 62 613 5700,bus_stop,platform
35.18827063,126.9337022,2962,문흥지구입구(남),Munheung District Entrance (South),문흥지구입구(남),+82 62 613 5700,bus_stop,platform
35.15625687,126.8921918,2972,농성중흥파크,Nongseong Jungheung Park Apt.,농성중흥파크,+82 62 613 5700,bus_stop,platform
35.14823333,126.9317722,2980,매일시장입구,Maeil Market Entrance,매일시장입구,+82 62 613 5700,bus_stop,platform
35.21793502,126.8408686,417,첨단사거리,Cheomdan Sageori,첨단사거리,+82 62 613 5700,bus_stop,platform
35.19842176,126.8403197,901,신창초교,Sinchang Elementary School,신창초교,+82 62 613 5700,bus_stop,platform
35.20672933,126.8755706,2947,동아제약,Dong-A Pharmaceutical,동아제약,+82 62 613 5700,bus_stop,platform
35.1904436,126.8385696,894,신창부영1차아파트,Sinchang Booyoung 1st Apt.,신창부영1차아파트,+82 62 613 5700,bus_stop,platform
35.077511,126.836962,3003,도촌,Dochon,도촌,+82 62 613 5700,bus_stop,platform
35.14933333,126.9364417,2673,동산초교,Dongsan Elementary School,동산초교,+82 62 613 5700,bus_stop,platform
35.15609737,126.8547294,1574,5.18기념공원,May 18th Memorial Park,5.18기념공원,+82 62 613 5700,bus_stop,platform
35.16282982,126.7004907,2724,삼도초교,Samdo Elementary School,삼도초교,+82 62 613 5700,bus_stop,platform
35.17790307,126.8150666,1050,금구초교,Geumgu Elementary School,금구초교,+82 62 613 5700,bus_stop,platform
35.1398,126.8919306,484,명지맨션,Myeongji Mansion Apt.,명지맨션,+82 62 613 5700,bus_stop,platform
35.14795833,126.9385639,2976,단사공원,Dansa Park,단사공원,+82 62 613 5700,bus_stop,platform
35.21094054,126.8756496,2945,광주은행양산동지점,Kwangju Bank Yangsan-dong Branch,광주은행양산동지점,+82 62 613 5700,bus_stop,platform
35.18676667,126.9165056,2951,자연과학고,Natural Science High School,자연과학고,+82 62 613 5700,bus_stop,platform
35.161557,126.87154,928,기아차중문,Kia Motors Center Gate,기아차중문,+82 62 613 5700,bus_stop,platform
35.18134344,126.8956115,1480,용봉현대3차아파트,Yongbong Hyundai 3rd Apt.,용봉현대3차아파트,+82 62 613 5700,bus_stop,platform
35.087048,126.861759,1927,이장1동,Ijang 1(il)-dong,이장1동,+82 62 613 5700,bus_stop,platform
35.193815,126.891688,477,전남공무원교육원,Jeonnam Officials Training Institute,전남공무원교육원,+82 62 613 5700,bus_stop,platform
35.23438056,126.8603833,2604,현진기업,Hyunjin Enterprise,현진기업,+82 62 613 5700,bus_stop,platform
35.19788333,126.8726361,2632,연제현대아파트,Yeonje Hyundai Apt.,연제현대아파트,+82 62 613 5700,bus_stop,platform
35.15102222,126.7566861,2727,샛터마을,Saetteo Village,샛터마을,+82 62 613 5700,bus_stop,platform
35.16108625,126.8850778,2872,현대자동차,Hyundai Motors,현대자동차,+82 62 613 5700,bus_stop,platform
35.184758,126.9322225,2960,농산물공판장,Agricultural Wholesale Market,농산물공판장,+82 62 613 5700,bus_stop,platform
35.15252425,126.8480638,2965,한국수자원공사,Korea Water Resources Corporation,한국수자원공사,+82 62 613 5700,bus_stop,platform
35.14784444,126.9382333,2977,단사공원,Dansa Park,단사공원,+82 62 613 5700,bus_stop,platform
35.190363,126.804703,2916,중앙일보,Joongang Daily,중앙일보,+82 62 613 5700,bus_stop,platform
35.215907,126.90221,2926,명상의집,Myeongsangui-jip Retreat House,명상의집,+82 62 613 5700,bus_stop,platform
35.12552778,126.9091778,2939,봉선라인아파트,Bongseon Line Apt.,봉선라인아파트,+82 62 613 5700,bus_stop,platform
35.208325,126.878839,2946,양지초교,Yangji Elementary School,양지초교,+82 62 613 5700,bus_stop,platform
35.20657737,126.8757124,2948,동아제약,Dong-A Pharmaceutical,동아제약,+82 62 613 5700,bus_stop,platform
35.162159,126.868049,57,광명하이츠후문,Gwangmyeong Heights Apt. Back Gate,광명하이츠후문,+82 62 613 5700,bus_stop,platform
35.165723,126.854605,3001,유덕치안센터,Yudeok Police Patrol & Services Center,유덕치안센터,+82 62 613 5700,bus_stop,platform
35.225176,126.853085,2617,첨단삼성전자,Cheomdan Samsung Electronics,첨단삼성전자,+82 62 613 5700,bus_stop,platform
35.17282483,126.8885754,2657,경신여고,Gyeongsin Girls' High School,경신여고,+82 62 613 5700,bus_stop,platform
35.19076258,126.9266088,2671,문흥금호아파트,Munheung Kumho Apt.,문흥금호아파트,+82 62 613 5700,bus_stop,platform
35.13499722,126.9104444,2757,수피아여고,Speer Girls' High School,수피아여고,+82 62 613 5700,bus_stop,platform
35.16366785,126.9234034,2767,교육대,Gwangju National University of Education,교육대,+82 62 613 5700,bus_stop,platform
35.159689,126.897544,2777,임동오거리,Im-dong Ogeori,임동오거리,+82 62 613 5700,bus_stop,platform
35.21524379,126.9000991,2549,살레시오고입구,Salessio High School Entrance,살레시오고입구,+82 62 613 5700,bus_stop,platform
35.19768611,126.8717056,3425,연제현대아파트,Yeonje Hyundai Apt.,연제현대아파트,+82 62 613 5700,bus_stop,platform
35.11055532,126.8765722,3431,송원대,Songwon University,송원대,+82 62 613 5700,bus_stop,platform
35.05120833,126.7264917,3449,나주북초교,Naju Buk Elementary School,나주북초교,+82 62 613 5700,bus_stop,platform
35.06383041,126.8352884,3456,칠석,Chilseok,칠석,+82 62 613 5700,bus_stop,platform
35.161713,126.866668,58,광명하이츠후문,Gwangmyeong Heights Apt. Back Gate,광명하이츠후문,+82 62 613 5700,bus_stop,platform
35.14807778,126.9128694,1370,광주세무서,Gwangju District Tax Office,광주세무서,+82 62 613 5700,bus_stop,platform
35.147525,126.8842556,1551,유니버시아드힐스테이트,Universiade Hill State,유니버시아드힐스테이트,+82 62 613 5700,bus_stop,platform
35.236315,126.934928,2281,공원묘지,Cemetery Park,공원묘지,+82 62 613 5700,bus_stop,platform
35.08823353,126.8583607,1928,이장2동,Ijang 2(i)-dong,이장2동,+82 62 613 5700,bus_stop,platform
35.03480833,127.0665056,232,넘은골,Neomeungol,넘은골,+82 62 613 5700,bus_stop,platform
34.99938333,126.8206944,3139,다도초교,Dado Elementary School,다도초교,+82 62 613 5700,bus_stop,platform
35.22841389,127.0051583,3146,오강리,Ogang-li,오강리,+82 62 613 5700,bus_stop,platform
35.13680833,126.9044167,2754,서광중,Seogwang Middle School,서광중,+82 62 613 5700,bus_stop,platform
35.13824722,126.9176611,2762,학강초교,Hakgang Elementary School,학강초교,+82 62 613 5700,bus_stop,platform
35.16401505,126.9232535,2769,교육대,Gwangju National University of Education,교육대,+82 62 613 5700,bus_stop,platform
35.15781271,126.9040808,2779,북성중,Buksung Middle School,북성중,+82 62 613 5700,bus_stop,platform
35.043605,126.716077,3444,정렬사,Jeongryeolsa,정렬사,+82 62 613 5700,bus_stop,platform
35.2289365,126.6500363,3452,삼서초교,Samseo Elementary School,삼서초교,+82 62 613 5700,bus_stop,platform
35.207872,126.767721,43,고룡정보산업학교,Goryong Information Industry School,고룡정보산업학교,+82 62 613 5700,bus_stop,platform
35.15734444,126.9204893,72,광주고/419역사관,GwangJu High School/419 History Hall,광주고/419역사관,+82 62 613 5700,bus_stop,platform
35.12897935,126.7928132,1397,도산동행정복지센터,Dosan-dong Administration Welfare Center,도산동행정복지센터,+82 62 613 5700,bus_stop,platform
35.16752,126.690424,2100,평림,Pyeongnim,평림,+82 62 613 5700,bus_stop,platform
35.30458,126.926036,3469,포백,Pobaek,포백,+82 62 613 5700,bus_stop,platform
35.12273815,126.8769043,737,풍암한신아파트,Pungam Hanshin Apt.,풍암한신아파트,+82 62 613 5700,bus_stop,platform
35.20240556,126.8067222,696,하남삼성전자,Hanam Samsung Electronics,하남삼성전자,+82 62 613 5700,bus_stop,platform
35.181806,126.795128,1424,하남3지구모아엘가,Hanam 3 District Moaelga,하남3지구모아엘가,+82 62 613 5700,bus_stop,platform
35.19583611,126.7509083,2118,흑석,Heukseok,흑석,+82 62 613 5700,bus_stop,platform
35.17151944,126.9211361,473,말바우시장(서),Malbau Market (West),말바우시장(서),+82 62 613 5700,bus_stop,platform
35.14828056,126.9317944,2979,매일시장입구,Maeil Market Entrance,매일시장입구,+82 62 613 5700,bus_stop,platform
35.216178,126.902816,1136,명상의집,Myeongsangui-jip Retreat House,명상의집,+82 62 613 5700,bus_stop,platform
35.16043058,126.7077377,2128,지동(광산구),Jidong (Gwangsan-gu),지동(광산구),+82 62 613 5700,bus_stop,platform
35.18774064,126.9218102,538,문흥1동행정복지센터,Munheung 1(il)-dong Administration Welfare Center,문흥1동행정복지센터,+82 62 613 5700,bus_stop,platform
35.174043,126.7453701,3356,박호1리,Bakho 1(il)-ri,박호1리,+82 62 613 5700,bus_stop,platform
35.20941141,126.837344,556,방송통신대,Korea National Open University,방송통신대,+82 62 613 5700,bus_stop,platform
35.16185029,126.8627167,495,버들마을,Beodeul Village,버들마을,+82 62 613 5700,bus_stop,platform
35.223124,126.963217,1808,보촌1구,Bochon District 1,보촌1구,+82 62 613 5700,bus_stop,platform
35.23200166,126.6468206,3370,삼서면사무소,Samseomyeon Office ,삼서면사무소,+82 62 613 5700,bus_stop,platform
35.24072958,126.8692735,3099,금당,Geumdang ,금당,+82 62 613 5700,bus_stop,platform
35.236655,126.893401,3102,용전사거리(북),Yongjeon Sageori (North),용전사거리(북),+82 62 613 5700,bus_stop,platform
35.237017,126.795021,3168,승가마을,Seunggamaeul,승가마을,+82 62 613 5700,bus_stop,platform
35.22555207,126.8444868,3182,한국전자통신연구원,Electronics and Telecommunications Research Institute,한국전자통신연구원,+82 62 613 5700,bus_stop,platform
35.12584585,126.9132449,3018,봉선삼익아파트(북),Bongseon Samik Apt. (North),봉선삼익아파트(북),+82 62 613 5700,bus_stop,platform
35.21219722,126.8368111,654,산월초교입구,Sanwol Elementary School Entrance,산월초교입구,+82 62 613 5700,bus_stop,platform
35.19221667,126.7462611,2034,산수보건소,Sansu Community Health Center ,산수보건소,+82 62 613 5700,bus_stop,platform
35.154138,126.9318503,671,산수시장,Sansu Market,산수시장,+82 62 613 5700,bus_stop,platform
35.01437222,126.82435,1953,산제 윗길,Sanje Upside,산제 윗길,+82 62 613 5700,bus_stop,platform
35.01434444,126.8243806,2328,산제 윗길,Sanje Upside,산제 윗길,+82 62 613 5700,bus_stop,platform
35.21667778,126.8946361,679,살레시오고,Salesian High School,살레시오고,+82 62 613 5700,bus_stop,platform
35.163468,126.674568,2131,삼도삼거리,Samdo Samgeori,삼도삼거리,+82 62 613 5700,bus_stop,platform
35.20899722,126.8102139,219,삼영특수강,Samyeong Specialty Steel,삼영특수강,+82 62 613 5700,bus_stop,platform
35.15148538,126.8856988,716,상공회의소,Chamber of Commerce & industry,상공회의소,+82 62 613 5700,bus_stop,platform
35.14598712,126.8475629,729,상무역,Sangmu Station,상무역,+82 62 613 5700,bus_stop,platform
35.0866645,126.8405504,1932,상지석,Sangjiseok,상지석,+82 62 613 5700,bus_stop,platform
35.18572251,126.9210723,405,샛터코아,Saetteo Core Building,샛터코아,+82 62 613 5700,bus_stop,platform
35.13190059,126.8906022,753,서남하이츠(국제양궁장),International Archery Field,서남하이츠(국제양궁장),+82 62 613 5700,bus_stop,platform
35.211237,126.897828,583,서일초교,Seoil Elementary School,서일초교,+82 62 613 5700,bus_stop,platform
35.107438,126.8210601,2192,서창치안센터,Seochang Police Patrol & Services Center,서창치안센터,+82 62 613 5700,bus_stop,platform
35.2418694,126.8722597,3101,석수정,Seoksujeong ,석수정,+82 62 613 5700,bus_stop,platform
35.15079313,126.7727039,1592,선암,Seonam,선암,+82 62 613 5700,bus_stop,platform
35.18134839,126.9114069,787,성산맨션,Seongsan Mansion Apt.,성산맨션,+82 62 613 5700,bus_stop,platform
35.15880921,126.7163917,1610,송산,Songsan,송산,+82 62 613 5700,bus_stop,platform
35.15111389,126.7853472,804,광산경찰서,Gwangsan Police Station,광산경찰서,+82 62 613 5700,bus_stop,platform
35.14315276,126.8035722,826,송정파출소(남),Songjeong Police Box (South),송정파출소(남),+82 62 613 5700,bus_stop,platform
35.30765,126.9198611,3472,수북,Subuk,수북,+82 62 613 5700,bus_stop,platform
35.085224,126.867308,1926,수춘,Suchun,수춘,+82 62 613 5700,bus_stop,platform
35.260523,126.889941,2264,시목,Simok,시목,+82 62 613 5700,bus_stop,platform
35.12943611,126.8174889,3401,신광,Shingwang,신광,+82 62 613 5700,bus_stop,platform
35.15954254,126.8834371,865,신세계백화점(북),Shinsegae Department Store (North),신세계백화점(북),+82 62 613 5700,bus_stop,platform
35.17243229,126.8906643,1299,광주지방기상청,Gwangju Regional Meteorological Administration,광주지방기상청,+82 62 613 5700,bus_stop,platform
35.15133728,126.9019348,275,닭전머리,Dakjeonmeori,닭전머리,+82 62 613 5700,bus_stop,platform
35.13823611,126.7975139,815,송정시장,Songjeong Market,송정시장,+82 62 613 5700,bus_stop,platform
35.15369,126.838644,840,상무시민공원,Sangmu Park,상무시민공원,+82 62 613 5700,bus_stop,platform
35.20849987,126.8739159,911,양산초교입구,Yangsan Elementary School Entrance,양산초교입구,+82 62 613 5700,bus_stop,platform
35.15104444,126.9163111,976,예술의거리입구,Art Street Entrance,예술의거리입구,+82 62 613 5700,bus_stop,platform
35.13746667,126.6614722,1633,망월,Mangwol,망월,+82 62 613 5700,bus_stop,platform
35.06083889,126.7485028,1702,동산마을,Dongsanmaeul(Naju),동산마을,+82 62 613 5700,bus_stop,platform
35.0974931,126.8243378,1767,학동(서창),Hak-dong (Seochang),학동(서창),+82 62 613 5700,bus_stop,platform
35.21373056,126.7905556,1321,진성,Jinseong,진성,+82 62 613 5700,bus_stop,platform
35.15737214,126.9357588,1494,호남맨션,Honam Mansion Apt.,호남맨션,+82 62 613 5700,bus_stop,platform
35.20656228,126.9315005,3028,변전소,Electrical Substation,변전소,+82 62 613 5700,bus_stop,platform
35.25453333,126.9492944,2291,양지분교,Yangji Branch School,양지분교,+82 62 613 5700,bus_stop,platform
35.187086,127.004587,2297,가사문학관,Gasa Literary House,가사문학관,+82 62 613 5700,bus_stop,platform
35.04686667,126.8404833,2317,남평농협,Nampyeong Agricultural Cooperative Federation,남평농협,+82 62 613 5700,bus_stop,platform
35.0935898,126.9416885,2337,남계촌,Namgyechon,남계촌,+82 62 613 5700,bus_stop,platform
35.26528056,126.8385778,2346,평촌,Pyeongchon,평촌,+82 62 613 5700,bus_stop,platform
35.2397101,127.018712,2356,창평초교,Changpyeong Elementary School,창평초교,+82 62 613 5700,bus_stop,platform
35.216476,126.7528501,2075,가정,Gajeong,가정,+82 62 613 5700,bus_stop,platform
35.218039,126.749589,2044,성내,Seongnae,성내,+82 62 613 5700,bus_stop,platform
35.12630904,126.7448222,2174,용곡입구,Yonggok Entrance,용곡입구,+82 62 613 5700,bus_stop,platform
35.059575,126.9826139,2111,화순시장,Hwasun Market,화순시장,+82 62 613 5700,bus_stop,platform
35.29077778,126.9359583,1851,만화동,Manhwadong,만화동,+82 62 613 5700,bus_stop,platform
35.28618611,126.9022472,1862,갑향리,Gaphyang-li,갑향리,+82 62 613 5700,bus_stop,platform
35.23518889,126.9350972,1887,공원묘지,Cemetery Park,공원묘지,+82 62 613 5700,bus_stop,platform
35.24354722,126.9537361,1900,원유동,Wonyudong,원유동,+82 62 613 5700,bus_stop,platform
35.1034968,126.878792,1918,인성고,Inseong High School,인성고,+82 62 613 5700,bus_stop,platform
35.081208,126.834087,1934,대촌동행정복지센터,Daechon-dong Administration Welfare Center,대촌동행정복지센터,+82 62 613 5700,bus_stop,platform
35.04544167,126.8426333,1943,나주축산농협,Naju Livestock Agricultural Cooperative Federation,나주축산농협,+82 62 613 5700,bus_stop,platform
35.13859678,126.9218837,213,남광주역,Namgwangju Station,남광주역,+82 62 613 5700,bus_stop,platform
35.034715,127.065929,231,넘은골,Neomeungol,넘은골,+82 62 613 5700,bus_stop,platform
35.12605306,126.7425418,1664,기곡,Gigok ,기곡,+82 62 613 5700,bus_stop,platform
35.14490379,126.9090843,2829,향교,Hyanggyo Confucian School ,향교,+82 62 613 5700,bus_stop,platform
35.14072222,126.8913722,1224,제일맨션,Jeil Mansion Apt.,제일맨션,+82 62 613 5700,bus_stop,platform
35.15804108,126.8486473,2831,한국은행,Bank of Korea,한국은행,+82 62 613 5700,bus_stop,platform
35.15786402,126.848045,2832,한국은행,Bank of Korea,한국은행,+82 62 613 5700,bus_stop,platform
35.15638113,126.8486401,2835,한국국토정보공사,Korea Land and Geospatial Informatix Corp.,한국국토정보공사,+82 62 613 5700,bus_stop,platform
35.15917061,126.9307873,2843,두암지구입구,Duam District Entrance,두암지구입구,+82 62 613 5700,bus_stop,platform
35.16634313,126.9198185,762,서방시장(남),Seobang Market (South),서방시장(남),+82 62 613 5700,bus_stop,platform
35.19846389,126.8857778,610,오비맥주,Oriental Brewery,오비맥주,+82 62 613 5700,bus_stop,platform
35.15333435,126.9163125,299,대인시장(서),Daein Market (West),대인시장(서),+82 62 613 5700,bus_stop,platform
35.131575,126.902565,2964,남구청,Nam-gu Office,남구청,+82 62 613 5700,bus_stop,platform
35.18267938,126.9187245,1226,문화근린공원,Munhwa Neighborhood Park,문화근린공원,+82 62 613 5700,bus_stop,platform
35.2113386,126.8458354,2919,첨단부영아파트,Cheomdan Booyoung Apt.,첨단부영아파트,+82 62 613 5700,bus_stop,platform
35.20901389,126.8144417,2612,경제고용진흥원,Gwangju Economy & Imployment Promotion Agency,경제고용진흥원,+82 62 613 5700,bus_stop,platform
35.19891934,126.8384294,2621,신창호반아파트,Sinchang Hoban Apt.,신창호반아파트,+82 62 613 5700,bus_stop,platform
35.22909,126.898809,2631,생룡,Saengnyong,생룡,+82 62 613 5700,bus_stop,platform
34.99201111,126.9579833,2669,능주사거리,Neungju 4-Way Junc,능주사거리,+82 62 613 5700,bus_stop,platform
35.154302,126.740269,2725,동명고입구,Dongmyoung High School Entrance,동명고입구,+82 62 613 5700,bus_stop,platform
35.13628056,126.9081778,2755,석산고,Seoksan High School,석산고,+82 62 613 5700,bus_stop,platform
35.16240965,126.9202272,2765,계림사거리,Gyerim Sageori,계림사거리,+82 62 613 5700,bus_stop,platform
35.15394298,126.9045274,2774,양동복개쇼핑센터,Yangdong Bokga Shopping Center,양동복개쇼핑센터,+82 62 613 5700,bus_stop,platform
35.272565,126.833792,2548,진원면사무소,Jinwonmyeon Office,진원면사무소,+82 62 613 5700,bus_stop,platform
35.11073975,126.8767999,3430,송원대,Songwon University,송원대,+82 62 613 5700,bus_stop,platform
35.043646,126.716428,3445,정렬사,Jeongryeolsa,정렬사,+82 62 613 5700,bus_stop,platform
35.21501111,126.6580667,3455,보강입구,Entrance to Bogang,보강입구,+82 62 613 5700,bus_stop,platform
35.12614167,126.7867056,44,공군부대,Air Unit ,공군부대,+82 62 613 5700,bus_stop,platform
35.090325,126.9511806,3277,교동,Gyodong,교동,+82 62 613 5700,bus_stop,platform
35.160267,126.89207,3282,발산,Balsan,발산,+82 62 613 5700,bus_stop,platform
35.09172108,126.8270465,2196,개동,Gaedong,개동,+82 62 613 5700,bus_stop,platform
35.26043333,126.9600861,1836,죽림,Jungnim,죽림,+82 62 613 5700,bus_stop,platform
35.15616564,126.8133638,3118,서작,Seojak,서작,+82 62 613 5700,bus_stop,platform
35.06338611,126.9801111,1521,화순군선거관리위원회,Hwasun-gun Election Commission,화순군선거관리위원회,+82 62 613 5700,bus_stop,platform
35.12599707,126.8553259,1504,광주중,Gwangju Middle School,광주중,+82 62 613 5700,bus_stop,platform
35.00854444,126.9572806,2068,원지리,Wonji-li,원지리,+82 62 613 5700,bus_stop,platform
35.21287778,126.7956139,342,도현,Dohyeon,도현,+82 62 613 5700,bus_stop,platform
35.15123333,126.9235583,350,동구노인종합복지관,Donggu General Welfare Center,동구노인종합복지관,+82 62 613 5700,bus_stop,platform
35.05675,126.9924472,546,제일장식,Jeil Jangsik,제일장식,+82 62 613 5700,bus_stop,platform
35.21101409,126.8430141,631,무양서원입구,Muyangsewon Confucian Academy Entrance,무양서원입구,+82 62 613 5700,bus_stop,platform
35.18503611,126.8357417,1022,신가우미아파트,Singa Woomi Apt.,신가우미아파트,+82 62 613 5700,bus_stop,platform
35.17039722,126.9244167,346,동강대후문,Dongkang College Back Gate,동강대후문,+82 62 613 5700,bus_stop,platform
35.15445278,126.9141667,367,동부소방서,Dongbu Fire Station,동부소방서,+82 62 613 5700,bus_stop,platform
35.186279,126.881921,550,광주박물관,Gwangju National Museum,광주박물관,+82 62 613 5700,bus_stop,platform
35.12438991,126.8601149,635,마재부영아파트,Majae Booyoung Apt.,마재부영아파트,+82 62 613 5700,bus_stop,platform
35.17274167,126.9100306,645,북구보건소,Buk-gu Community Health Center,북구보건소,+82 62 613 5700,bus_stop,platform
35.18396874,127.0083163,3880,유산교,Yusangyo(Bridge),유산교,+82 62 613 5700,bus_stop,platform
35.15506724,126.936624,676,산수2동행정복지센터,Sansu 2(i)-dong Adminstration Welfare Center,산수2동행정복지센터,+82 62 613 5700,bus_stop,platform
35.19863611,126.9034556,685,원삼각마을삼일아파트,Wonsamgak Village Samil Apt.,원삼각마을삼일아파트,+82 62 613 5700,bus_stop,platform
35.12568039,126.9132095,705,봉선삼익아파트(북),Bongseon Samik Apt. (North),봉선삼익아파트(북),+82 62 613 5700,bus_stop,platform
35.21344929,126.8976639,713,일곡삼호아파트,Ilgok Samho Apt.,일곡삼호아파트,+82 62 613 5700,bus_stop,platform
35.14510584,126.8573014,731,상무중,Sangmu Middle School,상무중,+82 62 613 5700,bus_stop,platform
35.21889323,126.8372356,414,첨단초교,Cheomdan Elementary School,첨단초교,+82 62 613 5700,bus_stop,platform
35.13788889,126.8746639,425,럭키아파트,Lucky Apt.,럭키아파트,+82 62 613 5700,bus_stop,platform
35.22012778,126.8529278,433,폭스존,Fox Zone,폭스존,+82 62 613 5700,bus_stop,platform
35.18824444,126.8942778,478,매곡삼익아파트,Maegok Samik Apt.,매곡삼익아파트,+82 62 613 5700,bus_stop,platform
35.18622763,126.9234982,493,문흥라인아파트,Munheung Line Apt.,문흥라인아파트,+82 62 613 5700,bus_stop,platform
35.13702222,126.8942028,504,무등시장,Mudeung Market,무등시장,+82 62 613 5700,bus_stop,platform
35.16725833,126.9194917,760,서방시장(북),Seobang Market (North),서방시장(북),+82 62 613 5700,bus_stop,platform
35.157,126.9620194,8,4수원지위,Upper of Reservoir 4,4수원지위,+82 62 613 5700,bus_stop,platform
35.148472,126.888435,20,건강협회,Association of Health Promotion,건강협회,+82 62 613 5700,bus_stop,platform
35.22144452,126.836222,658,첨단금호아파트,Cheomdan Kumho Apt.,첨단금호아파트,+82 62 613 5700,bus_stop,platform
35.22879077,126.8567194,677,산업인력공단,Human Resources Development Service,산업인력공단,+82 62 613 5700,bus_stop,platform
35.1244,126.912211,707,봉선삼익아파트(남),Bongseon Samik Apt. (South),봉선삼익아파트(남),+82 62 613 5700,bus_stop,platform
35.270961,126.862452,718,상림,Sanglim,상림,+82 62 613 5700,bus_stop,platform
35.12587222,126.8469806,742,서광주역,Seogwangju Station,서광주역,+82 62 613 5700,bus_stop,platform
35.21724175,126.8316025,418,첨단도서관,Cheomdan Library,첨단도서관,+82 62 613 5700,bus_stop,platform
35.15438611,126.9109556,430,롯데백화점,Lotte Department Store,롯데백화점,+82 62 613 5700,bus_stop,platform
35.19090833,126.877275,438,마당고개,Madang Pass,마당고개,+82 62 613 5700,bus_stop,platform
35.17248039,126.9244824,471,말바우시장(동),Malbau Market (East),말바우시장(동),+82 62 613 5700,bus_stop,platform
35.14116667,126.8019306,492,송정모아아파트,Songjeong Moa Apt.,송정모아아파트,+82 62 613 5700,bus_stop,platform
35.168471,126.890658,500,광주기아챔피언스필드,Gwangju-Kia Champions Field,광주기아챔피언스필드,+82 62 613 5700,bus_stop,platform
35.21612385,126.8344556,754,응암공원,Eungam Park,응암공원,+82 62 613 5700,bus_stop,platform
35.23015556,126.7369306,779,석동,Seokdong ,석동,+82 62 613 5700,bus_stop,platform
35.211923,126.874294,18,거진,Geojin,거진,+82 62 613 5700,bus_stop,platform
35.16050833,126.9235167,27,계림초교후문,Gyerim Elementary School Back Gate,계림초교후문,+82 62 613 5700,bus_stop,platform
35.19445571,126.9043213,37,31사단,31st Infantry Division,31사단,+82 62 613 5700,bus_stop,platform
35.15246111,126.9,46,농협공판장,Nonghyup Joint Market,농협공판장,+82 62 613 5700,bus_stop,platform
35.15905833,126.8077361,64,광산중,Gwangsan Middle School,광산중,+82 62 613 5700,bus_stop,platform
35.10966,126.896849,78,금호타운아파트,Kumhotown Apt.,금호타운아파트,+82 62 613 5700,bus_stop,platform
35.16468333,126.9069722,88,광주역,Gwangju Station,광주역,+82 62 613 5700,bus_stop,platform
35.19167322,126.8513524,2523,반촌,Banchon,반촌,+82 62 613 5700,bus_stop,platform
35.164088,126.740477,3501,박호동,Bakho-dong,박호동,+82 62 613 5700,bus_stop,platform
