경도,위도,name,name:ko,highway,public_transport
35.14401842,126.8105372,공항역,공항역,bus_stop,platform
35.14410716,126.8124846,공항역,공항역,bus_stop,platform
35.1382692,126.7921741,광주송정역,광주송정역,bus_stop,platform
35.1382213,126.7916916,광주송정역,광주송정역,bus_stop,platform
35.0249497,126.7857093,GEP파빌리온,GEP파빌리온,bus_stop,platform
35.014396,126.7774822,LH1단지,LH1단지,bus_stop,platform
35.0107704,126.7819309,LH3단지,LH3단지,bus_stop,platform
35.0127252,126.7954495,LH5단지,LH5단지,bus_stop,platform
35.0094199,126.7930339,LH6단지,LH6단지,bus_stop,platform
35.009634,126.7926375,LH6단지,LH6단지,bus_stop,platform
35.0205083,126.7848601,교직원연금공단,교직원연금공단,bus_stop,platform
35.0206182,126.7851551,교직원연금공단,교직원연금공단,bus_stop,platform
35.02087321,126.7943055,국립전파연구원,국립전파연구원,bus_stop,platform
35.0205816,126.7940808,국립전파연구원,국립전파연구원,bus_stop,platform
35.0286462,126.7169331,나주공공도서관,나주공공도서관,bus_stop,platform
35.0283464,126.7165852,나주공공도서관,나주공공도서관,bus_stop,platform
35.0171114,126.7138536,나주시청,나주시청,bus_stop,platform
35.0168341,126.714196,나주시청,나주시청,bus_stop,platform
35.01446,126.7165752,나주역,나주역,bus_stop,platform
35.0144683,126.7165752,나주역,나주역,bus_stop,platform
35.0290557,126.7189134,나주초등학교,나주초등학교,bus_stop,platform
35.0286732,126.7183251,나주초등학교,나주초등학교,bus_stop,platform
35.0342576,126.7215608,나주터미널,나주터미널,bus_stop,platform
35.0342576,126.7215608,나주터미널,나주터미널,bus_stop,platform
35.0302528,126.7199763,남고문,남고문,bus_stop,platform
35.0302636,126.7202503,남고문,남고문,bus_stop,platform
35.0484614,126.8405704,남평농협,남평농협,bus_stop,platform
35.0485604,126.8405367,남평농협,남평농협,bus_stop,platform
34.9996798,126.7136149,노인복지회관,노인복지회관,bus_stop,platform
34.999597,126.7133636,노인복지회관,노인복지회관,bus_stop,platform
35.01933,126.7777457,농어촌공사,농어촌공사,bus_stop,platform
35.019404,126.7780739,농어촌공사,농어촌공사,bus_stop,platform
35.0106035,126.7826666,대광아파트,대광아파트,bus_stop,platform
35.0086948,126.7119066,대덕아파트,대덕아파트,bus_stop,platform
35.0086884,126.7116075,대덕아파트,대덕아파트,bus_stop,platform
35.0363137,126.7230049,목사고을시장,목사고을시장,bus_stop,platform
35.0364691,126.7233378,목사고을시장,목사고을시장,bus_stop,platform
35.0228953,126.7130638,문화예술회관,문화예술회관,bus_stop,platform
35.1326381,126.8999653,백운광장,백운광장,bus_stop,platform
35.0142238,126.7773302,LH1단지,LH1단지,bus_stop,platform
35.00938,126.7877407,빛가람초교,빛가람초교,bus_stop,platform
35.0096206,126.7887907,빛가람초교,빛가람초교,bus_stop,platform
35.0211452,126.7888992,빛가람주민센터,빛가람주민센터,bus_stop,platform
35.0350238,126.7187141,성북동사무소,성북동사무소,bus_stop,platform
35.0350164,126.7189773,성북동사무소,성북동사무소,bus_stop,platform
35.0359192,126.7205474,성북아파트,성북아파트,bus_stop,platform
35.026833,126.7112393,소방삼거리,소방삼거리,bus_stop,platform
35.026656,126.7117562,소방삼거리,소방삼거리,bus_stop,platform
35.0239598,126.7131303,송월부영아파트,송월부영아파트,bus_stop,platform
35.0283344,126.7147327,송월주공후문,송월주공후문,bus_stop,platform
35.028091,126.7147351,송월주공후문,송월주공후문,bus_stop,platform
35.0145209,126.7833339,영무예다음,영무예다음,bus_stop,platform
35.0145063,126.7839259,영무예다음,영무예다음,bus_stop,platform
34.994633,126.7126551,영산포터미널,영산포터미널,bus_stop,platform
34.994633,126.7126551,영산포터미널,영산포터미널,bus_stop,platform
35.02736164,126.780616,우미린아파트,우미린아파트,bus_stop,platform
35.030383,126.78655,우미린아파트,우미린아파트,bus_stop,platform
35.025575,126.7955037,우정사업정보센터(후문),우정사업정보센터(후문),bus_stop,platform
35.025575,126.7955037,우정사업정보센터(후문),우정사업정보센터(후문),bus_stop,platform
35.0303927,126.783601,유전저수지,유전저수지,bus_stop,platform
35.1442341,126.9222343,전남대병원,전남대병원,bus_stop,platform
35.1444144,126.922233,전남대병원,전남대병원,bus_stop,platform
35.0302497,126.786891,중흥S클래스리버티,중흥S클래스리버티,bus_stop,platform
35.0303865,126.7871419,중흥S클래스리버티,중흥S클래스리버티,bus_stop,platform
35.02382599,126.7863328,중흥S클래스센트럴 1차,중흥S클래스센트럴 1차,bus_stop,platform
35.0205816,126.7940808,전파진흥원,전파진흥원,bus_stop,platform
35.042979,126.716272,정열사입구,정열사입구,bus_stop,platform
35.042993,126.716712,정열사입구,정열사입구,bus_stop,platform
35.1477176,126.930462,조선대,조선대,bus_stop,platform
35.1480602,126.9304597,조선대,조선대,bus_stop,platform
35.0322332,126.7865276,중앙로,중앙로,bus_stop,platform
35.032307,126.7957346,중앙로,중앙로,bus_stop,platform
35.02118,126.71352,문화예술회관,문화예술회관,bus_stop,platform
35.02492456,126.7824264,한전후문,한전후문,bus_stop,platform
35.0247938,126.7820728,한전후문,한전후문,bus_stop,platform
35.0357087,126.7833282,중앙병원,중앙병원,bus_stop,platform
35.01263367,126.7956716,한아름유치원앞,한아름유치원앞,bus_stop,platform
35.02399549,126.786231,한국전력공사,한국전력공사,bus_stop,platform
35.02382599,126.7863328,한국전력공사,한국전력공사,bus_stop,platform
35.0167941,126.7942638,토담빌딩,토담빌딩,bus_stop,platform
35.02355043,126.7903665,중흥S클래스센트럴 2차,중흥S클래스센트럴 2차,bus_stop,platform
35.02358845,126.7904645,중흥S클래스센트럴 2차,중흥S클래스센트럴 2차,bus_stop,platform
35.02399549,126.786231,중흥S클래스센트럴 1차,중흥S클래스센트럴 1차,bus_stop,platform
35.02087321,126.7943055,전파진흥원,전파진흥원,bus_stop,platform
35.0171107,126.7944364,부영아파트,부영아파트,bus_stop,platform
34.9968108,126.7140839,남교동,남교동,bus_stop,platform
35.0236366,126.7143271,송월부영아파트,송월부영아파트,bus_stop,platform
35.0299452,126.7100583,나주고후문,나주고후문,bus_stop,platform
35.0335387,126.7135538,백민원,백민원,bus_stop,platform
35.0371009,126.716414,천주교사거리,천주교사거리,bus_stop,platform
35.0370161,126.7200436,미곡,미곡,bus_stop,platform
35.0366463,126.744254,중앙병원,중앙병원,bus_stop,platform
35.0379245,126.7526216,금천,금천,bus_stop,platform
35.0284972,126.8045192,신흥,신흥,bus_stop,platform
35.0337528,126.8031788,빛가람병원,빛가람병원,bus_stop,platform
35.0352181,126.8031664,산포초교,산포초교,bus_stop,platform
35.0370197,126.803639,매성(산포농협),매성(산포농협),bus_stop,platform
35.0408805,126.8043715,산포면사무소입구,산포면사무소입구,bus_stop,platform
35.0440111,126.824118,금와(정자교)입구,금와(정자교)입구,bus_stop,platform
35.0463915,126.8268571,삼성자동차운전학원,삼성자동차운전학원,bus_stop,platform
35.1816317,126.9112582,전남대후문위,전남대후문위,bus_stop,platform
35.1801761,126.910456,전남대후문위,전남대후문위,bus_stop,platform
35.0465899,126.8268555,삼성자동차운전학원,삼성자동차운전학원,bus_stop,platform
35.0436791,126.8227952,금와(정자교)입구,금와(정자교)입구,bus_stop,platform
35.0408805,126.8043715,산포면사무소입구,산포면사무소입구,bus_stop,platform
35.0370197,126.803639,매성(산포농협),매성(산포농협),bus_stop,platform
35.0357803,126.8045046,산포초교,산포초교,bus_stop,platform
35.0374971,126.7205324,성북아파트,성북아파트,bus_stop,platform
35.0373714,126.7164114,천주교사거리,천주교사거리,bus_stop,platform
35.0292203,126.7102023,나주고후문,나주고후문,bus_stop,platform
35.0208637,126.7140259,나주교육지원청,나주교육지원청,bus_stop,platform
35.0121068,126.7120273,실내체육관,실내체육관,bus_stop,platform
34.9974177,126.7140781,남교동,남교동,bus_stop,platform
35.0349415,126.7610026,남양유업,남양유업,bus_stop,platform
35.0356236,126.7656635,촌곡(배박물관),촌곡(배박물관),bus_stop,platform
35.0372293,126.7732686,효사랑병원,효사랑병원,bus_stop,platform
35.0363436,126.7706727,효사랑병원,효사랑병원,bus_stop,platform
35.0360757,126.7658787,촌곡(배박물관),촌곡(배박물관),bus_stop,platform
35.0370344,126.7589303,남양유업,남양유업,bus_stop,platform
35.037055,126.7534704,금천(원예고),금천(원예고),bus_stop,platform
35.0417871,126.7487786,원촌,원촌,bus_stop,platform
35.0077,126.787047,봉황고,봉황고,bus_stop,platform
35.015612,126.781636,LH2단지,LH2단지,bus_stop,platform
35.015678,126.781715,LH2단지,LH2단지,bus_stop,platform
35.0077,126.787047,봉황고,봉황고,bus_stop,platform
35.02102,126.78213,문화예술위원회,문화예술위원회,bus_stop,platform
35.0229378,126.7943497,우정사업정보센터,우정사업정보센터,bus_stop,platform
35.0227,126.794171,우정사업정보센터,우정사업정보센터,bus_stop,platform
35.0213013,126.7901001,빛가람주민센터,빛가람주민센터,bus_stop,platform
35.02135,126.78267,한전KDN,한전KDN,bus_stop,platform
35.0211754,126.7792358,전력거래소입구,전력거래소입구,bus_stop,platform
35.0214993,126.779335,전력거래소입구,전력거래소입구,bus_stop,platform
