위도,경도,amenity,name,addr:full,source,source:date,shop
33.2216083,126.2523872,cafe,중앙다방,제주특별자치도 서귀포시 대정읍 하모상가로 31,공공데이터포털,2018-02-23,
33.2487665,126.567381,cafe,돌다방,제주특별자치도 서귀포시 동문로 70 (서귀동),공공데이터포털,2018-02-23,
33.2494187,126.5652211,cafe,우성다방,제주특별자치도 서귀포시 중정로91번길 15 2층 (서귀동),공공데이터포털,2018-02-23,
33.2202096,126.2518422,cafe,수궁다방,제주특별자치도 서귀포시 대정읍 하모항구로 78,공공데이터포털,2018-02-23,
33.2492416,126.5666726,cafe,해당화다방,제주특별자치도 서귀포시 동문로 60 2층 (서귀동),공공데이터포털,2018-02-23,
33.244278,126.5641506,cafe,보물섬다방,제주특별자치도 서귀포시 솔동산로 6-1 (서귀동),공공데이터포털,2018-02-23,
33.2482665,126.5642924,휴게음식점,에덴분식,제주특별자치도 서귀포시 중정로73번길 2 (서귀동),공공데이터포털,2018-02-23,
33.2485788,126.5642465,휴게음식점,새로나식당,제주특별자치도 서귀포시 중앙로42번길 24 (서귀동),공공데이터포털,2018-02-23,
33.2468486,126.3356721,cafe,화신다방,제주특별자치도 서귀포시 안덕면 화순로 100-1,공공데이터포털,2018-02-23,
33.2486781,126.5666013,cafe,동미다방,제주특별자치도 서귀포시 중정로 95-2 (서귀동),공공데이터포털,2018-02-23,
33.3258943,126.8336204,cafe,표선다방,제주특별자치도 서귀포시 표선면 표선중앙로 89,공공데이터포털,2018-02-23,
33.2476176,126.5628319,휴게음식점,김밥천국서귀포점,제주특별자치도 서귀포시 중정로 60 (서귀동),공공데이터포털,2018-02-23,
33.3264263,126.8322772,cafe,곰다방,제주특별자치도 서귀포시 표선면 표선중앙로 76,공공데이터포털,2018-02-23,
33.249075,126.5651269,휴게음식점,뽕뽕식당,제주특별자치도 서귀포시 중앙로42번길 33 1층 (서귀동),공공데이터포털,2018-02-23,
33.2216269,126.2511458,휴게음식점,은성,제주특별자치도 서귀포시 대정읍 하모상가로 21,공공데이터포털,2018-02-23,
33.2795061,126.7201097,cafe,귀빈다방,제주특별자치도 서귀포시 남원읍 태위로 689,공공데이터포털,2018-02-23,
33.4490938,126.9151914,cafe,약속다방,제주특별자치도 서귀포시 성산읍 동류암로 51-1,공공데이터포털,2018-02-23,
33.2498991,126.4082883,cafe,호텔하나다방,제주특별자치도 서귀포시 중문관광로72번길 53 (색달동),공공데이터포털,2018-02-23,
33.25035,126.5625661,cafe,외인다방,제주특별자치도 서귀포시 중앙로62번길 11 (서귀동),공공데이터포털,2018-02-23,
33.25004,126.5617997,cafe,동산다방,제주특별자치도 서귀포시 중앙로62번길 2 (서귀동),공공데이터포털,2018-02-23,
33.2586063,126.5620424,휴게음식점,서귀고교구내매점,제주특별자치도 서귀포시 중앙로150번길 4-1 (동홍동),공공데이터포털,2018-02-23,
33.2498304,126.5656661,cafe,금호다방,제주특별자치도 서귀포시 동문로 48 (서귀동),공공데이터포털,2018-02-23,
33.2486729,126.5627846,휴게음식점,롯데리아서귀포점,제주특별자치도 서귀포시 중정로61번길 9 (서귀동),공공데이터포털,2018-02-23,
33.2511819,126.508187,휴게음식점,중앙도서관구내식당,제주특별자치도 서귀포시 김정문화로 32 (강정동),공공데이터포털,2018-02-23,
33.2493619,126.565927,cafe,뱅크다방,제주특별자치도 서귀포시 중앙로42번길 41 (서귀동),공공데이터포털,2018-02-23,
33.2586063,126.5620424,휴게음식점,서귀포학생문화원구내식당,제주특별자치도 서귀포시 중앙로150번길 4-1 (동홍동),공공데이터포털,2018-02-23,
33.2479639,126.5644025,휴게음식점,서귀먹보김밥천국,제주특별자치도 서귀포시 이중섭로 1 (서귀동),공공데이터포털,2018-02-23,
33.2476176,126.5628319,휴게음식점,베스킨라빈스,제주특별자치도 서귀포시 중정로 60 (서귀동),공공데이터포털,2018-02-23,
33.2429044,126.4204352,휴게음식점,씨에스호텔시젠,제주특별자치도 서귀포시 중문관광로 198 (중문동),공공데이터포털,2018-02-23,
33.2490074,126.5675574,휴게음식점,아름이네분식,제주특별자치도 서귀포시 동문로 69 (서귀동),공공데이터포털,2018-02-23,
33.2480405,126.5620524,cafe,백록다방,제주특별자치도 서귀포시 중앙로 38 (서귀동),공공데이터포털,2018-02-23,
33.4472813,126.914758,cafe,공주다방,제주특별자치도 서귀포시 성산읍 일출로 18,공공데이터포털,2018-02-23,
33.2501459,126.5672963,휴게음식점,짱구분식,제주특별자치도 서귀포시 중동로48번길 3 (서귀동),공공데이터포털,2018-02-23,
33.3223451,126.8414874,,민속촌편의점,제주특별자치도 서귀포시 표선면 민속해안로 631-34,공공데이터포털,2018-02-23,convenience
33.2795235,126.7199645,cafe,제원다방,제주특별자치도 서귀포시 남원읍 태위로 687,공공데이터포털,2018-02-23,
33.3265182,126.8331331,휴게음식점,향찻집,제주특별자치도 서귀포시 표선면 표선동서로 255,공공데이터포털,2018-02-23,
33.2533972,126.5593495,휴게음식점,러브파이,제주특별자치도 서귀포시 중앙로101번길 13-2 (서홍동),공공데이터포털,2018-02-23,
33.2537273,126.5614624,휴게음식점,난타5000서귀포시청점,제주특별자치도 서귀포시 중앙로 102 (동홍동),공공데이터포털,2018-02-23,
33.2508239,126.5640907,cafe,금잔듸다방,제주특별자치도 서귀포시 동문로 30 (서귀동),공공데이터포털,2018-02-23,
33.2480965,126.560575,cafe,여정다방,제주특별자치도 서귀포시 중앙로 41 (서귀동),공공데이터포털,2018-02-23,
33.2507131,126.5630881,cafe,피서지다방,제주특별자치도 서귀포시 중정로91번길 39 (서귀동),공공데이터포털,2018-02-23,
33.248144,126.5677388,cafe,귀빈다방,제주특별자치도 서귀포시 정방로 6 (서귀동),공공데이터포털,2018-02-23,
33.2207101,126.253394,cafe,이반다방,제주특별자치도 서귀포시 대정읍 신영로 98,공공데이터포털,2018-02-23,
33.2486381,126.563135,cafe,화용다방,제주특별자치도 서귀포시 중정로61번길 8-1 (서귀동),공공데이터포털,2018-02-23,
33.2477168,126.5640771,휴게음식점,용우동서귀포점,제주특별자치도 서귀포시 이중섭로 4 (서귀동),공공데이터포털,2018-02-23,
33.2476527,126.5632133,휴게음식점,베트로,제주특별자치도 서귀포시 중정로62번길 1 (서귀동),공공데이터포털,2018-02-23,
33.4661342,126.9335405,휴게음식점,일출봉호텔커피숍,제주특별자치도 서귀포시 성산읍 한도로 244,공공데이터포털,2018-02-23,
33.2211157,126.2522972,cafe,제일다방,제주특별자치도 서귀포시 대정읍 하모중앙로 79,공공데이터포털,2018-02-23,
33.3258978,126.8317849,cafe,가름다방,제주특별자치도 서귀포시 표선면 표선중앙로80번길 9,공공데이터포털,2018-02-23,
33.2484188,126.5666291,cafe,대성다방,제주특별자치도 서귀포시 중정로 96 (서귀동),공공데이터포털,2018-02-23,
33.2446568,126.5517975,휴게음식점,삼매봉도서관구내식당 아띠,제주특별자치도 서귀포시 남성중로153번길 15 (서홍동),공공데이터포털,2018-02-23,
33.2519142,126.5609974,휴게음식점,토르토니서귀포점,제주특별자치도 서귀포시 중앙로 81 (서귀동),공공데이터포털,2018-02-23,
33.3225332,126.8228665,cafe,사계절다방, ,공공데이터포털,2018-02-23,
33.2799028,126.7191442,휴게음식점,청실,제주특별자치도 서귀포시 남원읍 태위로679번길 8,공공데이터포털,2018-02-23,
33.2214038,126.2531635,cafe,양지다방,제주특별자치도 서귀포시 대정읍 하모상가로 40,공공데이터포털,2018-02-23,
33.305894,126.28942,휴게음식점,주식회사아모레퍼시픽오설록,제주특별자치도 서귀포시 안덕면 신화역사로 15,공공데이터포털,2018-02-23,
33.2256763,126.2530378,cafe,초원다방,제주특별자치도 서귀포시 대정읍 동일하모로 206,공공데이터포털,2018-02-23,
33.2540178,126.5642069,휴게음식점,서귀포 피자클래스,제주특별자치도 서귀포시 일주동로 8650 (동홍동),공공데이터포털,2018-02-23,
33.2506825,126.5622388,휴게음식점,중앙분식삼춘냉면,제주특별자치도 서귀포시 중앙로72번길 8-9 (서귀동),공공데이터포털,2018-02-23,
33.2483035,126.5628089,휴게음식점,김가네,제주특별자치도 서귀포시 중앙로42번길 8 (서귀동),공공데이터포털,2018-02-23,
33.2400439,126.5645288,cafe,산호다방,제주특별자치도 서귀포시 부두로 55 (서귀동),공공데이터포털,2018-02-23,
33.2253598,126.2484874,휴게음식점,제주킹마트모슬포점,제주특별자치도 서귀포시 대정읍 동일하모로 158-3,공공데이터포털,2018-02-23,
33.2352359,126.3129553,휴게음식점,Kim여사의 밥상,제주특별자치도 서귀포시 안덕면 사계남로216번길 24-68,공공데이터포털,2018-02-23,
33.2793359,126.7204836,cafe,동그라미다방,제주특별자치도 서귀포시 남원읍 태위로 692,공공데이터포털,2018-02-23,
33.3190481,126.7087521,휴게음식점,원식품,제주특별자치도 서귀포시 남원읍 남조로 52,공공데이터포털,2018-02-23,
33.3056347,126.7921182,휴게음식점,옵데강,제주특별자치도 서귀포시 표선면 일주동로 6347-17,공공데이터포털,2018-02-23,
33.4721117,126.9331983,휴게음식점,쉼터만나스넥,제주특별자치도 서귀포시 성산읍 성산등용로 112-7,공공데이터포털,2018-02-23,
33.2480796,126.566302,휴게음식점,고망식당,제주특별자치도 서귀포시 태평로431번길 26 (서귀동),공공데이터포털,2018-02-23,
33.2570821,126.5758691,휴게음식점,김밥천국,제주특별자치도 서귀포시 동홍남로 69 (동홍동),공공데이터포털,2018-02-23,
33.2644535,126.3933033,휴게음식점,세븐일레븐서귀포스카이힐점,제주특별자치도 서귀포시 일주서로 1124 (상예동),공공데이터포털,2018-02-23,
33.2474277,126.5659049,cafe,황제다방,제주특별자치도 서귀포시 명동로 38 2층 (서귀동),공공데이터포털,2018-02-23,
33.2493324,126.4083941,휴게음식점,스위트호텔 코코모,제주특별자치도 서귀포시 중문관광로72번길 67 (색달동),공공데이터포털,2018-02-23,
33.2392231,126.5586562,휴게음식점,서귀동어촌계해녀의집,제주특별자치도 서귀포시 남성중로 40 (서홍동),공공데이터포털,2018-02-23,
33.2687657,126.5857876,휴게음식점,516김밥,제주특별자치도 서귀포시 516로 176 (토평동),공공데이터포털,2018-02-23,
33.2791363,126.7184405,휴게음식점,탐우동,제주특별자치도 서귀포시 남원읍 태위로 673,공공데이터포털,2018-02-23,
33.2653527,126.3717798,휴게음식점,창천휴게음식점,제주특별자치도 서귀포시 안덕면 일주서로 1326,공공데이터포털,2018-02-23,
33.2239822,126.2553477,휴게음식점,러브하우스,제주특별자치도 서귀포시 대정읍 상모대서로 3,공공데이터포털,2018-02-23,
33.2242506,126.2523089,cafe,아라다방,제주특별자치도 서귀포시 대정읍 하모중앙로 44,공공데이터포털,2018-02-23,
33.2523615,126.4212458,휴게음식점,킹마트분식,제주특별자치도 서귀포시 천제연로 154-1 (중문동),공공데이터포털,2018-02-23,
33.2505549,126.5727622,휴게음식점,맛짱김밥,제주특별자치도 서귀포시 태평로512번길 1-4 101호 (동홍동),공공데이터포털,2018-02-23,
33.2515942,126.4252213,휴게음식점,김밥형님볶이아우,제주특별자치도 서귀포시 천제연로 192-1 (중문동),공공데이터포털,2018-02-23,
33.2519394,126.5614595,휴게음식점,옹기종기,제주특별자치도 서귀포시 중앙로 82 (서귀동),공공데이터포털,2018-02-23,
33.2606345,126.5129522,휴게음식점,친구들,제주특별자치도 서귀포시 중산간동로 8462-2 (서호동),공공데이터포털,2018-02-23,
33.2485788,126.5642465,휴게음식점,초록분식,제주특별자치도 서귀포시 중앙로42번길 24 (서귀동),공공데이터포털,2018-02-23,
33.3258978,126.8317849,cafe,솔잎다방,제주특별자치도 서귀포시 표선면 표선중앙로80번길 9,공공데이터포털,2018-02-23,
33.2787198,126.7170458,휴게음식점,시카고피자남원점,제주특별자치도 서귀포시 남원읍 태위로 659,공공데이터포털,2018-02-23,
33.4508497,126.914834,휴게음식점,피자클럽성산동남점,제주특별자치도 서귀포시 성산읍 고성동서로 71,공공데이터포털,2018-02-23,
33.3190481,126.7087521,휴게음식점,남원농협중앙간이지점,제주특별자치도 서귀포시 남원읍 남조로 52,공공데이터포털,2018-02-23,
33.2256651,126.2523708,휴게음식점,홈메이드김밥,제주특별자치도 서귀포시 대정읍 하모중앙로 30,공공데이터포털,2018-02-23,
33.3269897,126.8317896,휴게음식점,아마니타,제주특별자치도 서귀포시 표선면 표선중앙로 68,공공데이터포털,2018-02-23,
33.2530741,126.5621299,휴게음식점,테라스,제주특별자치도 서귀포시 일주동로 8671 (서귀동),공공데이터포털,2018-02-23,
33.2526876,126.570047,휴게음식점,코마분식,제주특별자치도 서귀포시 태평로537번길 49 (동홍동),공공데이터포털,2018-02-23,
33.2516397,126.4246163,휴게음식점,나성청보리빵수두리보말칼국수,제주특별자치도 서귀포시 천제연로 186-1 (중문동),공공데이터포털,2018-02-23,
33.2472388,126.5092079,휴게음식점,미가,제주특별자치도 서귀포시 월드컵로 33 (법환동),공공데이터포털,2018-02-23,
33.2559647,126.5122426,휴게음식점,영애분식,제주특별자치도 서귀포시 신서귀로76번길 5 (서호동),공공데이터포털,2018-02-23,
33.259096,126.5709653,휴게음식점,똘이분식,제주특별자치도 서귀포시 동홍북로 24 (동홍동),공공데이터포털,2018-02-23,
33.2498365,126.5601146,휴게음식점,죽이야기서귀포점,제주특별자치도 서귀포시 중앙로 59 (서귀동),공공데이터포털,2018-02-23,
33.2533972,126.5593495,휴게음식점,우리집,제주특별자치도 서귀포시 중앙로101번길 13-2 (서홍동),공공데이터포털,2018-02-23,
33.4257554,126.931741,휴게음식점,올인카페테리아,제주특별자치도 서귀포시 성산읍 섭지코지로 261,공공데이터포털,2018-02-23,
33.2337921,126.3109307,휴게음식점,용머리휴게음식점,제주특별자치도 서귀포시 안덕면 사계남로216번길 28,공공데이터포털,2018-02-23,
33.2843492,126.353606,,정석편의점,제주특별자치도 서귀포시 안덕면 한창로 273,공공데이터포털,2018-02-23,convenience
33.2583344,126.560288,휴게음식점,한아름분식,제주특별자치도 서귀포시 중앙로 154 (서홍동),공공데이터포털,2018-02-23,
33.2536583,126.545814,휴게음식점,하논바람, ,공공데이터포털,2018-02-23,
33.2472388,126.5092079,휴게음식점,바리스타월드컵경기장점,제주특별자치도 서귀포시 월드컵로 33 (법환동),공공데이터포털,2018-02-23,
33.2528512,126.561642,휴게음식점,이삭토스트2호점,제주특별자치도 서귀포시 중앙로 92 (서귀동),공공데이터포털,2018-02-23,
33.2484335,126.5092187,휴게음식점,이디야커피전문점,제주특별자치도 서귀포시 일주동로 9209 (법환동),공공데이터포털,2018-02-23,
33.2484335,126.5092187,휴게음식점,(주)이마트서귀포점조리식품,제주특별자치도 서귀포시 일주동로 9209 (법환동),공공데이터포털,2018-02-23,
33.2484335,126.5092187,휴게음식점,(주)이마트서귀포점회코너,제주특별자치도 서귀포시 일주동로 9209 (법환동),공공데이터포털,2018-02-23,
33.3258978,126.8317849,cafe,두리다방,제주특별자치도 서귀포시 표선면 표선중앙로80번길 9,공공데이터포털,2018-02-23,
33.2232103,126.257842,cafe,진다방,제주특별자치도 서귀포시 대정읍 상모로 294,공공데이터포털,2018-02-23,
33.2546582,126.3467011,휴게음식점,더클라이막스,제주특별자치도 서귀포시 안덕면 일주서로 1611,공공데이터포털,2018-02-23,
33.4497079,126.9117086,cafe,보배다방,제주특별자치도 서귀포시 성산읍 고성중앙로 84,공공데이터포털,2018-02-23,
33.2532723,126.5717372,휴게음식점,내입속의김밥,제주특별자치도 서귀포시 동홍중앙로 29 (동홍동),공공데이터포털,2018-02-23,
33.2339513,126.3136258,휴게음식점,용머리농수산,제주특별자치도 서귀포시 안덕면 사계남로216번길 24-27,공공데이터포털,2018-02-23,
33.2468871,126.3361886,휴게음식점,화순에덴분식,제주특별자치도 서귀포시 안덕면 화순로 96,공공데이터포털,2018-02-23,
33.2486729,126.5627846,cafe,만호다방,제주특별자치도 서귀포시 중정로61번길 9 (서귀동),공공데이터포털,2018-02-23,
33.416346,126.889907,휴게음식점,호떡분식,제주특별자치도 서귀포시 성산읍 일주동로 4227,공공데이터포털,2018-02-23,
33.250057,126.5612414,cafe,블랙다방,제주특별자치도 서귀포시 중앙로59번길 4 (서귀동),공공데이터포털,2018-02-23,
33.2487995,126.5083874,휴게음식점,커피볶는집오즈비,제주특별자치도 서귀포시 일주동로 9217 (법환동),공공데이터포털,2018-02-23,
33.2385976,126.6026817,휴게음식점,앞바당,제주특별자치도 서귀포시 보목로70번길 8 (보목동),공공데이터포털,2018-02-23,
33.3252096,126.8323332,휴게음식점,큰손왕만두,제주특별자치도 서귀포시 표선면 표선동서로 239,공공데이터포털,2018-02-23,
33.2232785,126.2583373,cafe,수지다방,제주특별자치도 서귀포시 대정읍 상모로290번길 2,공공데이터포털,2018-02-23,
33.3056347,126.7921182,휴게음식점,올래,제주특별자치도 서귀포시 표선면 일주동로 6347-17,공공데이터포털,2018-02-23,
33.449765,126.9147281,휴게음식점,먹보왕만두동남점,제주특별자치도 서귀포시 성산읍 고성동서로56번길 18,공공데이터포털,2018-02-23,
33.2504381,126.5676971,휴게음식점,제주인화찐빵,제주특별자치도 서귀포시 동홍로 19 (서귀동),공공데이터포털,2018-02-23,
33.2493773,126.5634319,휴게음식점,덕이죽집,제주특별자치도 서귀포시 중앙로48번길 17 (서귀동),공공데이터포털,2018-02-23,
33.2485522,126.5639723,휴게음식점,소문난순대족발,제주특별자치도 서귀포시 중앙로42번길 22 (서귀동),공공데이터포털,2018-02-23,
33.2520222,126.5605933,휴게음식점,김밥명가,제주특별자치도 서귀포시 서문로 5 (서귀동),공공데이터포털,2018-02-23,
33.3085402,126.6344826,휴게음식점,휴애리,제주특별자치도 서귀포시 남원읍 신례동로 256,공공데이터포털,2018-02-23,
33.2831948,126.349772,휴게음식점,자동차박물관티하우스,제주특별자치도 서귀포시 안덕면 중산간서로 1610,공공데이터포털,2018-02-23,
33.2786915,126.7179704,휴게음식점,버거나라남원점,제주특별자치도 서귀포시 남원읍 태위로 668,공공데이터포털,2018-02-23,
33.2484335,126.5092187,휴게음식점,(주)보승식품,제주특별자치도 서귀포시 일주동로 9209 (법환동),공공데이터포털,2018-02-23,
33.2570575,126.5756055,휴게음식점,피자다오,제주특별자치도 서귀포시 동홍남로 67 (동홍동),공공데이터포털,2018-02-23,
33.2496757,126.5675722,휴게음식점,오는정김밥,제주특별자치도 서귀포시 동문동로 2 (서귀동),공공데이터포털,2018-02-23,
33.2392661,126.6068963,휴게음식점,보목어촌계식당,제주특별자치도 서귀포시 보목포로 48 (보목동),공공데이터포털,2018-02-23,
33.2604879,126.5600101,휴게음식점,조리제안델리,제주특별자치도 서귀포시 중앙로 180 (동홍동),공공데이터포털,2018-02-23,
33.4305782,126.9277688,휴게음식점,던킨도너츠휘닉스점,제주특별자치도 서귀포시 성산읍 섭지코지로 107,공공데이터포털,2018-02-23,
33.4489824,126.9152358,휴게음식점,써니,제주특별자치도 서귀포시 성산읍 고성오조로 60,공공데이터포털,2018-02-23,
33.2497883,126.5651399,휴게음식점,강추분식,제주특별자치도 서귀포시 중정로91번길 18 (서귀동),공공데이터포털,2018-02-23,
33.199919,126.276136,휴게음식점,설렁탕빠진전복,제주특별자치도 서귀포시 대정읍 최남단해안로 412,공공데이터포털,2018-02-23,
33.2465809,126.333321,휴게음식점,안덕농협휴게음식점,제주특별자치도 서귀포시 안덕면 화순로 122,공공데이터포털,2018-02-23,
33.4818042,126.9017207,휴게음식점,목화식당휴게소,제주특별자치도 서귀포시 성산읍 해맞이해안로 2526,공공데이터포털,2018-02-23,
33.3706144,126.6799654,휴게음식점,주식회사더클래식씨씨그늘집1,제주특별자치도 서귀포시 남원읍 남조로 1105,공공데이터포털,2018-02-23,
33.2493161,126.5680524,휴게음식점,윤희분식,제주특별자치도 서귀포시 동홍로 10 (서귀동),공공데이터포털,2018-02-23,
33.4645385,126.9336741,cafe,영다방, ,공공데이터포털,2018-02-23,
33.2477094,126.5617231,휴게음식점,미스터피자서귀포점,제주특별자치도 서귀포시 중앙로 35 (서귀동),공공데이터포털,2018-02-23,
33.2904213,126.322602,휴게음식점,소인국카페,제주특별자치도 서귀포시 안덕면 중산간서로 1878,공공데이터포털,2018-02-23,
33.3242993,126.8321767,cafe,원다방,제주특별자치도 서귀포시 표선면 표선동서로 228,공공데이터포털,2018-02-23,
33.2582273,126.5749298,휴게음식점,이디야커피서귀포점,제주특별자치도 서귀포시 중앙로 90 (서귀동),공공데이터포털,2018-02-23,
33.2659083,126.5697725,휴게음식점,또또김밥,제주특별자치도 서귀포시 중산간동로 7926 (동홍동),공공데이터포털,2018-02-23,
33.2510796,126.4127629,휴게음식점,스타벅스커피 제주중문점,제주특별자치도 서귀포시 중문관광로110번길 32 (색달동),공공데이터포털,2018-02-23,
33.279325,126.719333,휴게음식점,남원분식,제주특별자치도 서귀포시 남원읍 태위로679번길 2,공공데이터포털,2018-02-23,
33.3264274,126.8366249,휴게음식점,네잎크로바,제주특별자치도 서귀포시 표선면 표선백사로 123,공공데이터포털,2018-02-23,
33.4505144,126.9144273,cafe,미소다방,제주특별자치도 서귀포시 성산읍 고성동서로 66,공공데이터포털,2018-02-23,
33.2604879,126.5600101,휴게음식점,고가비,제주특별자치도 서귀포시 중앙로 180 (동홍동),공공데이터포털,2018-02-23,
33.2904213,126.322602,휴게음식점,걸리버스넥,제주특별자치도 서귀포시 안덕면 중산간서로 1878,공공데이터포털,2018-02-23,
33.2567149,126.5714318,휴게음식점,라르고커피숍,제주특별자치도 서귀포시 동홍남로 30 (동홍동),공공데이터포털,2018-02-23,
33.2413649,126.4245153,휴게음식점,던킨도너츠제주컨벤션점,제주특별자치도 서귀포시 중문관광로 224 (중문동),공공데이터포털,2018-02-23,
33.2522055,126.6231188,휴게음식점,쇠소깍휴게소,제주특별자치도 서귀포시 쇠소깍로 128 (하효동),공공데이터포털,2018-02-23,
33.2213619,126.2523642,휴게음식점,GS25제주대정점,제주특별자치도 서귀포시 대정읍 하모중앙로 75,공공데이터포털,2018-02-23,
33.2487995,126.5083874,휴게음식점,GS25서귀터미널점,제주특별자치도 서귀포시 일주동로 9213 (법환동),공공데이터포털,2018-02-23,
33.2341791,126.5136523,휴게음식점,좀녀숨비소리,제주특별자치도 서귀포시 최영로 10 (법환동),공공데이터포털,2018-02-23,
33.2434045,126.5598021,휴게음식점,쥬씨천지연점,제주특별자치도 서귀포시 남성중로 2-3 (서홍동),공공데이터포털,2018-02-23,
33.2604879,126.5600101,휴게음식점,조리제안핫델리,제주특별자치도 서귀포시 중앙로 180 (동홍동),공공데이터포털,2018-02-23,
33.2801687,126.7201902,cafe,선다방,제주특별자치도 서귀포시 남원읍 태위로689번길 8,공공데이터포털,2018-02-23,
33.2604879,126.5600101,휴게음식점,KFC 서귀포HP,제주특별자치도 서귀포시 중앙로 180 (동홍동),공공데이터포털,2018-02-23,
33.2492052,126.5663352,cafe,고려다방,제주특별자치도 서귀포시 중앙로42번길 44 (서귀동),공공데이터포털,2018-02-23,
33.2526756,126.5594043,휴게음식점,제주한라찐빵,제주특별자치도 서귀포시 일주동로 8697 (서귀동),공공데이터포털,2018-02-23,
33.2413649,126.4245153,휴게음식점,전복나라,제주특별자치도 서귀포시 중문관광로 224 (중문동),공공데이터포털,2018-02-23,
33.273358,126.6542951,휴게음식점,이쁜이김밥,제주특별자치도 서귀포시 남원읍 태위로 60,공공데이터포털,2018-02-23,
33.2442247,126.5821443,휴게음식점,검은여닭도가니,제주특별자치도 서귀포시 검은여로 4 (토평동),공공데이터포털,2018-02-23,
33.2526399,126.5616863,휴게음식점,던킨도너츠제주서귀포점,제주특별자치도 서귀포시 중앙로 88 (서귀동),공공데이터포털,2018-02-23,
33.2536625,126.5592132,휴게음식점,운송,제주특별자치도 서귀포시 홍중로 8 (서홍동),공공데이터포털,2018-02-23,
33.2599437,126.5563939,휴게음식점,해신분식,제주특별자치도 서귀포시 흙담솔로 27-1 (서홍동),공공데이터포털,2018-02-23,
33.2790966,126.7193965,휴게음식점,항아리반찬가게,제주특별자치도 서귀포시 남원읍 태위로682번길 2,공공데이터포털,2018-02-23,
33.2518512,126.422666,,CU 제주중문길점,제주특별자치도 서귀포시 천제연로 168 1층 (중문동),공공데이터포털,2018-02-23,convenience
33.3601625,126.72564,휴게음식점,모꼬지,제주특별자치도 서귀포시 남원읍 원님로399번길 319,공공데이터포털,2018-02-23,
33.2523991,126.4255663,휴게음식점,빈스와플,제주특별자치도 서귀포시 중문상로 43 (중문동),공공데이터포털,2018-02-23,
33.2504823,126.5612967,휴게음식점,마녀닭강정&치킨,제주특별자치도 서귀포시 중앙로 65 (서귀동),공공데이터포털,2018-02-23,
33.2464563,126.335392,,CU 제주화순점,제주특별자치도 서귀포시 안덕면 화순로 103,공공데이터포털,2018-02-23,convenience
33.2467141,126.3354622,휴게음식점,나누리김밥천국,제주특별자치도 서귀포시 안덕면 화순로 104-1,공공데이터포털,2018-02-23,
33.2135659,126.2929992,휴게음식점,오젠,제주특별자치도 서귀포시 대정읍 송악관광로177번길 253,공공데이터포털,2018-02-23,
33.2544185,126.5600314,휴게음식점,콩,제주특별자치도 서귀포시 솜반천로 8 (서홍동),공공데이터포털,2018-02-23,
33.2363359,126.364322,휴게음식점,브런치피자,제주특별자치도 서귀포시 안덕면 대평로 27,공공데이터포털,2018-02-23,
33.2496078,126.5666859,,CU 서귀포동문점,제주특별자치도 서귀포시 중동로48번길 11 (서귀동),공공데이터포털,2018-02-23,convenience
33.2236432,126.2525194,cafe,신장미다방,제주특별자치도 서귀포시 대정읍 하모중앙로 51,공공데이터포털,2018-02-23,
33.4627163,126.9359748,휴게음식점,던킨도너츠성산일출봉점,제주특별자치도 서귀포시 성산읍 일출로 284-11,공공데이터포털,2018-02-23,
33.4482777,126.9148725,휴게음식점,승혜분식,제주특별자치도 서귀포시 성산읍 고성오조로 51,공공데이터포털,2018-02-23,
33.2510796,126.4127629,휴게음식점,GS25중문단지점,제주특별자치도 서귀포시 중문관광로110번길 32 (색달동),공공데이터포털,2018-02-23,
33.3535346,126.7718183,휴게음식점,레이크, ,공공데이터포털,2018-02-23,
33.2545552,126.5757341,휴게음식점,커피볶는집브엘세바,제주특별자치도 서귀포시 일주동로 8541 (동홍동),공공데이터포털,2018-02-23,
33.2202515,126.2518778,,CU 제주대정하모리점,제주특별자치도 서귀포시 대정읍 최남단해안로 2,공공데이터포털,2018-02-23,convenience
33.2496778,126.4113633,휴게음식점,던킨제주중문점,제주특별자치도 서귀포시 중문관광로72번길 29-9 (색달동),공공데이터포털,2018-02-23,
33.2474572,126.551644,휴게음식점,세계조가비박물관커피숍,제주특별자치도 서귀포시 태평로 284 (서홍동),공공데이터포털,2018-02-23,
33.258634,126.5596102,,CU 서홍대로점,제주특별자치도 서귀포시 중앙로 159-1 (서홍동),공공데이터포털,2018-02-23,convenience
33.2516541,126.4277461,휴게음식점,세븐일레븐서귀포중문점,제주특별자치도 서귀포시 천제연로 215 (중문동),공공데이터포털,2018-02-23,
33.2409117,126.3327752,휴게음식점,조이풀,제주특별자치도 서귀포시 안덕면 화순해안로 66-14,공공데이터포털,2018-02-23,
33.2891738,126.322306,,GS25 안덕서광점,제주특별자치도 서귀포시 안덕면 중산간서로 1882,공공데이터포털,2018-02-23,convenience
33.2215013,126.2534941,휴게음식점,바리스타손설웅,제주특별자치도 서귀포시 대정읍 하모상가로 42-1,공공데이터포털,2018-02-23,
33.2352678,126.3134471,휴게음식점,치치퐁,제주특별자치도 서귀포시 안덕면 사계남로216번길 24-62,공공데이터포털,2018-02-23,
33.245277,126.5594023,휴게음식점,자연과함께하는행복한쉼터, ,공공데이터포털,2018-02-23,
33.2503412,126.5725264,휴게음식점,난타5000동홍점,제주특별자치도 서귀포시 태평로512번길 4 (동홍동),공공데이터포털,2018-02-23,
33.2371582,126.3880769,휴게음식점,댕규리네감귤해수족욕카페,제주특별자치도 서귀포시 논짓물로 13 (하예동),공공데이터포털,2018-02-23,
33.248556,126.5628176,휴게음식점,GS25서귀중앙점,제주특별자치도 서귀포시 중앙로42번길 9 (서귀동),공공데이터포털,2018-02-23,
33.2536568,126.5607446,,CU 서귀포예일점,제주특별자치도 서귀포시 중앙로101번길 1 (서홍동),공공데이터포털,2018-02-23,convenience
33.2476176,126.5628319,휴게음식점,앨리스,제주특별자치도 서귀포시 중정로 60 (서귀동),공공데이터포털,2018-02-23,
33.463575,126.9335051,휴게음식점,GS25성산중앙점,제주특별자치도 서귀포시 성산읍 성산중앙로 43-1,공공데이터포털,2018-02-23,
33.4625183,126.9348627,휴게음식점,커피잇수다,제주특별자치도 서귀포시 성산읍 일출로 280,공공데이터포털,2018-02-23,
33.2486533,126.5624147,휴게음식점,한스델리서귀포점,제주특별자치도 서귀포시 중앙로42번길 7 (서귀동),공공데이터포털,2018-02-23,
33.2457655,126.4493336,휴게음식점,약천사휴게소,제주특별자치도 서귀포시 이어도로 293-20 (하원동),공공데이터포털,2018-02-23,
33.2535777,126.5617052,휴게음식점,베스킨라빈스,제주특별자치도 서귀포시 일주동로 8674-1 (동홍동),공공데이터포털,2018-02-23,
33.3992006,126.7852521,휴게음식점,이디야커피성읍점,제주특별자치도 서귀포시 표선면 번영로 2644,공공데이터포털,2018-02-23,
33.1165839,126.2661685,휴게음식점,철가방을든해녀투,제주특별자치도 서귀포시 대정읍 마라로 85,공공데이터포털,2018-02-23,
33.325009,126.8324787,cafe,한라산백록다방,제주특별자치도 서귀포시 표선면 표선동서로 236,공공데이터포털,2018-02-23,
33.2364205,126.3129475,휴게음식점,레이지,제주특별자치도 서귀포시 안덕면 산방로 208,공공데이터포털,2018-02-23,
33.3245683,126.6627718,휴게음식점,스프링데일 카페테리아,제주특별자치도 서귀포시 남원읍 서성로 459,공공데이터포털,2018-02-23,
33.3245683,126.6627718,휴게음식점,스프링데일통나무집,제주특별자치도 서귀포시 남원읍 서성로 459,공공데이터포털,2018-02-23,
33.2213981,126.2509025,cafe,기원다방,제주특별자치도 서귀포시 대정읍 하모상가로 18-1,공공데이터포털,2018-02-23,
33.2527271,126.557077,휴게음식점,하늘정원,제주특별자치도 서귀포시 일주동로 8718 (서홍동),공공데이터포털,2018-02-23,
33.2518048,126.4257669,,CU 제주중문점,제주특별자치도 서귀포시 중문상로 38 (중문동),공공데이터포털,2018-02-23,convenience
33.2572672,126.5246216,휴게음식점,GS25서귀호근,제주특별자치도 서귀포시 호근서호로 153 (호근동),공공데이터포털,2018-02-23,
33.3726822,126.7971235,휴게음식점,성읍랜드,제주특별자치도 서귀포시 표선면 번영로 2650,공공데이터포털,2018-02-23,
33.2400105,126.5628083,,CU 서귀포부두점,제주특별자치도 서귀포시 칠십리로 61 (서귀동),공공데이터포털,2018-02-23,convenience
33.2483228,126.5662788,cafe,정원다방,제주특별자치도 서귀포시 태평로431번길 32 (서귀동),공공데이터포털,2018-02-23,
33.2361844,126.4786868,,CU 강정마을점,제주특별자치도 서귀포시 이어도로 579 (강정동),공공데이터포털,2018-02-23,convenience
33.3265182,126.8331331,휴게음식점,춘자싸롱멸치국수,제주특별자치도 서귀포시 표선면 표선동서로 255,공공데이터포털,2018-02-23,
33.2570541,126.5762569,휴게음식점,빨강공주,제주특별자치도 서귀포시 동홍남로 73 (동홍동),공공데이터포털,2018-02-23,
33.2729636,126.7014772,휴게음식점,금호커피전문점,제주특별자치도 서귀포시 남원읍 태위로 522-12,공공데이터포털,2018-02-23,
33.2277774,126.3033549,휴게음식점,스테이위드커피,제주특별자치도 서귀포시 안덕면 형제해안로 32,공공데이터포털,2018-02-23,
33.449765,126.9147281,휴게음식점,커피후,제주특별자치도 서귀포시 성산읍 고성동서로56번길 18,공공데이터포털,2018-02-23,
33.4380663,126.9212263,휴게음식점,커피방듸,제주특별자치도 서귀포시 성산읍 섭지코지로 48,공공데이터포털,2018-02-23,
33.2077281,126.291151,,CU 제주송악산점,제주특별자치도 서귀포시 대정읍 형제해안로 306,공공데이터포털,2018-02-23,convenience
33.2550803,126.5723055,휴게음식점,GS25서귀동홍점,제주특별자치도 서귀포시 동홍중앙로 50 1층 (동홍동),공공데이터포털,2018-02-23,
33.2526607,126.4146465,휴게음식점,더블룸,제주특별자치도 서귀포시 중문관광로 93 (색달동),공공데이터포털,2018-02-23,
33.2896606,126.3148155,휴게음식점,서광휴게소,제주특별자치도 서귀포시 안덕면 중산간서로 1957,공공데이터포털,2018-02-23,
33.2462792,126.5631092,cafe,설매다방,제주특별자치도 서귀포시 태평로439번길 39 (서귀동),공공데이터포털,2018-02-23,
33.2415408,126.5367032,휴게음식점,60빈스,제주특별자치도 서귀포시 태평로120번길 29-2 (호근동),공공데이터포털,2018-02-23,
33.2449894,126.57324,휴게음식점,하루방휴게소,제주특별자치도 서귀포시 칠십리로214번길 36 (동홍동),공공데이터포털,2018-02-23,
33.2791363,126.7184405,,CU 남제주점,제주특별자치도 서귀포시 남원읍 태위로 673,공공데이터포털,2018-02-23,convenience
33.416346,126.889907,,CU 성산신산점,제주특별자치도 서귀포시 성산읍 일주동로 5115,공공데이터포털,2018-02-23,convenience
33.2413649,126.4245153,휴게음식점,세븐일레븐ICC점,제주특별자치도 서귀포시 중문관광로 224 (중문동),공공데이터포털,2018-02-23,
33.227689,126.2530064,휴게음식점,세븐일레븐대정주공점,제주특별자치도 서귀포시 대정읍 하모중앙로 5,공공데이터포털,2018-02-23,
33.3256492,126.8342123,휴게음식점,씨앤아이,제주특별자치도 서귀포시 표선면 표선중앙로 96,공공데이터포털,2018-02-23,
33.2521803,126.5610081,,CU 서귀포광장점,제주특별자치도 서귀포시 중앙로 85 (서귀동),공공데이터포털,2018-02-23,convenience
33.2634478,126.6177577,휴게음식점,착한만두앤고로케2호점,제주특별자치도 서귀포시 하신상로 30 (하효동),공공데이터포털,2018-02-23,
33.2476816,126.5687701,,CU 서귀포정방점,제주특별자치도 서귀포시 태평로 463 (서귀동),공공데이터포털,2018-02-23,convenience
33.3267724,126.8366934,휴게음식점,롯데리아제주표선해변점,제주특별자치도 서귀포시 표선면 표선백사로 127 1층,공공데이터포털,2018-02-23,
33.2664162,126.6428296,휴게음식점,숑,제주특별자치도 서귀포시 남원읍 공천포로 91,공공데이터포털,2018-02-23,
33.2749594,126.6687976,,씨유제주위미점,제주특별자치도 서귀포시 남원읍 태위로 200,공공데이터포털,2018-02-23,convenience
33.326023,126.8325393,cafe,유성다방,제주특별자치도 서귀포시 표선면 표선중앙로80번길 1,공공데이터포털,2018-02-23,
33.2564229,126.572317,휴게음식점,띠아모동홍점,제주특별자치도 서귀포시 동홍중앙로 64 (동홍동),공공데이터포털,2018-02-23,
33.2825685,126.2875448,휴게음식점,노리 매,제주특별자치도 서귀포시 대정읍 중산간서로 2260-15,공공데이터포털,2018-02-23,
33.2670104,126.5838207,휴게음식점,모닝분식,제주특별자치도 서귀포시 중산간동로 7791 (토평동),공공데이터포털,2018-02-23,
33.3250933,126.8430288,,씨유제주당케점,제주특별자치도 서귀포시 표선면 민속해안로 587,공공데이터포털,2018-02-23,convenience
33.2433149,126.5660912,휴게음식점,아름문구,제주특별자치도 서귀포시 천지연로8번길 20 (서귀동),공공데이터포털,2018-02-23,
33.2503593,126.5114684,휴게음식점,시끌벅적분식,제주특별자치도 서귀포시 김정문화로 66 (법환동),공공데이터포털,2018-02-23,
33.4621467,126.9364271,휴게음식점,썬플라워,제주특별자치도 서귀포시 성산읍 일출로 284-12,공공데이터포털,2018-02-23,
33.2434045,126.5598021,휴게음식점,엔제리너스 천지연폭포점,제주특별자치도 서귀포시 남성중로 2-3 (서홍동),공공데이터포털,2018-02-23,
33.2276743,126.2517033,휴게음식점,수다,제주특별자치도 서귀포시 대정읍 하모중앙로 6,공공데이터포털,2018-02-23,
33.2509458,126.5050459,,씨유서귀포강정점,제주특별자치도 서귀포시 신서귀로97번길 84 (강정동),공공데이터포털,2018-02-23,convenience
33.2777668,126.7132974,휴게음식점,GS25서귀에덴점,제주특별자치도 서귀포시 남원읍 태위로 623,공공데이터포털,2018-02-23,
33.4367676,126.9208724,휴게음식점,커피먹는고냉이,제주특별자치도 서귀포시 성산읍 신양로 103,공공데이터포털,2018-02-23,
33.2278135,126.303557,휴게음식점,씨앤블루,제주특별자치도 서귀포시 안덕면 형제해안로 30,공공데이터포털,2018-02-23,
33.2657502,126.5691129,휴게음식점,완댜,제주특별자치도 서귀포시 중산간동로7929번길 2 (동홍동),공공데이터포털,2018-02-23,
33.4345727,126.9263432,휴게음식점,빈스앤베리즈제주1호점,제주특별자치도 서귀포시 성산읍 섭지코지로 93-15,공공데이터포털,2018-02-23,
33.4345727,126.9263432,휴게음식점,빈스앤베리즈제주2호점,제주특별자치도 서귀포시 성산읍 섭지코지로 93-15,공공데이터포털,2018-02-23,
33.4345727,126.9263432,휴게음식점,빈스앤베리즈제주3호점,제주특별자치도 서귀포시 성산읍 섭지코지로 93-15,공공데이터포털,2018-02-23,
33.2508775,126.5617087,cafe,연다방,제주특별자치도 서귀포시 중앙로72번길 4 (서귀동),공공데이터포털,2018-02-23,
33.467855,126.9239401,휴게음식점,카페코지,제주특별자치도 서귀포시 성산읍 한도로 200,공공데이터포털,2018-02-23,
33.2519142,126.5609974,휴게음식점,아이비스PC,제주특별자치도 서귀포시 중앙로 81 (서귀동),공공데이터포털,2018-02-23,
33.2507993,126.430737,휴게음식점,네오치킨중문점,제주특별자치도 서귀포시 천제연로 242 (중문동),공공데이터포털,2018-02-23,
33.2356687,126.3125597,휴게음식점,풀하우스,제주특별자치도 서귀포시 안덕면 사계남로216번길 24-73,공공데이터포털,2018-02-23,
33.2337896,126.3116142,휴게음식점,효재마트,제주특별자치도 서귀포시 안덕면 사계남로216번길 24-9,공공데이터포털,2018-02-23,
33.2521271,126.558983,휴게음식점,소요유,제주특별자치도 서귀포시 중앙로89번길 15 (서귀동),공공데이터포털,2018-02-23,
33.46287,126.9355028,휴게음식점,스타벅스커피성산일출봉점,제주특별자치도 서귀포시 성산읍 일출로 284-5,공공데이터포털,2018-02-23,
33.2795389,126.7196165,휴게음식점,레인보우PC방,제주특별자치도 서귀포시 남원읍 태위로 683,공공데이터포털,2018-02-23,
33.274681,126.6947399,휴게음식점,로드삼점칠,제주특별자치도 서귀포시 남원읍 태위로510번길 91-2,공공데이터포털,2018-02-23,
33.240469,126.493008,,씨유서귀법환점,제주특별자치도 서귀포시 이어도로 916 (법환동),공공데이터포털,2018-02-23,convenience
33.2067454,126.2897673,휴게음식점,세븐일레븐서귀포송악산점,제주특별자치도 서귀포시 대정읍 형제해안로 322-1,공공데이터포털,2018-02-23,
33.241328,126.5644681,휴게음식점,J커피숍,제주특별자치도 서귀포시 부두로 44 (서귀동),공공데이터포털,2018-02-23,
33.246956,126.5634715,휴게음식점,항공모함PC존,제주특별자치도 서귀포시 명동로 14 (서귀동),공공데이터포털,2018-02-23,
33.2446516,126.5646466,,씨유서귀포송산점,제주특별자치도 서귀포시 태평로 414 (서귀동),공공데이터포털,2018-02-23,convenience
33.2631427,126.6215467,,씨유서귀포효돈점,제주특별자치도 서귀포시 일주동로 8092 (하효동),공공데이터포털,2018-02-23,convenience
33.2526783,126.4184383,휴게음식점,놀멍쉬멍카페테리아,제주특별자치도 서귀포시 천제연로 132 (중문동),공공데이터포털,2018-02-23,
33.2835776,126.3008364,휴게음식점,인공위성제주,제주특별자치도 서귀포시 안덕면 서광남로 123,공공데이터포털,2018-02-23,
33.2547004,126.5122178,,씨유혁신도시점,제주특별자치도 서귀포시 신서귀로 66 (서호동),공공데이터포털,2018-02-23,convenience
33.2624644,126.5958936,휴게음식점,오델로,제주특별자치도 서귀포시 상효로 39 (상효동),공공데이터포털,2018-02-23,
33.3223451,126.8414874,휴게음식점,길먹거리,제주특별자치도 서귀포시 표선면 민속해안로 631-34,공공데이터포털,2018-02-23,
33.2646916,126.5616851,,씨유서귀포동홍점,제주특별자치도 서귀포시 중산간동로 8004 (동홍동),공공데이터포털,2018-02-23,convenience
33.1142012,126.2674817,휴게음식점,마라버거,제주특별자치도 서귀포시 대정읍 마라로 113,공공데이터포털,2018-02-23,
33.2499302,126.4132655,휴게음식점,초콜릿앤드커피,제주특별자치도 서귀포시 중문관광로110번길 15 (색달동),공공데이터포털,2018-02-23,
33.2723619,126.676564,휴게음식점,와랑와랑,제주특별자치도 서귀포시 남원읍 위미중앙로300번길 28,공공데이터포털,2018-02-23,
33.3065954,126.2909201,휴게음식점,(주)이니스프리,제주특별자치도 서귀포시 안덕면 신화역사로 435,공공데이터포털,2018-02-23,
33.3249217,126.844452,휴게음식점,세븐일레븐 서귀포 표선 해비치점,제주특별자치도 서귀포시 표선면 민속해안로 576,공공데이터포털,2018-02-23,
33.4119114,126.8416603,휴게음식점,뉴자연으로,제주특별자치도 서귀포시 성산읍 중산간동로 4217,공공데이터포털,2018-02-23,
33.2452223,126.5738961,휴게음식점,드롭탑 서귀포갤러리 왈점,제주특별자치도 서귀포시 칠십리로214번길 30 (동홍동),공공데이터포털,2018-02-23,
33.2375851,126.5126494,휴게음식점,리멤버(Remember),제주특별자치도 서귀포시 이어도로 917-1 (법환동),공공데이터포털,2018-02-23,
33.2608963,126.5590022,휴게음식점,동네커피,제주특별자치도 서귀포시 중앙로 183 (서홍동),공공데이터포털,2018-02-23,
33.2537273,126.5614624,휴게음식점,파스구찌 제주오션펠리스점,제주특별자치도 서귀포시 중앙로 14 (서귀동),공공데이터포털,2018-02-23,
33.1710594,126.2731193,휴게음식점,황금보리,제주특별자치도 서귀포시 대정읍 가파로 233,공공데이터포털,2018-02-23,
33.273416,126.6544853,휴게음식점,위미(WEME),제주특별자치도 서귀포시 남원읍 태위로 62-1,공공데이터포털,2018-02-23,
33.2584326,126.4353135,휴게음식점,국수바다본점,제주특별자치도 서귀포시 일주서로 982 (색달동),공공데이터포털,2018-02-23,
33.2434033,126.5642185,휴게음식점,파시랑,제주특별자치도 서귀포시 솔동산로 15 (서귀동),공공데이터포털,2018-02-23,
33.2694372,126.6556626,휴게음식점,카페 서연의집,제주특별자치도 서귀포시 남원읍 위미해안로 86,공공데이터포털,2018-02-23,
33.2688319,126.5903553,휴게음식점,올레들영가게,제주특별자치도 서귀포시 토평로50번길 44 (토평동),공공데이터포털,2018-02-23,
33.2480583,126.5532469,휴게음식점,동백농원특산카페,제주특별자치도 서귀포시 서홍로 2 (서홍동),공공데이터포털,2018-02-23,
33.2570313,126.5747366,,씨유 서귀포현대점,제주특별자치도 서귀포시 동홍남로 59 (동홍동),공공데이터포털,2018-02-23,convenience
33.2513427,126.5616292,,씨유 서귀포올레시장점,제주특별자치도 서귀포시 중정로91번길 57-6 (서귀동),공공데이터포털,2018-02-23,convenience
33.2590705,126.570472,휴게음식점,학교종이 땡땡,제주특별자치도 서귀포시 동홍북로 20 (동홍동),공공데이터포털,2018-02-23,
33.2532159,126.5627164,휴게음식점,한국맥도날드(유) 서귀포DT점,제주특별자치도 서귀포시 일주동로 8665 (서귀동),공공데이터포털,2018-02-23,
33.2927354,126.5949687,,씨유서귀포돈내코점,제주특별자치도 서귀포시 516로 466 (상효동),공공데이터포털,2018-02-23,convenience
33.2515834,126.5610812,휴게음식점,짱스낵,제주특별자치도 서귀포시 중앙로 77 (서귀동),공공데이터포털,2018-02-23,
33.2526756,126.5594043,휴게음식점,즐겨찾기,제주특별자치도 서귀포시 일주동로 8697 (서귀동),공공데이터포털,2018-02-23,
33.2615636,126.49447,휴게음식점,북까페 평화책방, ,공공데이터포털,2018-02-23,
33.2364305,126.3126866,휴게음식점,써니하우스,제주특별자치도 서귀포시 안덕면 산방로 212,공공데이터포털,2018-02-23,
33.2492238,126.565603,cafe,자유다방,제주특별자치도 서귀포시 중정로91번길 9 (서귀동),공공데이터포털,2018-02-23,
33.280681,126.707391,휴게음식점,코리아커피(Corea Coffee),제주특별자치도 서귀포시 남원읍 태위로 907,공공데이터포털,2018-02-23,
33.254188,126.6213171,휴게음식점,메이슨커피하우스,제주특별자치도 서귀포시 쇠소깍로 100 (하효동),공공데이터포털,2018-02-23,
33.2069506,126.2903317,휴게음식점,카페데이트,제주특별자치도 서귀포시 대정읍 형제해안로 318,공공데이터포털,2018-02-23,
33.2203773,126.2494072,휴게음식점,나비정원,제주특별자치도 서귀포시 대정읍 신영로 60-7,공공데이터포털,2018-02-23,
33.2682594,126.589636,,씨유서귀토평점,제주특별자치도 서귀포시 중산간동로 7738 (토평동),공공데이터포털,2018-02-23,convenience
33.2216553,126.2559935,cafe,서울다방,제주특별자치도 서귀포시 대정읍 영서중로 21-3,공공데이터포털,2018-02-23,
33.4690335,126.9202823,,씨유제주성산올레점,제주특별자치도 서귀포시 성산읍 한도로 113,공공데이터포털,2018-02-23,convenience
33.4491091,126.9155989,,씨유제주동남점,제주특별자치도 서귀포시 성산읍 동류암로 48,공공데이터포털,2018-02-23,convenience
33.239117,126.5096143,휴게음식점,원테이블,제주특별자치도 서귀포시 법환로 14 (법환동),공공데이터포털,2018-02-23,
33.2414331,126.5310828,휴게음식점,그녀의커피잔,제주특별자치도 서귀포시 태평로92번길 34 (호근동),공공데이터포털,2018-02-23,
33.2504744,126.4268356,휴게음식점,큰손왕만두중문점,제주특별자치도 서귀포시 천제연로 208 (중문동),공공데이터포털,2018-02-23,
33.2485522,126.5639723,휴게음식점,불로초장터,제주특별자치도 서귀포시 중앙로42번길 22 (서귀동),공공데이터포털,2018-02-23,
33.2819894,126.7328037,휴게음식점,모두올레애견하우스카페(cafe)왈,제주특별자치도 서귀포시 남원읍 남태해안로 285-1,공공데이터포털,2018-02-23,
33.2447994,126.5618394,,씨유서귀포태평로점,제주특별자치도 서귀포시 태평로 385 (서귀동),공공데이터포털,2018-02-23,convenience
33.2421049,126.5315523,휴게음식점,올레돔베낭길휴게소,제주특별자치도 서귀포시 태평로92번길 30 (호근동),공공데이터포털,2018-02-23,
33.4472495,126.9144185,휴게음식점,천사,제주특별자치도 서귀포시 성산읍 일출로 14-1,공공데이터포털,2018-02-23,
33.2240107,126.2526215,cafe,청자다방,제주특별자치도 서귀포시 대정읍 하모중앙로 47 2층,공공데이터포털,2018-02-23,
33.243844,126.4572162,휴게음식점,파머스커피,제주특별자치도 서귀포시 월평하원로 43-3 (월평동),공공데이터포털,2018-02-23,
33.2560963,126.5630644,,씨유서귀포의료원점,제주특별자치도 서귀포시 장수로 47 (동홍동),공공데이터포털,2018-02-23,convenience
33.4077466,126.89991,휴게음식점,수하리(SUHARI),제주특별자치도 서귀포시 성산읍 온평애향로 21,공공데이터포털,2018-02-23,
33.2424406,126.5061755,휴게음식점,가배,제주특별자치도 서귀포시 월드컵로 206 (강정동),공공데이터포털,2018-02-23,
33.281192,126.7415575,휴게음식점,마더카페,제주특별자치도 서귀포시 남원읍 태위로894번길 45,공공데이터포털,2018-02-23,
33.2570601,126.5717453,휴게음식점,메종드카페,제주특별자치도 서귀포시 동홍남로 31 (동홍동),공공데이터포털,2018-02-23,
33.2518196,126.5765897,,씨유서귀정방연로점,제주특별자치도 서귀포시 정방연로 47-1 (토평동),공공데이터포털,2018-02-23,convenience
33.2903783,126.3538589,휴게음식점,(주)제이콥에프앤비제주아일랜드점,제주특별자치도 서귀포시 안덕면 한창로 340,공공데이터포털,2018-02-23,
33.258231,126.5687386,휴게음식점,민트박스,제주특별자치도 서귀포시 동홍로 108 (동홍동),공공데이터포털,2018-02-23,
33.2477967,126.5621036,휴게음식점,스타벅스커피제주서귀포점,제주특별자치도 서귀포시 중정로 53 (서귀동),공공데이터포털,2018-02-23,
33.256118,126.414906,휴게음식점,아리아호텔,제주특별자치도 서귀포시 중문관광로 23-1 (색달동 지하1층),공공데이터포털,2018-02-23,
33.2460023,126.3060521,휴게음식점,미르빌,제주특별자치도 서귀포시 안덕면 사계로114번길 87,공공데이터포털,2018-02-23,
33.3247649,126.8331191,,씨유제주표선남촌점,제주특별자치도 서귀포시 표선면 표선동서로 138,공공데이터포털,2018-02-23,convenience
33.2536948,126.452211,휴게음식점,(주)제주뮤지엄,제주특별자치도 서귀포시 일주서로 532 (대포동),공공데이터포털,2018-02-23,
33.3271865,126.8337289,cafe,금빛다방,제주특별자치도 서귀포시 표선면 표선동서로 261,공공데이터포털,2018-02-23,
33.2584326,126.4353135,휴게음식점,일레인호텔,제주특별자치도 서귀포시 일주서로 660 (회수동),공공데이터포털,2018-02-23,
33.244029,126.362855,휴게음식점,도도엔마농,제주특별자치도 서귀포시 안덕면 대평감산로 47,공공데이터포털,2018-02-23,
33.2391543,126.4362409,휴게음식점,GS25 서귀대포점,제주특별자치도 서귀포시 이어도로 129 (대포동),공공데이터포털,2018-02-23,
33.2594012,126.5703057,휴게음식점,서울삼촌네,제주특별자치도 서귀포시 동홍북로 15 (동홍동),공공데이터포털,2018-02-23,
33.2328609,126.3140629,휴게음식점,네덜란드버거,제주특별자치도 서귀포시 안덕면 사계남로216번길 24-32,공공데이터포털,2018-02-23,
33.2067734,126.290037,휴게음식점,던킨도너츠제주송악산점,제주특별자치도 서귀포시 대정읍 형제해안로 322,공공데이터포털,2018-02-23,
33.2235695,126.2533082,휴게음식점,카페달콩,제주특별자치도 서귀포시 대정읍 하모이삼로 51,공공데이터포털,2018-02-23,
33.2067734,126.290037,휴게음식점,스타벅스커피 제주송악산점,제주특별자치도 서귀포시 대정읍 형제해안로 322 (1 2층),공공데이터포털,2018-02-23,
33.2502446,126.4142309,휴게음식점,투썸플레이스제주중문관광단지점,제주특별자치도 서귀포시 중문관광로 90 (색달동),공공데이터포털,2018-02-23,
33.3056347,126.7921182,휴게음식점,슬로우,제주특별자치도 서귀포시 표선면 일주동로 6470,공공데이터포털,2018-02-23,
33.382686,126.7888722,휴게음식점,오늘은,제주특별자치도 서귀포시 표선면 중산간동로 4772,공공데이터포털,2018-02-23,
33.4490938,126.9151914,휴게음식점,아이야,제주특별자치도 서귀포시 성산읍 동류암로 51-1,공공데이터포털,2018-02-23,
33.254188,126.6213171,휴게음식점,카페바라기,제주특별자치도 서귀포시 쇠소깍로 209 (하효동),공공데이터포털,2018-02-23,
33.2490892,126.5208686,,씨유서귀포서호중로점,제주특별자치도 서귀포시 서호남로 92-15 (서호동),공공데이터포털,2018-02-23,convenience
33.241909,126.5576506,휴게음식점,솜반내 풍경,제주특별자치도 서귀포시 서홍로 60 (서홍동),공공데이터포털,2018-02-23,
33.2923161,126.2996588,휴게음식점,항공우주박물관 엔젤리너스,제주특별자치도 서귀포시 안덕면 녹차분재로 218,공공데이터포털,2018-02-23,
33.2923161,126.2996588,휴게음식점,항공우주박물관 새차미,제주특별자치도 서귀포시 안덕면 녹차분재로 218,공공데이터포털,2018-02-23,
33.2370137,126.5958116,휴게음식점,섶섬지기,제주특별자치도 서귀포시 보목로64번길 79 (보목동),공공데이터포털,2018-02-23,
33.244488,126.405938,휴게음식점,올레카페,제주특별자치도 서귀포시 중문관광로 72-114 (색달동),공공데이터포털,2018-02-23,
33.4268965,126.8647243,휴게음식점,플로리안,제주특별자치도 서귀포시 성산읍 서성일로 474,공공데이터포털,2018-02-23,
33.2923161,126.2996588,휴게음식점,항공우주박물관 푸드팰리스,제주특별자치도 서귀포시 안덕면 녹차분재로 218,공공데이터포털,2018-02-23,
33.2923161,126.2996588,휴게음식점,항공우주박물관 롯데리아,제주특별자치도 서귀포시 안덕면 녹차분재로 218,공공데이터포털,2018-02-23,
33.2487665,126.567381,휴게음식점,세븐일레븐 서귀포 동문점,제주특별자치도 서귀포시 동문로 70 (서귀동),공공데이터포털,2018-02-23,
33.2336998,126.3676904,휴게음식점,카페 아라, ,공공데이터포털,2018-02-23,
33.261859,126.5561853,휴게음식점,띠아모서홍점,제주특별자치도 서귀포시 중앙로195번길 2 (서홍동),공공데이터포털,2018-02-23,
33.2551726,126.5736765,휴게음식점,어린이나라방방,제주특별자치도 서귀포시 동홍중앙로52번길 14-1 (동홍동),공공데이터포털,2018-02-23,
33.3744469,126.8521602,휴게음식점,모구리의 뜰,제주특별자치도 서귀포시 성산읍 삼달로164번길 9-4,공공데이터포털,2018-02-23,
33.2372991,126.4742042,휴게음식점,제주카페 스르륵,제주특별자치도 서귀포시 말질로 428 (강정동),공공데이터포털,2018-02-23,
33.2586063,126.5620424,휴게음식점,시카고핫도그,제주특별자치도 서귀포시 중앙로150번길 4-1 (동홍동),공공데이터포털,2018-02-23,
33.2487954,126.4198849,휴게음식점,마신다,제주특별자치도 서귀포시 중문관광로 348 (중문동),공공데이터포털,2018-02-23,
33.2312411,126.2963537,휴게음식점,세븐일레븐서귀포안덕사계점,제주특별자치도 서귀포시 안덕면 사계남로21번길 30-5,공공데이터포털,2018-02-23,
33.2532184,126.4272791,휴게음식점,제주몽,제주특별자치도 서귀포시 천제연로 194 (중문동),공공데이터포털,2018-02-23,
33.2494603,126.6187916,휴게음식점,테라로사 서귀포지점,제주특별자치도 서귀포시 칠십리로658번길 27-16 (하효동),공공데이터포털,2018-02-23,
33.2351833,126.5045321,휴게음식점,나쿠펜다,제주특별자치도 서귀포시 이어도로 842-27 (강정동),공공데이터포털,2018-02-23,
33.2581442,126.5698153,휴게음식점,엄블랑,제주특별자치도 서귀포시 동홍서로 104-10 (동홍동),공공데이터포털,2018-02-23,
33.2522055,126.6231188,휴게음식점,던킨도너츠제주쇠소깍점,제주특별자치도 서귀포시 쇠소깍로 128 (하효동),공공데이터포털,2018-02-23,
33.474087,126.9110984,,씨유 봄그리고가을리조트점,제주특별자치도 서귀포시 성산읍 해맞이해안로 2660,공공데이터포털,2018-02-23,convenience
33.4364523,126.9217313,휴게음식점,세븐일레븐 신양점,제주특별자치도 서귀포시 성산읍 신양로 114,공공데이터포털,2018-02-23,
33.2500837,126.4828487,휴게음식점,맘스김밥,제주특별자치도 서귀포시 일주서로 235 (강정동),공공데이터포털,2018-02-23,
33.2502446,126.4142309,휴게음식점,투썸플레이스제주중문관광단지2호점,제주특별자치도 서귀포시 중문관광로 90 (색달동),공공데이터포털,2018-02-23,
33.4035709,126.7804804,휴게음식점,곤경에빠진버거,제주특별자치도 서귀포시 표선면 번영로 2570,공공데이터포털,2018-02-23,
33.2545255,126.4178578,휴게음식점,중문해물라면 오빠네,제주특별자치도 서귀포시 천제연로 115 (색달동),공공데이터포털,2018-02-23,
33.4359606,126.9162583,휴게음식점,성산읍 코지리,제주특별자치도 서귀포시 성산읍 신양로 99,공공데이터포털,2018-02-23,
33.2746312,126.7058491,휴게음식점,플레이(Play),제주특별자치도 서귀포시 남원읍 태위로 536,공공데이터포털,2018-02-23,
33.2625599,126.3838962,휴게음식점,재즈맛집,제주특별자치도 서귀포시 소보리당로 220 (상예동),공공데이터포털,2018-02-23,
33.2600096,126.6147254,휴게음식점,갤러리버금(Gallery. 버금),제주특별자치도 서귀포시 일주동로 8167-2 (하효동),공공데이터포털,2018-02-23,
33.2494552,126.5669792,휴게음식점,제주권역재활병원꿈앤카페소리,제주특별자치도 서귀포시 동문로 1 (서귀동),공공데이터포털,2018-02-23,
33.2476269,126.5641044,휴게음식점,설빙,제주특별자치도 서귀포시 이중섭로 4-1 2층 (서귀동),공공데이터포털,2018-02-23,
33.4610534,126.9139939,휴게음식점,카페바오름561,제주특별자치도 서귀포시 성산읍 오조로 140,공공데이터포털,2018-02-23,
33.2526876,126.570047,휴게음식점,코리아치킨,제주특별자치도 서귀포시 태평로537번길 49 (동홍동),공공데이터포털,2018-02-23,
33.2387359,126.2315851,휴게음식점,북마크하우스,제주특별자치도 서귀포시 대정읍 일과대수로11번길 16-8,공공데이터포털,2018-02-23,
33.3244501,126.8331639,휴게음식점,유드림분식,제주특별자치도 서귀포시 표선면 표선중앙로90번길 13,공공데이터포털,2018-02-23,
33.4364202,126.9206412,휴게음식점,망고레이필리핀디저트카페,제주특별자치도 서귀포시 성산읍 신양로 102,공공데이터포털,2018-02-23,
33.416346,126.889907,휴게음식점,아쿠아비치커피숍,제주특별자치도 서귀포시 성산읍 일주동로 4258,공공데이터포털,2018-02-23,
33.4349796,126.9163156,휴게음식점,카페배알로,제주특별자치도 서귀포시 성산읍 환해장성로 941,공공데이터포털,2018-02-23,
33.3937793,126.7979406,휴게음식점,유끼네,제주특별자치도 서귀포시 표선면 성읍정의현로136번길 5-8,공공데이터포털,2018-02-23,
33.2477094,126.5617231,휴게음식점,착한만두앤고로케,제주특별자치도 서귀포시 중앙로 35 (서귀동),공공데이터포털,2018-02-23,
33.3190481,126.7087521,휴게음식점,물보라골,제주특별자치도 서귀포시 남원읍 남조로 697,공공데이터포털,2018-02-23,
33.259148,126.5727969,휴게음식점,헬로방방,제주특별자치도 서귀포시 동홍북로 74 (동홍동),공공데이터포털,2018-02-23,
33.2887993,126.2822574,,GS25 제주영어마을점,제주특별자치도 서귀포시 대정읍 에듀시티로 74,공공데이터포털,2018-02-23,convenience
33.291267,126.2885061,,씨유제주영어교육도시점, ,공공데이터포털,2018-02-23,convenience
33.2410003,126.5123075,휴게음식점,아이비테라스,제주특별자치도 서귀포시 법환상로 65 (법환동),공공데이터포털,2018-02-23,
33.4610534,126.9139939,휴게음식점,빈필드,제주특별자치도 서귀포시 성산읍 오조로 129,공공데이터포털,2018-02-23,
33.3190481,126.7087521,휴게음식점,제주티에스휴게음식점,제주특별자치도 서귀포시 남원읍 남조로 861-78 2층,공공데이터포털,2018-02-23,
33.258231,126.5687386,휴게음식점,CU 서귀동홍로점,제주특별자치도 서귀포시 동홍로 108 (동홍동),공공데이터포털,2018-02-23,convenience
33.3262139,126.7650106,휴게음식점,그림상회,제주특별자치도 서귀포시 표선면 중산간동로5570번길 9,공공데이터포털,2018-02-23,
33.2496807,126.5634895,휴게음식점,또또만두,제주특별자치도 서귀포시 중앙로54번길 42 (서귀동),공공데이터포털,2018-02-23,
33.2067454,126.2897673,,미레편의점,제주특별자치도 서귀포시 대정읍 형제해안로 322-1,공공데이터포털,2018-02-23,convenience
33.4735544,126.911217,휴게음식점,카페네스카페 성산리조트점,제주특별자치도 서귀포시 성산읍 해맞이해안로 2670,공공데이터포털,2018-02-23,
33.2607771,126.5158302,휴게음식점,카페린다,제주특별자치도 서귀포시 중산간동로 8434 (서호동),공공데이터포털,2018-02-23,
33.2574431,126.5714934,휴게음식점,낭만팥집,제주특별자치도 서귀포시 동홍서로96번길 17 (동홍동),공공데이터포털,2018-02-23,
33.301546,126.317122,휴게음식점,신화속으로,제주특별자치도 서귀포시 안덕면 신화역사로 473-2,공공데이터포털,2018-02-23,
33.2578877,126.5751971,휴게음식점,지중해,제주특별자치도 서귀포시 서호남로32번길 39 (서호동),공공데이터포털,2018-02-23,
33.2744356,126.6568976,휴게음식점,시스베이글,제주특별자치도 서귀포시 남원읍 태위로 87,공공데이터포털,2018-02-23,
33.2886219,126.3301078,휴게음식점,감귤창고카페,제주특별자치도 서귀포시 안덕면 서광동로25번길 11,공공데이터포털,2018-02-23,
33.2583322,126.559628,휴게음식점,달공식당,제주특별자치도 서귀포시 중앙로153번길 4 (서홍동),공공데이터포털,2018-02-23,
33.240469,126.493008,휴게음식점,모루티,제주특별자치도 서귀포시 이어도로 986-1 (법환동),공공데이터포털,2018-02-23,
33.2272567,126.47456,휴게음식점,미소쉼터,제주특별자치도 서귀포시 말질로 296 (강정동),공공데이터포털,2018-02-23,
33.3053725,126.8049995,휴게음식점,헤세드하우스,제주특별자치도 서귀포시 표선면 가마행남로 42,공공데이터포털,2018-02-23,
33.3056347,126.7921182,,씨유 제주샤인빌리조트점,제주특별자치도 서귀포시 표선면 일주동로 6347-17,공공데이터포털,2018-02-23,convenience
33.2328609,126.3140629,휴게음식점,용머리올레휴게소,제주특별자치도 서귀포시 안덕면 사계남로216번길 24-49,공공데이터포털,2018-02-23,
33.2484031,126.5663601,cafe,올레길다방,제주특별자치도 서귀포시 중정로 94 (서귀동),공공데이터포털,2018-02-23,
33.2337896,126.3116142,휴게음식점,산방산캐릭터아이스크림,제주특별자치도 서귀포시 안덕면 사계남로216번길 24-9,공공데이터포털,2018-02-23,
33.2392231,126.5586562,휴게음식점,대국해저관광(주) 에프엔비사업부,제주특별자치도 서귀포시 남성중로 40 (서홍동),공공데이터포털,2018-02-23,
33.2524102,126.5549436,,씨유서귀선반네점,제주특별자치도 서귀포시 일주동로 8738 (서홍동),공공데이터포털,2018-02-23,convenience
33.2489004,126.5594598,,씨유서귀아랑조을거리점,제주특별자치도 서귀포시 서문로29번길 15 (서귀동),공공데이터포털,2018-02-23,convenience
33.3835243,126.8413634,휴게음식점,물고기나무,제주특별자치도 서귀포시 성산읍 중산간동로 4204-14,공공데이터포털,2018-02-23,
33.248136,126.5632215,휴게음식점,리틀브라운제주본점,제주특별자치도 서귀포시 중정로61번길 4 1층 (서귀동),공공데이터포털,2018-02-23,
33.2576185,126.560127,휴게음식점,짱아찌김밥,제주특별자치도 서귀포시 홍중동로 4-5 (서홍동),공공데이터포털,2018-02-23,
33.223711,126.2540091,휴게음식점,흔한남자의커피이야기,제주특별자치도 서귀포시 대정읍 하모이삼로 59,공공데이터포털,2018-02-23,
33.2402854,126.4342037,휴게음식점,조안베어뮤지엄,제주특별자치도 서귀포시 대포로 113 (대포동),공공데이터포털,2018-02-23,
33.248136,126.5632215,휴게음식점,죠스떡볶이 제주서귀포점,제주특별자치도 서귀포시 중정로61번길 4 (서귀동),공공데이터포털,2018-02-23,
33.2431765,126.4164517,휴게음식점,유리성휴게점, ,공공데이터포털,2018-02-23,
33.2526783,126.4184383,휴게음식점,천제 푸드트럭,제주특별자치도 서귀포시 천제연로 132 (중문동),공공데이터포털,2018-02-23,
33.281754,126.6336018,휴게음식점,행복나무,제주특별자치도 서귀포시 남원읍 신례로 95 1층,공공데이터포털,2018-02-23,
33.2885679,126.3028931,휴게음식점,카페올림,제주특별자치도 서귀포시 안덕면 녹차분재로 32,공공데이터포털,2018-02-23,
33.4626991,126.9357555,휴게음식점,맛있는여행, ,공공데이터포털,2018-02-23,
33.2118052,126.291623,휴게음식점,송악정,제주특별자치도 서귀포시 대정읍 형제해안로 260,공공데이터포털,2018-02-23,
33.2526783,126.4184383,휴게음식점,중문푸드트럭,제주특별자치도 서귀포시 천제연로 132 (중문동),공공데이터포털,2018-02-23,
33.2643673,126.4437226,,씨유제주중문사거리점,제주특별자치도 서귀포시 1100로 6 (중문동),공공데이터포털,2018-02-23,convenience
33.4143696,126.8999778,휴게음식점,제주별,제주특별자치도 서귀포시 성산읍 일주동로 4731,공공데이터포털,2018-02-23,
33.266226,126.4427367,휴게음식점,새코롬,제주특별자치도 서귀포시 중산간서로 777 1층 (중문동),공공데이터포털,2018-02-23,
33.4624482,126.9344763,휴게음식점,림벅와플성산일출봉점 골드바바,제주특별자치도 서귀포시 성산읍 일출로 277,공공데이터포털,2018-02-23,
33.254188,126.6213171,휴게음식점,쇠소깍랜드,제주특별자치도 서귀포시 쇠소깍로 100 (하효동),공공데이터포털,2018-02-23,
33.2412366,126.424492,휴게음식점,스트린런치푸드트럭, ,공공데이터포털,2018-02-23,
33.2451213,126.3852784,,씨유서귀예래점,제주특별자치도 서귀포시 예래로 446 (하예동),공공데이터포털,2018-02-23,convenience
33.466534,126.930766,휴게음식점,브리즈베이호텔,제주특별자치도 서귀포시 성산읍 성산등용로 42 1층,공공데이터포털,2018-02-23,
33.2220044,126.2549772,cafe,현다방,제주특별자치도 서귀포시 대정읍 상모로 323-1 2층,공공데이터포털,2018-02-23,
33.2344079,126.3664832,휴게음식점,가온해,제주특별자치도 서귀포시 안덕면 난드르로 4,공공데이터포털,2018-02-23,
33.2513951,126.4277315,휴게음식점,초사랑,제주특별자치도 서귀포시 천제연로 216 1층 (중문동),공공데이터포털,2018-02-23,
33.2782984,126.7196335,휴게음식점,이디야커피 제주남원점,제주특별자치도 서귀포시 남원읍 남태해안로 135 1층,공공데이터포털,2018-02-23,
33.2490195,126.5638327,휴게음식점,쉬멍가,제주특별자치도 서귀포시 중정로73번길 11 (서귀동),공공데이터포털,2018-02-23,
33.2956392,126.2896818,휴게음식점,GS25 제주국제점,제주특별자치도 서귀포시 대정읍 글로벌에듀로145번길 40,공공데이터포털,2018-02-23,
33.2446869,126.5266506,휴게음식점,랍다:즐겁다,제주특별자치도 서귀포시 태평로 34-17 2층 (호근동),공공데이터포털,2018-02-23,
33.2532617,126.473267,휴게음식점,한국맥도날드(유)제주월드컵스타디움DT점,제주특별자치도 서귀포시 일주서로 7 1 2층 (강정동),공공데이터포털,2018-02-23,
33.255487,126.5686054,휴게음식점,엔제리너스 서귀포시청DI점,제주특별자치도 서귀포시 일주동로 8668 (동홍동),공공데이터포털,2018-02-23,
33.2647393,126.3705871,휴게음식점,춘심이네 카페,제주특별자치도 서귀포시 안덕면 창천중앙로24번길 16 2층,공공데이터포털,2018-02-23,
33.2542585,126.553507,휴게음식점,해모루,제주특별자치도 서귀포시 남성중로 135 1층 (서홍동),공공데이터포털,2018-02-23,
33.2549983,126.4159059,휴게음식점,스타벅스 제주중문DT,제주특별자치도 서귀포시 천제연로 95 1~2층 (색달동),공공데이터포털,2018-02-23,
33.254188,126.6213171,휴게음식점,리치망고 쇠소깍점,제주특별자치도 서귀포시 쇠소깍로 164 (하효동),공공데이터포털,2018-02-23,
33.2431765,126.4164517,휴게음식점,후드푸드트럭, ,공공데이터포털,2018-02-23,
33.2370816,126.3873187,휴게음식점,용우동논짓물점,제주특별자치도 서귀포시 논짓물로 15-10 (하예동),공공데이터포털,2018-02-23,
33.4623382,126.9348886,cafe,빽다방 제주성산일출봉점,제주특별자치도 서귀포시 성산읍 일출로 280-4,공공데이터포털,2018-02-23,
33.2337896,126.3116142,휴게음식점,산방산용머리휴게소,제주특별자치도 서귀포시 안덕면 사계남로216번길 24-9,공공데이터포털,2018-02-23,
33.311317,126.7226314,휴게음식점,오끼416갤러리,제주특별자치도 서귀포시 남원읍 태수로358번길 3-1,공공데이터포털,2018-02-23,
33.2359288,126.513206,휴게음식점,소담,제주특별자치도 서귀포시 막숙포로 152 (법환동),공공데이터포털,2018-02-23,
33.2535591,126.5606367,cafe,빽다방 서귀포시청점,제주특별자치도 서귀포시 중앙로 99 (서홍동),공공데이터포털,2018-02-23,
33.2499302,126.4132655,cafe,중문다방,제주특별자치도 서귀포시 중문관광로110번길 15 1층 (색달동),공공데이터포털,2018-02-23,
33.3073838,126.3380661,휴게음식점,더꾸밈,제주특별자치도 서귀포시 안덕면 동광본동로 14-5 1층,공공데이터포털,2018-02-23,
33.2413649,126.4245153,휴게음식점,델리지아 미니,제주특별자치도 서귀포시 중문관광로 224 (중문동),공공데이터포털,2018-02-23,
33.2512799,126.333662,,씨유제주안덕큰길점,제주특별자치도 서귀포시 안덕면 일주서로 1723,공공데이터포털,2018-02-23,convenience
33.3801892,126.8371501,휴게음식점,블루마운틴커피테마파크,제주특별자치도 서귀포시 성산읍 중산간동로 4255,공공데이터포털,2018-02-23,
33.3801892,126.8371501,휴게음식점,베베로,제주특별자치도 서귀포시 성산읍 중산간동로 4255,공공데이터포털,2018-02-23,
33.2531869,126.4726051,휴게음식점,스타벅스서귀포DT,제주특별자치도 서귀포시 일주서로 11 1 2층 (강정동),공공데이터포털,2018-02-23,
33.2071934,126.2903538,휴게음식점,망고레이송악산점,제주특별자치도 서귀포시 대정읍 형제해안로 316 1층,공공데이터포털,2018-02-23,
33.2541205,126.560076,휴게음식점,이어도,제주특별자치도 서귀포시 서호중로 19 1층 (서호동),공공데이터포털,2018-02-23,
33.1174776,126.266121,휴게음식점,노을예쁜집,제주특별자치도 서귀포시 대정읍 마라로 73,공공데이터포털,2018-02-23,
33.2469861,126.5621759,휴게음식점,못난이찹쌀꽈배기제주본점,제주특별자치도 서귀포시 명동로 1 1층 (서귀동),공공데이터포털,2018-02-23,
33.2545187,126.5173832,휴게음식점,테이크어반제주테라스(Take Urban Jeju terrace),제주특별자치도 서귀포시 서호중로 65 1층 (서호동 라마다앙코르이스트호텔),공공데이터포털,2018-02-23,
33.2349355,126.3657417,휴게음식점,맨날맨날모드락,제주특별자치도 서귀포시 안덕면 난드르로 26,공공데이터포털,2018-02-23,
33.24487,126.5679057,휴게음식점,하올람 커피,제주특별자치도 서귀포시 태평로442번길 21 1층 (서귀동),공공데이터포털,2018-02-23,
33.2555211,126.4150466,휴게음식점,갈치카페,제주특별자치도 서귀포시 중문관광로 29 (색달동),공공데이터포털,2018-02-23,
33.4709507,126.9170084,휴게음식점,한라전복,제주특별자치도 서귀포시 성산읍 해맞이해안로 2732,공공데이터포털,2018-02-23,
33.2667636,126.6083751,휴게음식점,금선다원,제주특별자치도 서귀포시 효돈로 34 (신효동),공공데이터포털,2018-02-23,
33.2528319,126.5577149,휴게음식점,비빔머꾸제비머꾸,제주특별자치도 서귀포시 일주동로 8712 1층 (서홍동),공공데이터포털,2018-02-23,
33.4143696,126.8999778,휴게음식점,행복모음센터,제주특별자치도 서귀포시 성산읍 일주동로 4282 2층,공공데이터포털,2018-02-23,
33.2469128,126.5608897,휴게음식점,카페베네엠스테이점,제주특별자치도 서귀포시 태평로353번길 14 1층 (서귀동),공공데이터포털,2018-02-23,
33.2483228,126.5662788,휴게음식점,세븐일레븐서귀포중앙점,제주특별자치도 서귀포시 태평로431번길 32 1층 (서귀동),공공데이터포털,2018-02-23,
33.392159,126.8004404,휴게음식점,세븐일레븐서귀포성읍점,제주특별자치도 서귀포시 표선면 성읍정의현로 110,공공데이터포털,2018-02-23,
33.2499481,126.5626575,cafe,오서울다방,제주특별자치도 서귀포시 중정로61번길 23 2층 (서귀동),공공데이터포털,2018-02-23,
33.2956392,126.2896818,휴게음식점,노스코(NOSCO),제주특별자치도 서귀포시 대정읍 글로벌에듀로145번길 40 2층,공공데이터포털,2018-02-23,
33.4408725,126.906148,휴게음식점,컬러인제주,제주특별자치도 서귀포시 성산읍 난고로42번길 24,공공데이터포털,2018-02-23,
33.3296299,126.8302818,,씨유제주표선중앙점,제주특별자치도 서귀포시 표선면 표선중앙로 34,공공데이터포털,2018-02-23,convenience
33.2968281,126.3723948,휴게음식점,아뜰리에제주명월,제주특별자치도 서귀포시 안덕면 병악로 31 1층,공공데이터포털,2018-02-23,
33.2788509,126.7174303,휴게음식점,개미와베짱이,제주특별자치도 서귀포시 남원읍 태위로663번길 1 1층,공공데이터포털,2018-02-23,
33.2470111,126.5691104,휴게음식점,할머니만두,제주특별자치도 서귀포시 동부로 24 1층 (서귀동),공공데이터포털,2018-02-23,
33.2510522,126.5676324,,씨유서귀동홍시민점,제주특별자치도 서귀포시 동홍로 29 (서귀동),공공데이터포털,2018-02-23,convenience
33.2567573,126.5758432,휴게음식점,세븐일레븐서귀포동홍현대점,제주특별자치도 서귀포시 동홍남로 70 (동홍동),공공데이터포털,2018-02-23,
33.4630122,126.9360023,휴게음식점,꽃담가마솥팥집,제주특별자치도 서귀포시 성산읍 일출로 284-7,공공데이터포털,2018-02-23,
33.2534474,126.5058435,,GS25 김정문화점,제주특별자치도 서귀포시 신서로32번길 10 (강정동),공공데이터포털,2018-02-23,convenience
33.2567756,126.572337,휴게음식점,세븐일레븐서귀포동홍점,제주특별자치도 서귀포시 동홍중앙로 70 1층 (동홍동),공공데이터포털,2018-02-23,
33.2212493,126.2522409,cafe,금화다방,제주특별자치도 서귀포시 대정읍 하모중앙로 77 2층,공공데이터포털,2018-02-23,
33.2499302,126.4132655,휴게음식점,나비채,제주특별자치도 서귀포시 중문관광로110번길 15 (색달동),공공데이터포털,2018-02-23,
33.2449133,126.5306973,,씨유서귀여고정문점,제주특별자치도 서귀포시 태평로 69 (호근동),공공데이터포털,2018-02-23,convenience
33.2489306,126.5639446,휴게음식점,원꼬치,제주특별자치도 서귀포시 중정로73번길 9 1층 (서귀동),공공데이터포털,2018-02-23,
33.2493117,126.5631433,휴게음식점,아우토반피시방,제주특별자치도 서귀포시 중앙로48번길 15 (서귀동),공공데이터포털,2018-02-23,
33.2646885,126.5732289,휴게음식점,GS25서귀동홍반석점,제주특별자치도 서귀포시 동홍로162번길 3 1층 (동홍동),공공데이터포털,2018-02-23,
33.2441813,126.5630395,휴게음식점,하논,제주특별자치도 서귀포시 태평로 398 1층 (서귀동),공공데이터포털,2018-02-23,
33.2530944,126.5578865,,씨유서귀홍중로점,제주특별자치도 서귀포시 홍중로27번길 1 1층 (서홍동),공공데이터포털,2018-02-23,convenience
33.2492864,126.5581487,휴게음식점,(주)코리아세븐 서귀포서문로점,제주특별자치도 서귀포시 서문로41번길 2 (서귀동),공공데이터포털,2018-02-23,
33.2643139,126.5570217,,씨유서귀서홍로점,제주특별자치도 서귀포시 중산간동로 8048-2 (서홍동),공공데이터포털,2018-02-23,convenience
33.2590901,126.5708484,,씨유서귀동홍북로점,제주특별자치도 서귀포시 동홍북로 22-1 (동홍동),공공데이터포털,2018-02-23,convenience
33.2545135,126.5753237,휴게음식점,골든큐클럽,제주특별자치도 서귀포시 일주동로 8545 (동홍동),공공데이터포털,2018-02-23,
33.2560963,126.5630644,휴게음식점,카페베네서귀포의료원점,제주특별자치도 서귀포시 장수로 47 1층 (동홍동),공공데이터포털,2018-02-23,
33.2583289,126.4080818,,씨유중문일주서로점,제주특별자치도 서귀포시 일주서로 962 (색달동),공공데이터포털,2018-02-23,convenience
33.4268965,126.8647243,휴게음식점,벵삭이,제주특별자치도 서귀포시 성산읍 서성일로 936,공공데이터포털,2018-02-23,
33.2894549,126.5876107,휴게음식점,에스케이엘이씨,제주특별자치도 서귀포시 토평공단로 78-22 1동 1층 (토평동),공공데이터포털,2018-02-23,
33.2235664,126.2553356,휴게음식점,철수와영희,제주특별자치도 서귀포시 대정읍 상모로290번길 29 1층,공공데이터포털,2018-02-23,
33.2879642,126.5785245,휴게음식점,파우제,제주특별자치도 서귀포시 인정오름로86번길 2 지하층 (토평동),공공데이터포털,2018-02-23,
33.2575199,126.4085525,휴게음식점,(Boo coffee)부커피,제주특별자치도 서귀포시 천제연로 21 (색달동),공공데이터포털,2018-02-23,
33.2504491,126.2842402,,씨유제주안성점, ,공공데이터포털,2018-02-23,convenience
33.2505672,126.5720227,휴게음식점,요거프레소제주동홍점,제주특별자치도 서귀포시 태평로 509 2층 209호 (동홍동 제이원타워),공공데이터포털,2018-02-23,
33.2522495,126.5107549,휴게음식점,못난이찹쌀꽈배기신시가지점,제주특별자치도 서귀포시 신서귀로 35 (법환동 신시가지점),공공데이터포털,2018-02-23,
33.2825685,126.2875448,휴게음식점,바람곶,제주특별자치도 서귀포시 대정읍 중산간서로 2576 나동,공공데이터포털,2018-02-23,
33.2800152,126.7216566,,씨유서귀남원태위로점,제주특별자치도 서귀포시 남원읍 태위로 703,공공데이터포털,2018-02-23,convenience
33.2503593,126.5681351,휴게음식점,슈가얌,제주특별자치도 서귀포시 동홍로 20 (서귀동),공공데이터포털,2018-02-23,
33.236924,126.297902,휴게음식점,바람불어좋은날,제주특별자치도 서귀포시 안덕면 사계로 68,공공데이터포털,2018-02-23,
33.4268965,126.8647243,휴게음식점,GS25성산수산점,제주특별자치도 서귀포시 성산읍 서성일로 872-18,공공데이터포털,2018-02-23,
33.2442635,126.5599329,휴게음식점,제주특산품할인마트휴게음식점,제주특별자치도 서귀포시 남성중로 2-11 (서홍동),공공데이터포털,2018-02-23,
33.4621467,126.9364271,휴게음식점,세븐일레븐성산일출봉점,제주특별자치도 서귀포시 성산읍 일출로 284-12 2호,공공데이터포털,2018-02-23,
33.2480975,126.5624592,휴게음식점,세븐일레븐서귀포스타점(농업법인헬로팜(주)),제주특별자치도 서귀포시 중정로 57 (서귀동),공공데이터포털,2018-02-23,
33.2540281,126.5590945,휴게음식점,세븐일레븐서귀포시청점,제주특별자치도 서귀포시 홍중로 12 1층 (서홍동),공공데이터포털,2018-02-23,
33.2297757,126.293107,휴게음식점,향스토리,제주특별자치도 서귀포시 안덕면 사계남로 102 1층,공공데이터포털,2018-02-23,
33.233888,126.484374,,씨유서귀강정천점,제주특별자치도 서귀포시 이어도로 638 1층 (강정동),공공데이터포털,2018-02-23,convenience
33.3211393,126.8306756,,씨유제주표선마을점,제주특별자치도 서귀포시 표선면 표선동서로 192,공공데이터포털,2018-02-23,convenience
33.2644895,126.3924634,휴게음식점,상예휴게마트,제주특별자치도 서귀포시 우남로2번길 8 1층 (상예동),공공데이터포털,2018-02-23,
33.2352359,126.3129553,휴게음식점,몽마르카부덴,제주특별자치도 서귀포시 안덕면 사계남로216번길 24-68 1층,공공데이터포털,2018-02-23,
33.259148,126.5727969,,씨유서귀동홍중앙점,제주특별자치도 서귀포시 동홍북로 74 (동홍동),공공데이터포털,2018-02-23,convenience
33.2324894,126.4882796,휴게음식점,후레쉬맘,제주특별자치도 서귀포시 이어도로 662 2층 (강정동),공공데이터포털,2018-02-23,
33.467855,126.9239401,휴게음식점,GS25성산오조점,제주특별자치도 서귀포시 성산읍 한도로 129 1층,공공데이터포털,2018-02-23,
33.2629769,126.3982809,휴게음식점,GS25 중문상예점,제주특별자치도 서귀포시 일주서로 1076 (상예동),공공데이터포털,2018-02-23,convenience
33.2577811,126.4135431,휴게음식점,세븐일레븐서귀포색달점,제주특별자치도 서귀포시 색달중앙로 25 1층 (색달동),공공데이터포털,2018-02-23,
33.2899733,126.6935278,휴게음식점,가뫼물카페,제주특별자치도 서귀포시 남원읍 남위남성로 168,공공데이터포털,2018-02-23,
33.2761837,126.2571383,,씨유서귀구억점,제주특별자치도 서귀포시 대정읍 중산간서로 2397 1층,공공데이터포털,2018-02-23,convenience
33.249826,126.4109614,휴게음식점,세븐일레븐서귀포중문롯데점,제주특별자치도 서귀포시 중문관광로72번길 29-5 (색달동),공공데이터포털,2018-02-23,
33.3234478,126.8447796,휴게음식점,모루,제주특별자치도 서귀포시 표선면 민속해안로 537 1층,공공데이터포털,2018-02-23,
33.2515944,126.4240302,휴게음식점,못난이찹쌀꽈배기3호점,제주특별자치도 서귀포시 천제연로 182 1층 (중문동),공공데이터포털,2018-02-23,
33.4636892,126.933465,휴게음식점,이디야커피성산점,제주특별자치도 서귀포시 성산읍 성산중앙로 43,공공데이터포털,2018-02-23,
33.2350833,126.3136705,휴게음식점,스위트브라운,제주특별자치도 서귀포시 안덕면 사계남로216번길 24-61 2층,공공데이터포털,2018-02-23,
33.450195,126.9145044,,GS25 성산고성점,제주특별자치도 서귀포시 성산읍 고성오조로 73 1층,공공데이터포털,2018-02-23,convenience
33.2560492,126.5723584,,씨유서귀동홍대림점,제주특별자치도 서귀포시 동홍중앙로 58-1 1층 (동홍동),공공데이터포털,2018-02-23,convenience
33.2589211,126.3537935,휴게음식점,감산휴게마트,제주특별자치도 서귀포시 안덕면 감산중로 34,공공데이터포털,2018-02-23,
33.4635831,126.933817,,씨유제주성산중앙로점,제주특별자치도 서귀포시 성산읍 성산중앙로 44,공공데이터포털,2018-02-23,convenience
33.2615636,126.49447,휴게음식점,제주맛드림, ,공공데이터포털,2018-02-23,
33.2812109,126.7340308,휴게음식점,무인카페등대,제주특별자치도 서귀포시 남원읍 남태해안로 145 1층,공공데이터포털,2018-02-23,
33.2439871,126.5677702,휴게음식점,세븐일레븐 서귀포송산점,제주특별자치도 서귀포시 칠십리로 139 (서귀동),공공데이터포털,2018-02-23,
33.255487,126.5686054,휴게음식점,참좋은슈퍼분식,제주특별자치도 서귀포시 일주동로 8806 (서홍동),공공데이터포털,2018-02-23,
33.258388,126.57472,휴게음식점,에브리데이,제주특별자치도 서귀포시 동홍동로 37 1층 (동홍동),공공데이터포털,2018-02-23,
33.2489663,126.5216984,,씨유서귀포부영점,제주특별자치도 서귀포시 서호남로 91 상가동 101호 (서호동),공공데이터포털,2018-02-23,convenience
33.2453597,126.5655406,휴게음식점,꽃돼지분식,제주특별자치도 서귀포시 태평로 423 1층 (서귀동),공공데이터포털,2018-02-23,
33.2545653,126.5072614,휴게음식점,GS25신서귀포점,제주특별자치도 서귀포시 신서귀로97번길 45 1층 (강정동),공공데이터포털,2018-02-23,
33.2550279,126.5085509,휴게음식점,7번가피자신서귀점,제주특별자치도 서귀포시 신중로 6 1층 (강정동),공공데이터포털,2018-02-23,
33.3104382,126.3413657,휴게음식점,세븐일레븐동광점,제주특별자치도 서귀포시 안덕면 동광로 164,공공데이터포털,2018-02-23,
33.2491469,126.5657309,휴게음식점,이칠이,제주특별자치도 서귀포시 중정로91번길 7 1층 (서귀동),공공데이터포털,2018-02-23,
33.255487,126.5686054,휴게음식점,에코소랑꼬라지오꿈앤카페,제주특별자치도 서귀포시 일주동로 8777 (서홍동),공공데이터포털,2018-02-23,
33.254188,126.6213171,휴게음식점,쇠소깍탐앤탐스제주점,제주특별자치도 서귀포시 쇠소깍로 122 (하효동),공공데이터포털,2018-02-23,
33.2472388,126.5092079,휴게음식점,찜질방매점,제주특별자치도 서귀포시 월드컵로 33 1층 (법환동),공공데이터포털,2018-02-23,
33.2835671,126.7051642,휴게음식점,세븐일레븐서귀포신흥점,제주특별자치도 서귀포시 남원읍 일주동로 6611,공공데이터포털,2018-02-23,
33.2641256,126.613848,휴게음식점,플러스숑,제주특별자치도 서귀포시 효돈로 137-1 1층 (신효동),공공데이터포털,2018-02-23,
33.2505248,126.6209111,휴게음식점,GS25쇠소깍점,제주특별자치도 서귀포시 쇠소깍로 151-8 (하효동),공공데이터포털,2018-02-23,
33.2422314,126.566816,휴게음식점,몬들락,제주특별자치도 서귀포시 칠십리로 113 (서귀동),공공데이터포털,2018-02-23,
33.4505144,126.9144273,휴게음식점,세븐일레븐 고성점,제주특별자치도 서귀포시 성산읍 고성동서로 66,공공데이터포털,2018-02-23,
33.2835671,126.7051642,휴게음식점,남원휴게소,제주특별자치도 서귀포시 남원읍 일주동로 7224,공공데이터포털,2018-02-23,
33.2402708,126.2507128,,씨유서귀일과수로점,제주특별자치도 서귀포시 대정읍 일주서로 2817,공공데이터포털,2018-02-23,convenience
33.3245683,126.6627718,휴게음식점,머체왓숲길영농조합법인,제주특별자치도 서귀포시 남원읍 서성로 755,공공데이터포털,2018-02-23,
33.3835243,126.8413634,휴게음식점,산지물마을까페,제주특별자치도 서귀포시 중산간동로 7971 (동홍동),공공데이터포털,2018-02-23,
33.4721117,126.9331983,휴게음식점,제주몬순커피,제주특별자치도 서귀포시 성산읍 성산등용로 130-19,공공데이터포털,2018-02-23,
33.2139586,126.2573973,,GS25 서귀운진항점,제주특별자치도 서귀포시 대정읍 최남단해안로125번길 35 1층,공공데이터포털,2018-02-23,convenience
33.2541205,126.560076,,GS25 서귀혁신점,제주특별자치도 서귀포시 대청로 33 101호 (강정동 오름강정웨스트상가),공공데이터포털,2018-02-23,convenience
33.3067321,126.7828911,휴게음식점,매일더탐나,제주특별자치도 서귀포시 표선면 일주동로6455번길 9 1층,공공데이터포털,2018-02-23,
33.3270768,126.8348562,cafe,용용다방,제주특별자치도 서귀포시 표선면 표선동서로 264 2층,공공데이터포털,2018-02-23,
33.3873938,126.8010884,휴게음식점,툇마루커피,제주특별자치도 서귀포시 표선면 성읍정의현로 53,공공데이터포털,2018-02-23,
33.2492088,126.5639079,휴게음식점,하영꼬치,제주특별자치도 서귀포시 중정로73번길 13 (서귀동),공공데이터포털,2018-02-23,
33.222978,126.2582595,휴게음식점,더달,제주특별자치도 서귀포시 대정읍 상모로 289,공공데이터포털,2018-02-23,
33.3066927,126.3380858,,GS25 동광로터리점,제주특별자치도 서귀포시 안덕면 신화역사로 493,공공데이터포털,2018-02-23,convenience
33.3299649,126.838304,휴게음식점,카페희상,제주특별자치도 서귀포시 표선면 표선동서로 324-18,공공데이터포털,2018-02-23,
33.2687657,126.5857876,,씨유제주516도로점,제주특별자치도 서귀포시 516로 176 1층 (토평동),공공데이터포털,2018-02-23,convenience
33.2729636,126.7014772,휴게음식점,세렌딥,제주특별자치도 서귀포시 남원읍 태위로 522-12 1층,공공데이터포털,2018-02-23,
33.2116302,126.2571631,,씨유서귀최남단해안로점,제주특별자치도 서귀포시 대정읍 최남단해안로125번길 3 1층,공공데이터포털,2018-02-23,convenience
33.2474816,126.5641679,휴게음식점,쥬씨올레시장점,제주특별자치도 서귀포시 명동로 19-1 1층 (서귀동),공공데이터포털,2018-02-23,
33.4623995,126.9309558,휴게음식점,성산썬라이즈호텔카페,제주특별자치도 서귀포시 성산읍 성산등용로17번길 35 1층,공공데이터포털,2018-02-23,
33.246516,126.5641733,,GS25 이중섭거리점,제주특별자치도 서귀포시 이중섭로 16 (서귀동),공공데이터포털,2018-02-23,convenience
33.4495604,126.9145295,휴게음식점,성산커피,제주특별자치도 서귀포시 성산읍 고성오조로 65 1층,공공데이터포털,2018-02-23,
33.2862497,126.3077305,휴게음식점,카페소리,제주특별자치도 서귀포시 안덕면 중산간서로 1981,공공데이터포털,2018-02-23,
33.255487,126.5686054,휴게음식점,엘에이만화카페,제주특별자치도 서귀포시 일주동로 8717 1층 (서귀동),공공데이터포털,2018-02-23,
33.3515083,126.7663005,휴게음식점,구면카페,제주특별자치도 서귀포시 표선면 중산간동로5220번길 47,공공데이터포털,2018-02-23,
33.2426579,126.5672071,,씨유자구리점,제주특별자치도 서귀포시 솔동산로21번길 31 1층 (서귀동),공공데이터포털,2018-02-23,convenience
33.2501281,126.5626331,휴게음식점,서귀포올레마늘통닭,제주특별자치도 서귀포시 중정로61번길 25 1층 (서귀동),공공데이터포털,2018-02-23,
33.2471642,126.5637782,휴게음식점,배배,제주특별자치도 서귀포시 명동로 16 1층 (서귀동),공공데이터포털,2018-02-23,
33.226749,126.2988233,휴게음식점,GS25중문사거리점,제주특별자치도 서귀포시 중문로 80 (중문동),공공데이터포털,2018-02-23,
33.2593546,126.5598592,cafe,개다방,제주특별자치도 서귀포시 중앙로 166 (동홍동),공공데이터포털,2018-02-23,
33.2440867,126.5624219,휴게음식점,GS25서귀솔동산점,제주특별자치도 서귀포시 솔동산로 20 1층 (서귀동),공공데이터포털,2018-02-23,
33.2536595,126.5087211,휴게음식점,머니까페,제주특별자치도 서귀포시 신서로48번길 31 1층 (강정동),공공데이터포털,2018-02-23,
33.2225934,126.2515947,휴게음식점,제주설심당모슬포점,제주특별자치도 서귀포시 대정읍 신영로 73 2층,공공데이터포털,2018-02-23,
33.2569055,126.5728955,휴게음식점,효소하우스,제주특별자치도 서귀포시 동홍남로 81 1층 (동홍동),공공데이터포털,2018-02-23,
33.3255023,126.8341283,휴게음식점,영화분식,제주특별자치도 서귀포시 표선면 표선중앙로96번길 1 1층,공공데이터포털,2018-02-23,
33.4092101,126.7706544,휴게음식점,목장카페드르쿰다,제주특별자치도 서귀포시 표선면 번영로 2454 1층,공공데이터포털,2018-02-23,
33.2402708,126.2507128,휴게음식점,파파이스제주모슬포점,제주특별자치도 서귀포시 대정읍 일주서로 2641 1층,공공데이터포털,2018-02-23,
33.2541205,126.560076,휴게음식점,더커피브루,제주특별자치도 서귀포시 대청로 39 2층 (강정동),공공데이터포털,2018-02-23,
33.2541205,126.560076,휴게음식점,맘스터치신서귀포점,제주특별자치도 서귀포시 대청로 39 2층 202호 (강정동),공공데이터포털,2018-02-23,
33.2438918,126.5547833,,씨유서귀외돌개점,제주특별자치도 서귀포시 남성중로 131 (서홍동),공공데이터포털,2018-02-23,convenience
33.2413732,126.5630768,휴게음식점,세븐일레븐솔동산점,제주특별자치도 서귀포시 천지연로29번길 8 1층 (서귀동),공공데이터포털,2018-02-23,
33.2851761,126.2791491,,씨유제주이노에듀타운점,제주특별자치도 서귀포시 대정읍 글로벌에듀로 382 1층,공공데이터포털,2018-02-23,convenience
33.2545374,126.4242596,,씨유제주중문마을점,제주특별자치도 서귀포시 중문로 29-1 1층 (중문동),공공데이터포털,2018-02-23,convenience
33.2625567,126.2089836,휴게음식점,파파스토리,제주특별자치도 서귀포시 대정읍 영락사독로 13 1 2층,공공데이터포털,2018-02-23,
33.240469,126.493008,,씨유서귀강정이어도로점,제주특별자치도 서귀포시 이어도로 793 1층 (강정동),공공데이터포털,2018-02-23,convenience
33.3299649,126.838304,휴게음식점,표선카라반,제주특별자치도 서귀포시 표선면 표선동서로 324-18,공공데이터포털,2018-02-23,
33.4026908,126.7786807,휴게음식점,정지,제주특별자치도 서귀포시 표선면 번영로 2564-13,공공데이터포털,2018-02-23,
33.2497341,126.564116,휴게음식점,문어빵굽는문빵9,제주특별자치도 서귀포시 중정로73번길 18-1 (서귀동),공공데이터포털,2018-02-23,
33.2505248,126.6209111,휴게음식점,빅스테이크,제주특별자치도 서귀포시 쇠소깍로 151-8 2층 (하효동),공공데이터포털,2018-02-23,
33.3745513,126.8725065,휴게음식점,레드피아노,제주특별자치도 서귀포시 성산읍 일주동로 5185 가동 1층,공공데이터포털,2018-02-23,
33.255487,126.5686054,,씨유서귀코아루점,제주특별자치도 서귀포시 일주동로 8565 105동 1층 (동홍동),공공데이터포털,2018-02-23,convenience
33.2589312,126.510677,휴게음식점,도미노피자제주서귀포점,제주특별자치도 서귀포시 신서귀로 118 (서호동),공공데이터포털,2018-02-23,
33.2253156,126.2567608,,씨유모슬포점,제주특별자치도 서귀포시 대정읍 상모대서로 25,공공데이터포털,2018-02-23,convenience
33.4618465,126.9342266,,GS25 성산해뜰점,제주특별자치도 서귀포시 성산읍 일출로 270-8 1층,공공데이터포털,2018-02-23,convenience
33.2610627,126.524605,휴게음식점,세컨드뮤지오,제주특별자치도 서귀포시 중산간동로 8351 1층 (호근동),공공데이터포털,2018-02-23,
33.2472388,126.5092079,휴게음식점,닥터박스제주월드컵경기장점,제주특별자치도 서귀포시 월드컵로 33 지하1층 (법환동),공공데이터포털,2018-02-23,
33.2507586,126.5611784,휴게음식점,맘스터치 서귀중앙점,제주특별자치도 서귀포시 중앙로 69 1층 (서귀동),공공데이터포털,2018-02-23,
33.4660418,126.9349606,,씨유제주성산일출점,제주특별자치도 서귀포시 성산읍 한도로 257 1층,공공데이터포털,2018-02-23,convenience
33.2490074,126.5675574,cafe,로타리다방,제주특별자치도 서귀포시 동문로 69 2층 (서귀동),공공데이터포털,2018-02-23,
33.2402708,126.2507128,휴게음식점,우리들마트,제주특별자치도 서귀포시 대정읍 일주서로 2641,공공데이터포털,2018-02-23,
33.2906919,126.3011741,,GS25 서귀서광로점,제주특별자치도 서귀포시 안덕면 녹차분재로 61,공공데이터포털,2018-02-23,convenience
33.254188,126.6213171,휴게음식점,미어,제주특별자치도 서귀포시 쇠소깍로 156 2층 (하효동),공공데이터포털,2018-02-23,
33.2583212,126.5106092,,씨유서귀포시청점,제주특별자치도 서귀포시 신북로 39 (강정동),공공데이터포털,2018-02-23,convenience
33.284366,126.276762,,씨유제주삼정지에듀점,제주특별자치도 서귀포시 대정읍 에듀시티로 148 105호,공공데이터포털,2018-02-23,convenience
33.4629517,126.9353566,휴게음식점,한국맥도날드(유)제주성산점,제주특별자치도 서귀포시 성산읍 일출로 284-1 1 2층,공공데이터포털,2018-02-23,
33.4721117,126.9331983,휴게음식점,텀브커피 여객터미널점,제주특별자치도 서귀포시 성산읍 성산등용로 130-21 1층,공공데이터포털,2018-02-23,
33.4627122,126.9351852,휴게음식점,이삭토스트앤커피성산점,제주특별자치도 서귀포시 성산읍 일출로 284-4 2층,공공데이터포털,2018-02-23,
33.2590931,126.5564347,휴게음식점,건강나라구내매점,제주특별자치도 서귀포시 홍중로 74 4층 (서홍동),공공데이터포털,2018-02-23,
33.2503593,126.5114684,휴게음식점,복음이네김밥만두,제주특별자치도 서귀포시 김정문화로 64 (법환동),공공데이터포털,2018-02-23,
33.227297,126.2485777,,씨유서귀송악도서관점,제주특별자치도 서귀포시 대정읍 동일하모로149번길 5 1층 3호,공공데이터포털,2018-02-23,convenience
33.2657988,126.5736594,,GS25 오일장점,제주특별자치도 서귀포시 토평서로11번길 155 (동홍동),공공데이터포털,2018-02-23,convenience
33.2534102,126.3431685,휴게음식점,더온,제주특별자치도 서귀포시 안덕면 일주서로 1613-54 1층,공공데이터포털,2018-02-23,
33.3244236,126.8323566,휴게음식점,난타5000 표선점,제주특별자치도 서귀포시 표선면 표선동서로 230 1층,공공데이터포털,2018-02-23,
33.2421595,126.6100897,휴게음식점,열린까페,제주특별자치도 서귀포시 보목포로 161 2층 (하효동),공공데이터포털,2018-02-23,
33.3089803,126.3402728,휴게음식점,원물휴게소,제주특별자치도 서귀포시 안덕면 동광로 257,공공데이터포털,2018-02-23,
33.2407909,126.6108183,휴게음식점,게우지코지인갤러리,제주특별자치도 서귀포시 보목포로 179 1 2층 (하효동),공공데이터포털,2018-02-23,
33.4616976,126.9338917,휴게음식점,까페더모해,제주특별자치도 서귀포시 성산읍 일출로 267,공공데이터포털,2018-02-23,
33.2602196,126.5620729,휴게음식점,단미&CAFE,제주특별자치도 서귀포시 중앙로150번길 32 (동홍동),공공데이터포털,2018-02-23,
33.2923161,126.2996588,휴게음식점,별난카페,제주특별자치도 서귀포시 안덕면 녹차분재로 199,공공데이터포털,2018-02-23,
33.3084898,126.7790718,휴게음식점,카페알토산,제주특별자치도 서귀포시 표선면 토산중앙로15번길 6 1층,공공데이터포털,2018-02-23,
33.2564051,126.4018105,,GS25 중문버자야,제주특별자치도 서귀포시 예래로 38 (상예동),공공데이터포털,2018-02-23,convenience
33.378711,126.8797688,휴게음식점,제이아일랜드,제주특별자치도 서귀포시 성산읍 환해장성로 69 1층,공공데이터포털,2018-02-23,
33.2729636,126.7014772,휴게음식점,던킨도너츠제주금호리조트점,제주특별자치도 서귀포시 남원읍 태위로 522-12 1층,공공데이터포털,2018-02-23,
33.2741273,126.3636498,휴게음식점,올레휴게마트,제주특별자치도 서귀포시 안덕면 한창로 128,공공데이터포털,2018-02-23,
33.2448621,126.4592692,휴게음식점,리틀포레스트,제주특별자치도 서귀포시 월평로 15 (월평동),공공데이터포털,2018-02-23,
33.2549224,126.4087187,휴게음식점,이디야커피제주중문점,제주특별자치도 서귀포시 중문관광로 42 1층 (색달동),공공데이터포털,2018-02-23,
33.2505549,126.5727622,휴게음식점,CU서귀포가온점,제주특별자치도 서귀포시 태평로512번길 1-4 1층 (동홍동),공공데이터포털,2018-02-23,
33.2570097,126.528149,휴게음식점,차롱밥상,제주특별자치도 서귀포시 호근남로 6 (호근동),공공데이터포털,2018-02-23,
33.2476634,126.5584532,휴게음식점,GS25서귀중정점,제주특별자치도 서귀포시 중정로 17-1 1층 (서귀동),공공데이터포털,2018-02-23,
33.23663,126.5109673,휴게음식점,GS25서귀법환점,제주특별자치도 서귀포시 이어도로 900 1층 (법환동),공공데이터포털,2018-02-23,
33.3089803,126.3402728,휴게음식점,꽃썸,제주특별자치도 서귀포시 안덕면 동광로 151,공공데이터포털,2018-02-23,
33.2484225,126.5674188,휴게음식점,찰스커피,제주특별자치도 서귀포시 중정로 104 1층 (서귀동),공공데이터포털,2018-02-23,
33.2572228,126.5739029,,GS25 강정엘에이치점,제주특별자치도 서귀포시 대청로25번길 9 101 102호 (강정동),공공데이터포털,2018-02-23,convenience
33.2540891,126.5241674,휴게음식점,카페 공감각,제주특별자치도 서귀포시 서호호근로 77 1층 (서호동),공공데이터포털,2018-02-23,
33.2494747,126.5641385,휴게음식점,커피탭,제주특별자치도 서귀포시 중앙로48번길 23 1층 (서귀동),공공데이터포털,2018-02-23,
33.2550042,126.428374,,씨유제주중문오네뜨점,제주특별자치도 서귀포시 천제연로213번길 44 1층 (중문동),공공데이터포털,2018-02-23,convenience
33.3318834,126.8289703,휴게음식점,맘스터치표선점,제주특별자치도 서귀포시 표선면 표선중앙로 8-4,공공데이터포털,2018-02-23,
33.3258919,126.8344185,휴게음식점,꼭지분식,제주특별자치도 서귀포시 표선면 표선중앙로 97,공공데이터포털,2018-02-23,
33.24973,126.5634949,휴게음식점,아이스크림연구소,제주특별자치도 서귀포시 중앙로54번길 14 1층 (서귀동),공공데이터포털,2018-02-23,
33.2232489,126.2551317,휴게음식점,도나도넛제주본점,제주특별자치도 서귀포시 대정읍 신영로 130 1층,공공데이터포털,2018-02-23,
33.2439503,126.3360304,,GS25 화순아일랜드점,제주특별자치도 서귀포시 안덕면 화순중앙로 94 2층,공공데이터포털,2018-02-23,convenience
33.448917,126.9175588,휴게음식점,핏제리아모꼬지,제주특별자치도 서귀포시 성산읍 동류암로 20 C동 1층,공공데이터포털,2018-02-23,
33.2910924,126.3009964,,씨유서귀서광신화점,제주특별자치도 서귀포시 안덕면 녹차분재로 64 1층,공공데이터포털,2018-02-23,convenience
33.3835243,126.8413634,휴게음식점,쏭쏭,제주특별자치도 서귀포시 성산읍 중산간동로 4150-30 1층,공공데이터포털,2018-02-23,
33.34543,126.8541536,휴게음식점,비욘드북카페,제주특별자치도 서귀포시 성산읍 신천동로 24-30 1 2층,공공데이터포털,2018-02-23,
33.2541205,126.560076,휴게음식점,메종드카페(신서귀포),제주특별자치도 서귀포시 서호남로32번길 24 1층 (서호동),공공데이터포털,2018-02-23,
33.2528972,126.5755013,,씨유서귀포세기점,제주특별자치도 서귀포시 태평로 551 상가동 102 103호 (동홍동),공공데이터포털,2018-02-23,convenience
33.2570704,126.5723268,휴게음식점,카페드숑,제주특별자치도 서귀포시 동홍남로 37 1층 (동홍동),공공데이터포털,2018-02-23,
33.2546735,126.5610815,휴게음식점,세븐일레븐서귀포시서강파인힐점,제주특별자치도 서귀포시 중앙로 199 1층 1호 (서홍동 서강파인힐),공공데이터포털,2018-02-23,
33.2397054,126.5644152,,GS25 서귀포부두점,제주특별자치도 서귀포시 칠십리로 78 2층 (서귀동),공공데이터포털,2018-02-23,convenience
33.2598416,126.6217794,,씨유서귀포효돈중앙점,제주특별자치도 서귀포시 과원동로 3 102동 1층 101호 (하효동),공공데이터포털,2018-02-23,convenience
33.2402708,126.2507128,휴게음식점,밀로드,제주특별자치도 서귀포시 대정읍 일주서로 2535,공공데이터포털,2018-02-23,
33.3204193,126.7703021,휴게음식점,용순김밥,제주특별자치도 서귀포시 중앙로 199 1층 17호 (서홍동 서강파인힐5차),공공데이터포털,2018-02-23,
33.2663197,126.5671727,휴게음식점,솔오름전망대, ,공공데이터포털,2018-02-23,
33.3953165,126.6846116,휴게음식점,뚱이네, ,공공데이터포털,2018-02-23,
33.4268965,126.8647243,휴게음식점,브라더커피,제주특별자치도 서귀포시 성산읍 서성일로 511 2층,공공데이터포털,2018-02-23,
33.2663197,126.5671727,휴게음식점,될놈, ,공공데이터포털,2018-02-23,
33.4497382,126.9206376,휴게음식점,스타벅스제주성산DT점,제주특별자치도 서귀포시 성산읍 일출로 80 1 2층,공공데이터포털,2018-02-23,
33.2496477,126.5641314,휴게음식점,제주섬SUM분식,제주특별자치도 서귀포시 중정로73번길 18 (서귀동),공공데이터포털,2018-02-23,
33.281977,126.6213462,휴게음식점,내창,제주특별자치도 서귀포시 남원읍 하례로 393,공공데이터포털,2018-02-23,
33.3256448,126.8335518,,GS25 제주표선점,제주특별자치도 서귀포시 표선면 표선중앙로 90 1층,공공데이터포털,2018-02-23,convenience
33.3953165,126.6846116,휴게음식점,쉬림프스토어, ,공공데이터포털,2018-02-23,
33.414559,126.8960019,휴게음식점,파랑몽생이,제주특별자치도 서귀포시 성산읍 혼인지로37번길 23-13 1층,공공데이터포털,2018-02-23,
33.2910924,126.3009964,휴게음식점,코코호도서귀포시신화월드점,제주특별자치도 서귀포시 안덕면 녹차분재로 64 1층,공공데이터포털,2018-02-23,
33.3953165,126.6846116,휴게음식점,토스트와더치카페, ,공공데이터포털,2018-02-23,
33.2663197,126.5671727,휴게음식점,솔오름푸드트럭, ,공공데이터포털,2018-02-23,
33.249596,126.5686053,,GS25 동홍그린점,제주특별자치도 서귀포시 동홍동로32번길 12 1층 (동홍동),공공데이터포털,2018-02-23,convenience
33.326215,126.4716831,휴게음식점,탐라포장마차, ,공공데이터포털,2018-02-23,
33.2524682,126.5118522,휴게음식점,비브레이브,제주특별자치도 서귀포시 신서로48번길 66 (서호동),공공데이터포털,2018-02-23,
33.2529814,126.3150833,휴게음식점,앤드,제주특별자치도 서귀포시 안덕면 덕수회관로 14 1층,공공데이터포털,2018-02-23,
33.2438633,126.4513018,휴게음식점,카페헬로,제주특별자치도 서귀포시 이어도로 297 1층 (하원동),공공데이터포털,2018-02-23,
33.4143696,126.8999778,,GS25 성산삼달점,제주특별자치도 서귀포시 성산읍 일주동로 5251,공공데이터포털,2018-02-23,convenience
33.2646426,126.5576903,휴게음식점,소풍키즈카페,제주특별자치도 서귀포시 중산간동로 8044-4 (서홍동),공공데이터포털,2018-02-23,
33.2788483,126.7185714,휴게음식점,아일랜드,제주특별자치도 서귀포시 남원읍 태위로 672-8,공공데이터포털,2018-02-23,
33.3953165,126.6846116,휴게음식점,유명한핫도그, ,공공데이터포털,2018-02-23,
33.416346,126.889907,휴게음식점,185펜션,제주특별자치도 서귀포시 성산읍 일주동로 5428-40 1층,공공데이터포털,2018-02-23,
33.3266458,126.8324236,휴게음식점,밥말리,제주특별자치도 서귀포시 표선면 표선중앙로 75 1층,공공데이터포털,2018-02-23,
33.2526495,126.5045616,휴게음식점,배스킨라빈스서귀포혁신점,제주특별자치도 서귀포시 대청로 43 지하1층 (강정동),공공데이터포털,2018-02-23,
33.291839,126.284336,휴게음식점,바이올가서귀포영어마을점,제주특별자치도 서귀포시 대정읍 에듀시티로 40 1층 102호,공공데이터포털,2018-02-23,
33.2507993,126.430737,휴게음식점,쥬씨중문점,제주특별자치도 서귀포시 천제연로 242 2층 (중문동),공공데이터포털,2018-02-23,
33.2515559,126.424194,휴게음식점,배스킨라빈스중문점,제주특별자치도 서귀포시 천제연로 182-1 (중문동),공공데이터포털,2018-02-23,
33.2526495,126.5045616,휴게음식점,부자김밥,제주특별자치도 서귀포시 대청로 43 지하1층 (강정동),공공데이터포털,2018-02-23,
33.4480793,126.9152794,휴게음식점,제주흑돈만두,제주특별자치도 서귀포시 성산읍 고성오조로 50,공공데이터포털,2018-02-23,
33.304846,126.29972,휴게음식점,신성휴게소,제주특별자치도 서귀포시 안덕면 녹차분재로 45 1층,공공데이터포털,2018-02-23,
33.4404718,126.8822331,,GS25 수산삼거리점,제주특별자치도 서귀포시 성산읍 서성일로 1029,공공데이터포털,2018-02-23,convenience
33.301546,126.317122,휴게음식점,주식회사명가투썸플레이스제주신화빌라스점,제주특별자치도 서귀포시 안덕면 신화역사로304번길 139 1층 (제주신화빌라스 한국스퀘어),공공데이터포털,2018-02-23,
33.2483926,126.5692091,휴게음식점,서귀휴게음식점,제주특별자치도 서귀포시 중정로 122 1층 (서귀동),공공데이터포털,2018-02-23,
33.2495549,126.563826,휴게음식점,올레큐브스테이크,제주특별자치도 서귀포시 중정로73번길 15-1 (서귀동),공공데이터포털,2018-02-23,
33.2434045,126.5598021,휴게음식점,망고레이천지연폭포점,제주특별자치도 서귀포시 남성중로 2-3 1층 (서홍동),공공데이터포털,2018-02-23,
33.2761847,126.6067488,휴게음식점,로하스,제주특별자치도 서귀포시 하신상로 229 1층 (상효동),공공데이터포털,2018-02-23,
33.3294189,126.3567077,휴게음식점,광평교푸드트럭, ,공공데이터포털,2018-02-23,
33.3258417,126.6696618,휴게음식점,또와, ,공공데이터포털,2018-02-23,
33.301546,126.317122,휴게음식점,(주)명가로봇김밥신화빌라스제주점,제주특별자치도 서귀포시 안덕면 신화역사로304번길 139 2층 (신화빌라스 한국스퀘어),공공데이터포털,2018-02-23,
33.3835243,126.8413634,휴게음식점,이디살레,제주특별자치도 서귀포시 성산읍 중산간동로 4150-30,공공데이터포털,2018-02-23,
33.2389206,126.2994501,,GS25 신서귀엘에이치점,제주특별자치도 서귀포시 서호남로 92-16 상가동 1층 103 104호 (서호동),공공데이터포털,2018-02-23,convenience
33.301546,126.317122,,씨유제주신화빌라스점,제주특별자치도 서귀포시 안덕면 신화역사로304번길 139 1층 (제주신화빌라스일본테라스),공공데이터포털,2018-02-23,convenience
33.2450152,126.5222577,,하영편의점,제주특별자치도 서귀포시 이어도로 1041-1 1층 (서호동),공공데이터포털,2018-02-23,convenience
33.4268965,126.8647243,휴게음식점,풀가개비,제주특별자치도 서귀포시 성산읍 서성일로 335,공공데이터포털,2018-02-23,
33.2383561,126.5138691,휴게음식점,미몽,제주특별자치도 서귀포시 이어도로 931 1층 (법환동),공공데이터포털,2018-02-23,
33.2526495,126.5045616,휴게음식점,탐라220도씨피자 피자투어,제주특별자치도 서귀포시 대청로 43 지하1층 (강정동),공공데이터포털,2018-02-23,
33.2541205,126.560076,휴게음식점,뷰티타임,제주특별자치도 서귀포시 대청로 37 1층 104호 (강정동 세종안채오피스텔),공공데이터포털,2018-02-23,
33.2195019,126.2479359,cafe,오케이다방,제주특별자치도 서귀포시 대정읍 신영로36번길 45 지하1층,공공데이터포털,2018-02-23,
33.2408107,126.3347888,휴게음식점,카페수애기,제주특별자치도 서귀포시 안덕면 화순중앙로 132 2층,공공데이터포털,2018-02-23,
33.2541205,126.560076,휴게음식점,메가커피제주혁신도시점,제주특별자치도 서귀포시 대청로 34 1층 107호 (강정동 제주강정유승한내들퍼스트오션상가동),공공데이터포털,2018-02-23,
33.24761,126.5650596,휴게음식점,콩툰서귀포점,제주특별자치도 서귀포시 명동로 29 3층 (서귀동),공공데이터포털,2018-02-23,
33.291839,126.284336,휴게음식점,스타벅스제주에듀시티점,제주특별자치도 서귀포시 대정읍 에듀시티로 36 1층,공공데이터포털,2018-02-23,
33.3066927,126.3380858,휴게음식점,바램,제주특별자치도 서귀포시 안덕면 신화역사로 611,공공데이터포털,2018-02-23,
33.2503166,126.5622458,휴게음식점,애선양행,제주특별자치도 서귀포시 중앙로72번길 8-19 1층 (서귀동),공공데이터포털,2018-02-23,
33.2608963,126.5590022,휴게음식점,GS25서귀소원점,제주특별자치도 서귀포시 중앙로 183 1층 (서홍동),공공데이터포털,2018-02-23,
33.2500911,126.5658335,,GS25 서귀동변점,제주특별자치도 서귀포시 중앙로48번길 42 1층 (서귀동),공공데이터포털,2018-02-23,convenience
33.23581,126.5062702,휴게음식점,다가온,제주특별자치도 서귀포시 이어도로 852 1층 (강정동),공공데이터포털,2018-02-23,
33.3456001,126.7895359,휴게음식점,카페샤인,제주특별자치도 서귀포시 표선면 가시로 340 1층,공공데이터포털,2018-02-23,
33.2505672,126.5720227,,GS25 동홍중앙점,제주특별자치도 서귀포시 태평로 509 1층 101호 (동홍동),공공데이터포털,2018-02-23,convenience
33.2798179,126.2737676,,GS25 구억점,제주특별자치도 서귀포시 대정읍 영어도시로 1,공공데이터포털,2018-02-23,convenience
33.2491939,126.5667571,휴게음식점,먹고가게,제주특별자치도 서귀포시 동문로 62 (서귀동),공공데이터포털,2018-02-23,
33.4268965,126.8647243,휴게음식점,트레이통닭,제주특별자치도 서귀포시 성산읍 서성일로 314,공공데이터포털,2018-02-23,
33.301546,126.317122,휴게음식점,투썸플레이스제주신화빌라스점별관,제주특별자치도 서귀포시 안덕면 신화역사로304번길 139 1층 (제주신화빌라스한국스퀘어),공공데이터포털,2018-02-23,
33.2451213,126.3852784,,GS25 논짓물점,제주특별자치도 서귀포시 예래로 229 1층 (하예동),공공데이터포털,2018-02-23,convenience
33.2563117,126.4256818,,GS25 중문희망점,제주특별자치도 서귀포시 중문로 53 1층 (중문동),공공데이터포털,2018-02-23,convenience
33.228286,126.3076006,,GS25 사계포구점,제주특별자치도 서귀포시 안덕면 사계남로 165,공공데이터포털,2018-02-23,convenience
33.2761837,126.2571383,,GS25 제주신평점,제주특별자치도 서귀포시 대정읍 중산간서로 2613,공공데이터포털,2018-02-23,convenience
33.2616977,126.5217426,,씨유서귀호근사거리점,제주특별자치도 서귀포시 서호호근로 75 1층 (서호동),공공데이터포털,2018-02-23,convenience
33.2618492,126.407066,휴게음식점,생수천쉼터,제주특별자치도 서귀포시 색달로81번길 53 1층 (색달동),공공데이터포털,2018-02-23,
33.280681,126.707391,휴게음식점,느영나영초가집,제주특별자치도 서귀포시 남원읍 태위로 483,공공데이터포털,2018-02-23,
33.210157,126.2914269,휴게음식점,모아카페,제주특별자치도 서귀포시 대정읍 형제해안로 296 2층,공공데이터포털,2018-02-23,
33.2654692,126.554049,휴게음식점,놀멍쉬멍고르멍,제주특별자치도 서귀포시 현청로 51 (서홍동),공공데이터포털,2018-02-23,
33.4765014,126.8962962,휴게음식점,묘한상점묘한카페,제주특별자치도 서귀포시 성산읍 시흥상동로 87,공공데이터포털,2018-02-23,
33.2480463,126.3309435,,GS25 화순육거리점,제주특별자치도 서귀포시 안덕면 화순로 142 C동 1층,공공데이터포털,2018-02-23,convenience
33.2159151,126.2575666,휴게음식점,이디야커피송악산점,제주특별자치도 서귀포시 대정읍 최남단해안로 578 1 2층,공공데이터포털,2018-02-23,
33.2419198,126.5616902,휴게음식점,올라,제주특별자치도 서귀포시 천지연로41번길 7 1층 (서귀동),공공데이터포털,2018-02-23,
33.2524884,126.5581079,,씨유서귀걸매점,제주특별자치도 서귀포시 일주동로 8709 (서귀동),공공데이터포털,2018-02-23,convenience
33.2534226,126.5613107,,GS25 서귀광장점,제주특별자치도 서귀포시 일주동로 8678 1층 (동홍동),공공데이터포털,2018-02-23,convenience
33.2589085,126.5104348,,씨유서귀신북로점,제주특별자치도 서귀포시 신서로98번길 74 지하1층 (서호동),공공데이터포털,2018-02-23,convenience
33.2715236,126.6076604,휴게음식점,감귤박물관쉼터,제주특별자치도 서귀포시 효돈순환로 441 (신효동),공공데이터포털,2018-02-23,
33.4118359,126.9013288,휴게음식점,오메오메,제주특별자치도 서귀포시 성산읍 온평관전로 94,공공데이터포털,2018-02-23,
33.2537273,126.5614624,휴게음식점,세븐일레븐서귀포오션팰리스점,제주특별자치도 서귀포시 중앙로 14 102호 (서귀동),공공데이터포털,2018-02-23,
33.2572632,126.5738737,휴게음식점,고봉민김밥인서귀포강정점,제주특별자치도 서귀포시 대청로25번길 4 1층 (강정동 102호),공공데이터포털,2018-02-23,
33.2487112,126.5615757,,GS25 서귀엘지점,제주특별자치도 서귀포시 중앙로 45 1층 (서귀동),공공데이터포털,2018-02-23,convenience
33.2496914,126.563856,휴게음식점,올레흑돼지꼬치구이전문점,제주특별자치도 서귀포시 중정로73번길 17 (서귀동),공공데이터포털,2018-02-23,
33.2502446,126.4142309,휴게음식점,옐로우카페,제주특별자치도 서귀포시 중문관광로 90 B동 지하1층 (색달동),공공데이터포털,2018-02-23,
33.2491574,126.5692267,휴게음식점,혜시리네김밥,제주특별자치도 서귀포시 동홍로8번길 13 1층 (서귀동),공공데이터포털,2018-02-23,
33.2228813,126.2549566,휴게음식점,친구네분식,제주특별자치도 서귀포시 대정읍 신영로 124-1 1층,공공데이터포털,2018-02-23,
33.2903783,126.3538589,휴게음식점,이어휴게마트,제주특별자치도 서귀포시 안덕면 한창로 146 1층,공공데이터포털,2018-02-23,
33.3231773,126.7938632,휴게음식점,북살롱이마고,제주특별자치도 서귀포시 표선면 세화강왓로 78 1층,공공데이터포털,2018-02-23,
33.2410807,126.5938804,휴게음식점,제주아우룸,제주특별자치도 서귀포시 보목로64번길 22 1층 (보목동),공공데이터포털,2018-02-23,
33.2526495,126.5045616,휴게음식점,소담수제만두,제주특별자치도 서귀포시 대청로 43 1층 (강정동),공공데이터포털,2018-02-23,
33.2525424,126.4256292,휴게음식점,세븐일레븐서귀포중문상로점,제주특별자치도 서귀포시 중문상로 45 (중문동),공공데이터포털,2018-02-23,
33.2538045,126.5576967,휴게음식점,라플레르앤카페,제주특별자치도 서귀포시 홍중로27번길 3 (서홍동),공공데이터포털,2018-02-23,
33.3056347,126.7921182,,GS25 서귀일주동로점,제주특별자치도 서귀포시 표선면 일주동로 6412 1층,공공데이터포털,2018-02-23,convenience
33.4375501,126.9203422,,GS25 성산신양점,제주특별자치도 서귀포시 성산읍 섭지코지로26번길 6,공공데이터포털,2018-02-23,convenience
33.3643757,126.8395566,휴게음식점,아줄레주,제주특별자치도 서귀포시 성산읍 신풍하동로19번길 59 나동,공공데이터포털,2018-02-23,
33.2233599,126.2521829,,씨유서귀대정태화점,제주특별자치도 서귀포시 대정읍 하모중앙로 54 1층,공공데이터포털,2018-02-23,convenience
33.4268965,126.8647243,휴게음식점,제주해양동물박물관마린카페,제주특별자치도 서귀포시 성산읍 서성일로 689-21 1층,공공데이터포털,2018-02-23,
33.22334,126.2584808,,GS25 대정상모점, ,공공데이터포털,2018-02-23,convenience
33.2516184,126.4380802,휴게음식점,연홍,제주특별자치도 서귀포시 천제연로 313 (회수동),공공데이터포털,2018-02-23,
33.3052583,126.3149549,휴게음식점,카페윙클제주신화월드점,제주특별자치도 서귀포시 안덕면 신화역사로304번길 98 1층,공공데이터포털,2018-02-23,
33.2562006,126.3351463,,씨유서귀감산리점,제주특별자치도 서귀포시 안덕면 일주서로 1499 1층,공공데이터포털,2018-02-23,convenience
33.3052583,126.3149549,휴게음식점,메인스트리트스낵(Main Street Snacks),제주특별자치도 서귀포시 안덕면 신화역사로304번길 98 1층,공공데이터포털,2018-02-23,
33.429258,126.9342326,휴게음식점,(주)지포뮤지엄, ,공공데이터포털,2018-02-23,
33.2798179,126.2737676,휴게음식점,소소희,제주특별자치도 서귀포시 대정읍 영어도시로 27-2 1층 102호,공공데이터포털,2018-02-23,
33.3190481,126.7087521,휴게음식점,수망일기,제주특별자치도 서귀포시 남원읍 남조로 593-2 1층,공공데이터포털,2018-02-23,
33.2473219,126.5649399,휴게음식점,라이또PC서귀본점,제주특별자치도 서귀포시 명동로 28 3층 (서귀동),공공데이터포털,2018-02-23,
33.283037,126.6308418,휴게음식점,네이처캔바스,제주특별자치도 서귀포시 남원읍 중산간동로 7129,공공데이터포털,2018-02-23,
33.2399513,126.5126255,휴게음식점,분식카페,제주특별자치도 서귀포시 신서로 66 지하1층 (강정동),공공데이터포털,2018-02-23,
33.2802165,126.7180039,휴게음식점,욜로김밥,제주특별자치도 서귀포시 남원읍 남한로 12-1,공공데이터포털,2018-02-23,
33.4721117,126.9331983,휴게음식점,멧돌쥬스,제주특별자치도 서귀포시 성산읍 성산등용로 130-21 1층,공공데이터포털,2018-02-23,
33.2533658,126.4426193,휴게음식점,볼스프로덕션,제주특별자치도 서귀포시 일주서로 626 1층 (회수동),공공데이터포털,2018-02-23,
33.2595265,126.4920702,,가람휴게음식편의점,제주특별자치도 서귀포시 염돈로 123 (강정동),공공데이터포털,2018-02-23,convenience
33.2497135,126.5618651,휴게음식점,메가커피서귀포중앙점,제주특별자치도 서귀포시 중앙로 56 1층 (서귀동),공공데이터포털,2018-02-23,
33.2502419,126.4119743,휴게음식점,테디베어카페,제주특별자치도 서귀포시 중문관광로110번길 31 지하2층 (색달동),공공데이터포털,2018-02-23,
33.2550336,126.5719328,휴게음식점,콩툰동홍점,제주특별자치도 서귀포시 동홍중앙로 49 5층 (동홍동 프라미스빌딩),공공데이터포털,2018-02-23,
33.2501255,126.2994269,휴게음식점,탄산휴게음식점,제주특별자치도 서귀포시 안덕면 사계북로41번길 178-3 1층,공공데이터포털,2018-02-23,
33.2438391,126.5060017,휴게음식점,이집,제주특별자치도 서귀포시 월드컵로 63 1층 (법환동),공공데이터포털,2018-02-23,
33.2472388,126.5092079,휴게음식점,월드휴게점,제주특별자치도 서귀포시 월드컵로 31 1층 (법환동),공공데이터포털,2018-02-23,
33.2889802,126.3701349,휴게음식점,프롬더힐,제주특별자치도 서귀포시 안덕면 병악로 98-2 1층,공공데이터포털,2018-02-23,
33.2519359,126.5688123,휴게음식점,가가멜,제주특별자치도 서귀포시 문부로 8 (동홍동),공공데이터포털,2018-02-23,
33.2817614,126.7210225,,씨유서귀남원로점,제주특별자치도 서귀포시 남원읍 태위로723번길 31-11 1층,공공데이터포털,2018-02-23,convenience
33.286509,126.281098,,GS25 대정한신점,제주특별자치도 서귀포시 대정읍 에듀시티로 102 상가동 1층 110호,공공데이터포털,2018-02-23,convenience
33.2835671,126.7051642,휴게음식점,몬딱분식,제주특별자치도 서귀포시 남원읍 일주동로 7982,공공데이터포털,2018-02-23,
33.2576406,126.4612598,,씨유서귀하원동점,제주특별자치도 서귀포시 하원로 39-2 1층 (하원동),공공데이터포털,2018-02-23,convenience
33.2635098,126.6156328,휴게음식점,카페더불어,제주특별자치도 서귀포시 효돈로 158 (하효동),공공데이터포털,2018-02-23,
33.2551463,126.5578678,휴게음식점,겹겹의 의도,제주특별자치도 서귀포시 홍중로27번길 4 1층 103호 (서홍동 파크하임 3차),공공데이터포털,2018-02-23,
33.2851761,126.2791491,휴게음식점,(주)아워홈 에스제이에이제주점 카페그랑,제주특별자치도 서귀포시 대정읍 글로벌에듀로304번길 10,공공데이터포털,2018-02-23,
33.2528563,126.5102317,,GS25 서귀신시가지점,제주특별자치도 서귀포시 신서로48번길 52-11 1층 (법환동),공공데이터포털,2018-02-23,convenience
33.2548555,126.4136132,휴게음식점,한국맥도날드(유)제주중문DT점,제주특별자치도 서귀포시 중문관광로 38 (색달동),공공데이터포털,2018-02-23,
33.2760352,126.6770034,휴게음식점,동박낭,제주특별자치도 서귀포시 남원읍 태위로 275-2 1 2층,공공데이터포털,2018-02-23,
33.2676632,126.4950848,휴게음식점,엉또돌다카페&농원,제주특별자치도 서귀포시 월산로 30 1층 (강정동),공공데이터포털,2018-02-23,
33.3253166,126.8337299,cafe,팽이다방,제주특별자치도 서귀포시 표선면 표선중앙로96번길 12 1층,공공데이터포털,2018-02-23,
33.2523634,126.5591487,휴게음식점,지금 여기,제주특별자치도 서귀포시 중앙로89번길 14 (서귀동),공공데이터포털,2018-02-23,
33.4445399,126.9000707,휴게음식점,일출봉아로니아,제주특별자치도 서귀포시 성산읍 서성일로1136번길 8,공공데이터포털,2018-02-23,
33.250981,126.4343542,휴게음식점,7번가피자중문점,제주특별자치도 서귀포시 천제연로 278 1층 (중문동),공공데이터포털,2018-02-23,
33.2804385,126.6319212,휴게음식점,개판오분전,제주특별자치도 서귀포시 남원읍 하신로 302,공공데이터포털,2018-02-23,
33.2590924,126.4317649,휴게음식점,보나커피,제주특별자치도 서귀포시 중문상로 36 1층 (중문동),공공데이터포털,2018-02-23,
33.3089803,126.3402728,,씨유서귀동광로점,제주특별자치도 서귀포시 안덕면 동광로 257,공공데이터포털,2018-02-23,convenience
33.2715236,126.6076604,휴게음식점,카페꿈나다,제주특별자치도 서귀포시 효돈순환로 441 2층 (신효동),공공데이터포털,2018-02-23,
33.2576253,126.4135534,,씨유서귀색달동점,제주특별자치도 서귀포시 색달중앙로 48 (색달동),공공데이터포털,2018-02-23,convenience
33.2484808,126.5642653,휴게음식점,하효통닭치킨,제주특별자치도 서귀포시 중정로73번길 4-1 (서귀동),공공데이터포털,2018-02-23,
33.2555528,126.4018824,,씨유서귀예래해안로점,제주특별자치도 서귀포시 예래해안로 550 1층 (상예동),공공데이터포털,2018-02-23,convenience
33.2492374,126.563034,휴게음식점,준이네분식,제주특별자치도 서귀포시 중앙로48번길 13 1층 (서귀동),공공데이터포털,2018-02-23,
33.4752658,126.9078095,휴게음식점,블랙업커피제주성산점,제주특별자치도 서귀포시 성산읍 한도로 82,공공데이터포털,2018-02-23,
33.3066927,126.3380858,,씨유제주신화아띠점,제주특별자치도 서귀포시 안덕면 신화역사로188번길 151 지하1층 (H지구 트레이닝센터),공공데이터포털,2018-02-23,convenience
33.2515738,126.5743359,,씨유삼아점,제주특별자치도 서귀포시 태평로 534 (동홍동),공공데이터포털,2018-02-23,convenience
33.2507422,126.1986987,휴게음식점,세븐일레븐대정로드점,제주특별자치도 서귀포시 대정읍 노을해안로 5 1층,공공데이터포털,2018-02-23,
33.2627939,126.369843,휴게음식점,세븐일레븐서귀포창천점,제주특별자치도 서귀포시 안덕면 일주서로 1357,공공데이터포털,2018-02-23,
33.2480965,126.560575,휴게음식점,청춘감성쌀핫도그 제주서귀중앙점,제주특별자치도 서귀포시 중앙로 41 1층 (서귀동),공공데이터포털,2018-02-23,
33.2565479,126.6215097,휴게음식점,하효살롱,제주특별자치도 서귀포시 효돈순환로 217-8 (하효동),공공데이터포털,2018-02-23,
33.2386241,126.3146142,휴게음식점,짠내단내셀프카페,제주특별자치도 서귀포시 안덕면 산방로 244 2층,공공데이터포털,2018-02-23,
33.2178071,126.2521152,휴게음식점,모슬포3호텔커피숍,제주특별자치도 서귀포시 대정읍 최남단해안로30번길 15 1층,공공데이터포털,2018-02-23,
33.2761837,126.2571383,휴게음식점,노리매왕만두,제주특별자치도 서귀포시 대정읍 중산간서로 2244 1층,공공데이터포털,2018-02-23,
33.326023,126.8325393,휴게음식점,표선순대,제주특별자치도 서귀포시 표선면 표선중앙로80번길 1 1층,공공데이터포털,2018-02-23,
33.2775349,126.692878,휴게음식점,쉼카페,제주특별자치도 서귀포시 남원읍 남원체육관로 69-1 1층,공공데이터포털,2018-02-23,
33.3052583,126.3149549,휴게음식점,엉클통김밥신화월드점,제주특별자치도 서귀포시 안덕면 신화역사로304번길 38 지하1층,공공데이터포털,2018-02-23,
33.3052583,126.3149549,휴게음식점,오슬로신화월드점,제주특별자치도 서귀포시 안덕면 신화역사로304번길 38 지하1층,공공데이터포털,2018-02-23,
33.3052583,126.3149549,휴게음식점,앤티앤스신화월드점,제주특별자치도 서귀포시 안덕면 신화역사로304번길 38 지하1층,공공데이터포털,2018-02-23,
33.3052583,126.3149549,휴게음식점,왔다스트릿푸드신화월드점,제주특별자치도 서귀포시 안덕면 신화역사로304번길 38 지하1층,공공데이터포털,2018-02-23,
33.3052583,126.3149549,휴게음식점,스타벅스제주신화월드점,제주특별자치도 서귀포시 안덕면 신화역사로304번길 38 호텔동 지하1층,공공데이터포털,2018-02-23,
33.3052583,126.3149549,휴게음식점,스무디킹신화월드점,제주특별자치도 서귀포시 안덕면 신화역사로304번길 38 지하1층,공공데이터포털,2018-02-23,
33.2612696,126.4137248,휴게음식점,가가하우스,제주특별자치도 서귀포시 색달로 128 1층 (색달동),공공데이터포털,2018-02-23,
33.2635098,126.6156328,휴게음식점,섬떡볶이,제주특별자치도 서귀포시 효돈로 158 (하효동),공공데이터포털,2018-02-23,
33.2422082,126.5995245,휴게음식점,보몽드,제주특별자치도 서귀포시 보목로 21-11 (보목동),공공데이터포털,2018-02-23,
33.222384,126.2543347,휴게음식점,제주흑돈만두대정점,제주특별자치도 서귀포시 대정읍 신영로 117,공공데이터포털,2018-02-23,
33.2956392,126.2896818,,씨유제주영어마을점,제주특별자치도 서귀포시 대정읍 글로벌에듀로145번길 40 106호,공공데이터포털,2018-02-23,convenience
33.2541205,126.560076,,씨유서귀남고사거리점,제주특별자치도 서귀포시 중산간동로 7936 (동홍동),공공데이터포털,2018-02-23,convenience
33.240469,126.493008,,GS25 강정점,제주특별자치도 서귀포시 이어도로 752 1층 (강정동),공공데이터포털,2018-02-23,convenience
33.2701369,126.590941,휴게음식점,카페50번길,제주특별자치도 서귀포시 토평로50번길 23 1층 (토평동),공공데이터포털,2018-02-23,
33.2739606,126.676409,휴게음식점,르브아,제주특별자치도 서귀포시 남원읍 태위로266번길 15,공공데이터포털,2018-02-23,
33.2541205,126.560076,휴게음식점,놀숲서귀포신시가지점,제주특별자치도 서귀포시 대청로25번길 4 4층 (강정동),공공데이터포털,2018-02-23,
33.2540922,126.5601945,휴게음식점,바끄레카페,제주특별자치도 서귀포시 중앙로 105 별관 1층 (서홍동),공공데이터포털,2018-02-23,
33.2835671,126.7051642,,씨유서귀태흥점,제주특별자치도 서귀포시 남원읍 일주동로 6745,공공데이터포털,2018-02-23,convenience
33.2511409,126.5095568,휴게음식점,세븐일레븐밸류호텔점,제주특별자치도 서귀포시 김정문화로 51 제이에스밸류호텔 B동 지하1층 101호 (법환동),공공데이터포털,2018-02-23,
33.4364523,126.9217313,,씨유제주섭지코지점,제주특별자치도 서귀포시 성산읍 신양로 114,공공데이터포털,2018-02-23,convenience
33.3092112,126.7811922,휴게음식점,테쉬폰카페,제주특별자치도 서귀포시 표선면 토산중앙로16번길 15-1,공공데이터포털,2018-02-23,
33.4689283,126.9199121,휴게음식점,담다,제주특별자치도 서귀포시 성산읍 해맞이해안로 2768 나동,공공데이터포털,2018-02-23,
33.2516854,126.4230306,휴게음식점,안녕좋은하루카페,제주특별자치도 서귀포시 천제연로 172 (중문동),공공데이터포털,2018-02-23,
33.2835671,126.7051642,휴게음식점,영실감귤,제주특별자치도 서귀포시 남원읍 일주동로 7501 1층,공공데이터포털,2018-02-23,
33.2564949,126.3109017,휴게음식점,난드르커피,제주특별자치도 서귀포시 안덕면 덕수동로 27,공공데이터포털,2018-02-23,
33.2843492,126.353606,,씨유서귀평화로점,제주특별자치도 서귀포시 안덕면 한창로 273,공공데이터포털,2018-02-23,convenience
33.2434657,126.3861414,cafe,복고다방,제주특별자치도 서귀포시 하예로 1-3 2층 (하예동),공공데이터포털,2018-02-23,
33.2503809,126.5616535,휴게음식점,케이크를부탁해서귀포점,제주특별자치도 서귀포시 중앙로 66 1층 (서귀동),공공데이터포털,2018-02-23,
33.2488022,126.5642279,휴게음식점,커피에반하다서귀포올레시장점,제주특별자치도 서귀포시 중정로73번길 8 1층 (서귀동),공공데이터포털,2018-02-23,
33.2311659,126.2976414,휴게음식점,유루유루,제주특별자치도 서귀포시 안덕면 산방로 367-1 1층,공공데이터포털,2018-02-23,
33.2629138,126.383308,휴게음식점,소보리당로222,제주특별자치도 서귀포시 소보리당로 222 (상예동),공공데이터포털,2018-02-23,
33.2730578,126.6577999,휴게음식점,제주에오길,제주특별자치도 서귀포시 남원읍 위미해안로 18 1층,공공데이터포털,2018-02-23,
33.4408725,126.906148,휴게음식점,에듀카페더쌤,제주특별자치도 서귀포시 성산읍 난고로42번길 110 101동 1층,공공데이터포털,2018-02-23,
33.2253616,126.2541275,휴게음식점,촐래,제주특별자치도 서귀포시 대정읍 동일하모로 214,공공데이터포털,2018-02-23,
33.2448521,126.5718032,,씨유서귀문부로점,제주특별자치도 서귀포시 동홍서로 37 1층 (동홍동),공공데이터포털,2018-02-23,convenience
33.2528512,126.561642,휴게음식점,더리터중앙점,제주특별자치도 서귀포시 중앙로 92 1층 (서귀동),공공데이터포털,2018-02-23,
33.242165,126.560075,휴게음식점,커피에반하다제주강정점,제주특별자치도 서귀포시 대청로 29 1층 (강정동),공공데이터포털,2018-02-23,
33.2637541,126.6142563,,GS25 서귀효돈점,제주특별자치도 서귀포시 효돈로 144 2층 (신효동),공공데이터포털,2018-02-23,convenience
