위도,경도,name,ref,source:date
35.66442918,129.4500489,관성입구,2013,2020-07-27
35.66434246,129.4502486,관성입구,2014,2020-07-27
35.6637178,129.4502907,관성,2015,2020-07-27
35.66363999,129.4504301,관성,2016,2020-07-27
35.70029801,129.4704413,나아리,2026,2020-07-27
35.70028623,129.4705621,나아리,2027,2020-07-27
35.70292969,129.4706865,월성원자력홍보관,2028,2020-07-27
35.70290734,129.4705685,월성원자력홍보관,2029,2020-07-27
35.71820127,129.0547106,범곡,2059,2020-07-27
35.6664064,129.462586,수렴마을,2081,2020-07-27
35.66651152,129.4626224,수렴마을,2082,2020-07-27
35.67083839,129.4633503,수렴리,2095,2020-07-27
35.67114289,129.4629455,수렴리,2096,2020-07-27
35.67577293,129.4619022,하서,2100,2020-07-27
35.69683232,129.4729715,월성원자력사택,2126,2020-07-27
35.6966576,129.473198,월성원자력사택,2128,2020-07-27
35.69269554,129.4731916,읍천,2132,2020-07-27
35.6911448,129.4729183,"읍천,읍천항",2133,2020-07-27
35.65157809,129.4479533,지경마을,2149,2020-07-27
35.65138024,129.4485609,지경마을,2150,2020-07-27
35.68127656,129.4678612,진리,2151,2020-07-27
35.68134686,129.4675638,진리,2152,2020-07-27
35.67597205,129.4619821,하서,2163,2020-07-27
35.67403452,129.4619302,양남중학교,2183,2020-07-27
35.67405081,129.4620149,양남중학교,2184,2020-07-27
35.68016698,129.4641896,하서2리,2185,2020-07-27
35.68948944,129.4739955,읍천항,2186,2020-07-27
35.68021634,129.464089,하서2리,2187,2020-07-27
35.38359534,129.0504219,고려제강양산공장,2668,2020-07-27
35.34291126,129.0339437,양산종합운동장,2811,2020-07-27
35.70472134,129.058484,고강리,3018,2020-07-27
35.71833665,129.0547827,범곡,3018,2020-07-27
35.70376149,129.0587716,고강리,3019,2020-07-27
35.74124069,129.0611585,국민청소년수련관,3028,2020-07-27
35.74123115,129.0612647,국민청소년수련관,3029,2020-07-27
35.76235937,129.0689278,내일2리 소태,3032,2020-07-27
35.76251571,129.0690771,내일2리 소태,3033,2020-07-27
35.65432884,129.0646002,대현3리A지구 외항,3048,2020-07-27
35.65436272,129.0646977,대현3리A지구 외항,3049,2020-07-27
35.6640933,129.0589135,대현3리B지구,3050,2020-07-27
35.66376015,129.0591702,대현3리B지구,3051,2020-07-27
35.66942269,129.0553909,대현3리A지구,3052,2020-07-27
35.66935404,129.0553215,대현3리C지구,3053,2020-07-27
35.68788555,129.0523472,동골,3061,2020-07-27
35.68786894,129.0524627,동골,3062,2020-07-27
35.73541936,129.0592064,동편,3065,2020-07-27
35.73535981,129.0590446,동편,3066,2020-07-27
35.7573136,129.045425,산내정류소,3098,2020-07-27
35.75765549,129.0453626,산내정류소,3099,2020-07-27
35.75399459,129.0465179,산내초등학교,3100,2020-07-27
35.7539335,129.0464607,산내초등학교,3101,2020-07-27
35.68084197,129.0506101,삼창농원,3106,2020-07-27
35.68082959,129.0507145,삼창농원,3107,2020-07-27
35.72837215,129.0582565,서편,3123,2020-07-27
35.72838386,129.0580007,서편,3124,2020-07-27
35.69243327,129.0571451,윗동골,3194,2020-07-27
35.69231154,129.0573012,윗동골,3195,2020-07-27
35.67500624,129.051798,윗중리,3198,2020-07-27
35.67501566,129.0519059,윗중리,3199,2020-07-27
35.73728865,129.0600534,점태골,3208,2020-07-27
35.73724901,129.0601492,점태골,3209,2020-07-27
35.67336452,129.0525046,정원숯불 중리,3210,2020-07-27
35.6733493,129.0524062,정원숯불 중리,3211,2020-07-27
35.38374614,129.0499975,고려제강양산공장,3442,2020-07-27
35.49963292,129.0886132,세광병원,3666,2020-07-27
35.46185791,129.0809252,해운대청소년수련원,4354,2020-07-27
35.46199131,129.0807058,해운대청소년수련원,4355,2020-07-27
35.48009087,129.0888829,성천마을,4361,2020-07-27
35.483317,129.0901613,통도사자비도량,4362,2020-07-27
35.33851548,129.0265001,양산역,4414,2020-07-27
35.33836479,129.0267405,양산역,4415,2020-07-27
35.34390744,129.0352629,구터미널,4420,2020-07-27
35.34369303,129.0354113,구터미널,4421,2020-07-27
35.34212924,129.0333919,양산종합운동장,4422,2020-07-27
35.33954566,129.0316267,서이동,4424,2020-07-27
35.33919808,129.0314286,서이동,4425,2020-07-27
35.33739745,129.025616,양산역환승센터,4518,2020-07-27
35.33726994,129.0258422,양산역환승센터,4519,2020-07-27
35.33437148,129.0330496,신도시현대.청어람,4525,2020-07-27
35.33460322,129.0330779,신도시현대.청어람,4526,2020-07-27
35.38909824,129.0532127,대석휴먼시아,4541,2020-07-27
35.38885472,129.053637,대석휴먼시아,4542,2020-07-27
35.29335475,129.087314,희락원,4618,2020-07-27
35.29382955,129.0877244,희락원,4619,2020-07-27
35.29090895,129.0884704,대룡마을,4620,2020-07-27
35.29089702,129.0889509,대룡마을,4621,2020-07-27
35.2853795,129.0914606,직장마을,4622,2020-07-27
35.28541468,129.0908953,직장마을,4623,2020-07-27
35.27959635,129.092712,노포삼거리,4624,2020-07-27
35.27988576,129.0930938,노포삼거리,4625,2020-07-27
35.41455105,129.0634835,석계정류장,4725,2020-07-27
35.4146207,129.0632288,석계정류장,4726,2020-07-27
35.35344309,129.0383606,신기주공아파트,4832,2020-07-27
35.3603484,129.0410937,북정성원네오파트,4835,2020-07-27
35.35388757,129.0435729,베데스다병원,4836,2020-07-27
35.35314199,129.0377523,신기주공아파트,4867,2020-07-27
35.35404992,129.0431911,베데스다병원,4870,2020-07-27
35.36044124,129.0406552,북정성원네오파트,4871,2020-07-27
35.36519732,129.0424752,북정공단,4872,2020-07-27
35.50524626,129.0895473,방기,5067,2020-07-27
35.66724703,129.4577716,수렴,5406,2020-07-27
35.66703164,129.4572336,수렴,5407,2020-07-27
35.55321902,129.3435994,중앙여고,11101,2020-07-27
35.5533087,129.3436213,중앙여고,11102,2020-07-27
35.55444066,129.347783,강변이편한세상,11104,2020-07-27
35.55466941,129.346563,강변이편한세상,11105,2020-07-27
35.55293966,129.3474516,대산빌라,11106,2020-07-27
35.55287274,129.3473022,대산빌라,11107,2020-07-27
35.57241144,129.3393257,약사아이파크,11201,2020-07-27
35.57340562,129.3392538,약사아이파크,11202,2020-07-27
35.56976683,129.3401627,약사중학교,11203,2020-07-27
35.57033389,129.3402082,약사중학교,11204,2020-07-27
35.56868375,129.3428227,선우시장,11205,2020-07-27
35.56890697,129.3422645,선우시장,11206,2020-07-27
35.56866654,129.3414458,선우시장,11207,2020-07-27
35.57939889,129.3489688,한국폴리텍대학앞,11301,2020-07-27
35.57975509,129.3488391,한국폴리텍대학앞,11302,2020-07-27
35.57770245,129.3499393,산전교앞,11303,2020-07-27
35.57794531,129.3499497,산전교앞,11304,2020-07-27
35.57442417,129.3503997,산전마을,11305,2020-07-27
35.57442735,129.3505253,산전마을,11306,2020-07-27
35.57195771,129.3496292,현대골든아파트앞,11307,2020-07-27
35.57262531,129.3501983,현대골든아파트앞,11308,2020-07-27
35.58455332,129.3424915,외솔중학교,11400,2020-07-27
35.59632409,129.3452495,성혜마을,11401,2020-07-27
35.59641091,129.3452562,성혜마을,11402,2020-07-27
35.59603764,129.3387807,바깥시례,11403,2020-07-27
35.5958288,129.3388791,바깥시례,11404,2020-07-27
35.58301708,129.3469828,서동현대,11405,2020-07-27
35.58353934,129.3469719,서동현대,11406,2020-07-27
35.58464445,129.3422652,외솔중학교,11407,2020-07-27
35.58813473,129.3440216,골드클래스,11408,2020-07-27
35.58829133,129.3439035,골드클래스,11409,2020-07-27
35.58111857,129.3401155,KCC스위첸,11410,2020-07-27
35.58128142,129.3398892,KCC스위첸,11411,2020-07-27
35.57049371,129.3310639,중구청입구,11412,2020-07-27
35.57064471,129.3309298,중구청입구,11413,2020-07-27
35.56580337,129.3205599,안전보건공단 동서발전,11414,2020-07-27
35.56597471,129.3205525,안전보건공단 동서발전,11415,2020-07-27
35.5645911,129.313709,근로복지공단 산업인력공단,11416,2020-07-27
35.56477018,129.3137679,근로복지공단 산업인력공단,11417,2020-07-27
35.56372995,129.3088101,한국석유공사,11418,2020-07-27
35.5639475,129.3090948,한국석유공사,11419,2020-07-27
35.56265478,129.2814288,울산테크노파크,11420,2020-07-27
35.56266319,129.2802944,울산테크노파크,11421,2020-07-27
35.56215121,129.2935621,동원 로얄듀크2차,11422,2020-07-27
35.56231613,129.2936054,동원 로얄듀크2차,11423,2020-07-27
35.56216452,129.2903679,변전소,11424,2020-07-27
35.56327904,129.3004822,중부소방서,11425,2020-07-27
35.56298364,129.3004528,중부소방서,11426,2020-07-27
35.57418357,129.3351234,약사고등학교,11427,2020-07-27
35.57397344,129.3351559,약사고등학교,11428,2020-07-27
35.56247237,129.2900358,변전소,11429,2020-07-27
35.57730691,129.339255,약사제방전시관,11430,2020-07-27
35.57726042,129.3389227,약사제방전시관,11431,2020-07-27
35.56665214,129.3247103,한국전기안전공사,11432,2020-07-27
35.56680248,129.3246236,한국전기안전공사,11433,2020-07-27
35.56881409,129.3287454,도화골입구,11434,2020-07-27
35.56862614,129.3280584,도화골입구,11435,2020-07-27
35.56346137,129.3040885,"동원1차,에일린3차",11436,2020-07-27
35.5636245,129.3040394,"동원1차,에일린3차",11437,2020-07-27
35.57979251,129.3378051,약사골사거리,11438,2020-07-27
35.58030284,129.3376228,약사골사거리,11439,2020-07-27
35.58488984,129.3433737,외솔중학교,11450,2020-07-27
35.58429328,129.3442777,외솔중학교,11451,2020-07-27
35.55848198,129.3289798,복산성당앞,11501,2020-07-27
35.55862253,129.3286216,복산성당앞,11502,2020-07-27
35.55781913,129.3312257,남운학성타운앞,11503,2020-07-27
35.55791047,129.3313538,남운학성타운앞,11504,2020-07-27
35.56033316,129.33224,MBC앞,11506,2020-07-27
35.57982546,129.3164098,성안청구,11701,2020-07-27
35.58025652,129.3164029,성안청구아파트,11702,2020-07-27
35.57852314,129.318844,성안청구아파트입구,11704,2020-07-27
35.57860834,129.3186893,성안청구아파트입구,11705,2020-07-27
35.58063584,129.322982,성안파출소,11706,2020-07-27
35.5807809,129.3228773,성안파출소,11707,2020-07-27
35.58519491,129.3248953,내약마을,11708,2020-07-27
35.58486233,129.3236131,내약마을,11709,2020-07-27
35.58067759,129.3168369,성안청구아파트,11711,2020-07-27
35.57946166,129.3232384,KCC인테리어,11712,2020-07-27
35.57938178,129.3233746,KCC인테리어,11713,2020-07-27
35.57615264,129.3059498,성안금호아파트,11801,2020-07-27
35.57580894,129.3062288,성안금호아파트,11802,2020-07-27
35.57514547,129.3089015,국토정보공사,11803,2020-07-27
35.57535673,129.3088403,국토정보공사,11804,2020-07-27
35.57412667,129.3122554,백양사,11805,2020-07-27
35.5742986,129.3121451,백양사,11806,2020-07-27
35.57823249,129.3065687,함월구민운동장,11807,2020-07-27
35.57820908,129.3066149,함월구민운동장,11808,2020-07-27
35.58321309,129.3062212,돌담집,11809,2020-07-27
35.58329865,129.3062082,돌담집,11810,2020-07-27
35.53443844,129.326211,달동주공아파트,12101,2020-07-27
35.53439738,129.3268166,달동주공아파트,12102,2020-07-27
35.53362255,129.3242696,동평중학교,12103,2020-07-27
35.53368413,129.3243709,동평중학교,12104,2020-07-27
35.551931,129.2743811,삼호,12201,2020-07-27
35.55173038,129.2745077,삼호,12202,2020-07-27
35.5497402,129.2729883,삼호주공아파트앞,12203,2020-07-27
35.54993676,129.2733616,삼호주공아파트앞,12204,2020-07-27
35.56391081,129.2805754,테크노파크(종점),12301,2020-07-27
35.54017305,129.35327,태화강역(종점),12308,2020-07-27
35.53992879,129.3533469,태화강역,12309,2020-07-27
35.53890689,129.3523643,태화강역,12310,2020-07-27
35.5386578,129.3523561,태화강역,12312,2020-07-27
35.51960927,129.312573,우주그린아파트앞,12401,2020-07-27
35.51973647,129.312424,우주그린아파트앞,12402,2020-07-27
35.51901668,129.3142723,한실청실맨션앞,12404,2020-07-27
35.51626164,129.3161054,삼일여고앞,12405,2020-07-27
35.5163845,129.3164065,삼일여고앞,12406,2020-07-27
35.51611988,129.3163301,삼일여고앞,12407,2020-07-27
35.51756562,129.3157824,카프로사택,12408,2020-07-27
35.53670843,129.3032963,문수로2차아이파크,12411,2020-07-27
35.53781072,129.3032825,문수로2차아이파크,12413,2020-07-27
35.53784827,129.3010095,에쓰오일사택,12415,2020-07-27
35.53660956,129.3011112,넝쿨아파트,12417,2020-07-27
35.53883579,129.3027704,평화시장,12421,2020-07-27
35.52642,129.32358,홈플러스,12501,2020-07-27
35.52353049,129.3239504,동부3단지아파트,12503,2020-07-27
35.52364198,129.3240698,동부3단지아파트,12504,2020-07-27
35.52996342,129.324776,신정현대홈타운단지내,12505,2020-07-27
35.52810337,129.3257486,울산세관입구,12507,2020-07-27
35.53694278,129.2891755,천호탕앞,12605,2020-07-27
35.53695356,129.2892725,천호탕앞,12606,2020-07-27
35.53826702,129.2886704,서강파크앞,12607,2020-07-27
35.53843088,129.2885825,서강파크앞,12608,2020-07-27
35.54115736,129.293236,청암현대아파트,12611,2020-07-27
35.54127702,129.2933907,청암현대아파트,12612,2020-07-27
35.54095539,129.2947618,대륙2차현대아파트앞,12613,2020-07-27
35.54128832,129.2944872,대륙2차현대아파트앞,12614,2020-07-27
35.53365837,129.2568754,문수경기장,12701,2020-07-27
35.53425145,129.2572321,문수경기장,12704,2020-07-27
35.53211843,129.260879,문수수영장,12710,2020-07-27
35.53191781,129.2609464,문수수영장,12711,2020-07-27
35.53252434,129.2637721,울산야구장,12712,2020-07-27
35.53286365,129.2647766,울산야구장,12713,2020-07-27
35.4981401,129.4183381,울산과학대학앞,13201,2020-07-27
35.49839633,129.4184328,울산과학대학앞,13202,2020-07-27
35.49837827,129.4227633,화진중학교,13203,2020-07-27
35.49853032,129.4231362,화진중학교,13204,2020-07-27
35.49757661,129.4253095,일산해수욕장입구,13205,2020-07-27
35.4970895,129.4270572,일산해수욕장입구,13206,2020-07-27
35.49320036,129.4223208,화정엠코타운,13301,2020-07-27
35.49309726,129.4224075,화정엠코타운,13302,2020-07-27
35.48975824,129.4214934,신진파크,13303,2020-07-27
35.4905669,129.4215507,신진파크,13304,2020-07-27
35.51366126,129.4251799,한마음아파트,13401,2020-07-27
35.51364292,129.42527,한마음아파트,13402,2020-07-27
35.50346559,129.4221603,생활과학고등학교,13409,2020-07-27
35.50375666,129.4216844,생활과학고등학교,13410,2020-07-27
35.64801314,129.4224348,대안,14001,2020-07-27
35.64805565,129.4225048,대안,14002,2020-07-27
35.64674297,129.4279768,효원산업,14005,2020-07-27
35.64695173,129.4278971,효원산업,14006,2020-07-27
35.64014746,129.4346598,신명동,14007,2020-07-27
35.64023292,129.4346444,신명동,14008,2020-07-27
35.58883091,129.4298556,구남군부대앞,14009,2020-07-27
35.58881341,129.4297737,구남군부대앞,14010,2020-07-27
35.63971794,129.4397092,대안입구,14011,2020-07-27
35.63979402,129.4396664,대안입구,14012,2020-07-27
35.64105237,129.4323398,신명천,14013,2020-07-27
35.64104423,129.4325342,신명천,14014,2020-07-27
35.64107562,129.3575573,월드메르디앙2단지,14101,2020-07-27
35.64129028,129.3576381,월드메르디앙2단지,14102,2020-07-27
35.64050558,129.3586709,월드메르디앙1단지,14103,2020-07-27
35.64011874,129.359927,월드메르디앙1단지,14104,2020-07-27
35.63970552,129.360227,매곡,14105,2020-07-27
35.63990467,129.3602909,매곡종점,14106,2020-07-27
35.63936285,129.3636419,매곡,14107,2020-07-27
35.63935853,129.3635631,매곡,14108,2020-07-27
35.63985536,129.3618899,매곡,14110,2020-07-27
35.6363013,129.3633057,"매곡에일린의뜰1,2차",14111,2020-07-27
35.63703568,129.3635909,"매곡에일린의뜰1,2차",14112,2020-07-27
35.63886107,129.3622882,마동,14114,2020-07-27
35.63870316,129.3621276,마동,14115,2020-07-27
35.64575989,129.3257246,천곡,14201,2020-07-27
35.64578246,129.3257923,천곡,14202,2020-07-27
35.64273777,129.3293635,천곡회관앞,14203,2020-07-27
35.64277529,129.3294223,천곡회관앞,14204,2020-07-27
35.65073104,129.3191031,선창골못,14205,2020-07-27
35.65099956,129.3186661,선창골못,14206,2020-07-27
35.65300851,129.3142379,관문성입구,14207,2020-07-27
35.65304698,129.3142873,관문성입구,14208,2020-07-27
35.63425081,129.3297663,달천 아이파크1차,14209,2020-07-27
35.63292655,129.3280194,달천아이파크2차,14210,2020-07-27
35.63444417,129.3299395,달천 아이파크1차,14211,2020-07-27
35.63295463,129.3282561,달천아이파크2차,14212,2020-07-27
35.63729572,129.3289389,벽산블루밍,14213,2020-07-27
35.63701381,129.3286645,벽산블루밍,14214,2020-07-27
35.63520394,129.3283678,달천아이파크1차,14215,2020-07-27
35.63843438,129.3288823,대동아파트입구,14216,2020-07-27
35.63886356,129.3295198,대동아파트입구,14217,2020-07-27
35.63832314,129.3241137,우방아파트,14301,2020-07-27
35.63873787,129.3240911,우방아파트,14302,2020-07-27
35.6387595,129.3272743,대동아파트앞,14303,2020-07-27
35.63888451,129.3269366,대동아파트앞,14304,2020-07-27
35.6391097,129.3303868,천곡마을입구,14306,2020-07-27
35.63913474,129.3315126,천곡마을입구,14307,2020-07-27
35.63942339,129.3312099,천곡마을입구,14308,2020-07-27
35.63873914,129.3386624,일지리버아파트,14309,2020-07-27
35.63889732,129.3386946,일지리버아파트,14310,2020-07-27
35.63872296,129.3253395,황토방아파트,14311,2020-07-27
35.63884331,129.3254064,황토방아파트,14312,2020-07-27
35.62740181,129.3298082,상안중학교,14401,2020-07-27
35.62769652,129.3297862,상안중학교,14402,2020-07-27
35.62464598,129.3319852,양지마을,14403,2020-07-27
35.62514283,129.3319196,양지마을,14404,2020-07-27
35.61617857,129.3298929,동산,14405,2020-07-27
35.61630026,129.3299601,동산,14406,2020-07-27
35.61539509,129.3381702,샛터,14407,2020-07-27
35.61557803,129.3382152,샛터,14408,2020-07-27
35.63070574,129.3252752,그린카운티입구,14501,2020-07-27
35.6386699,129.3157944,달천농공단지내,14503,2020-07-27
35.63884306,129.3160435,달천농공단지내,14504,2020-07-27
35.61586757,129.3113632,대방마을입구,14505,2020-07-27
35.61585457,129.3114538,대방마을입구,14506,2020-07-27
35.63144213,129.3168647,달천농공단지입구,14507,2020-07-27
35.63126052,129.3167378,달천농공단지입구,14508,2020-07-27
35.63063455,129.315003,달천회관앞,14509,2020-07-27
35.63033868,129.3147685,달천회관앞,14510,2020-07-27
35.62659627,129.312481,진덕골,14511,2020-07-27
35.62645361,129.3123674,진덕골,14512,2020-07-27
35.61905881,129.3119697,대방마을,14513,2020-07-27
35.61957536,129.3121963,대방마을,14514,2020-07-27
35.61445347,129.3112756,숯고개,14515,2020-07-27
35.61445539,129.3113516,숯고개,14516,2020-07-27
35.61109453,129.3115872,가대입구,14517,2020-07-27
35.61100919,129.3116909,가대입구,14518,2020-07-27
35.6091044,129.3115528,가대구회관앞,14519,2020-07-27
35.60911576,129.3116648,가대구회관앞,14520,2020-07-27
35.60463582,129.3139837,가대회관앞,14521,2020-07-27
35.60478887,129.3139434,가대회관앞,14522,2020-07-27
35.5966271,129.3240334,시례동,14523,2020-07-27
35.59661058,129.324171,시례동,14524,2020-07-27
35.63129153,129.3280132,달천,14525,2020-07-27
35.63137568,129.3277826,달천,14526,2020-07-27
35.60619984,129.3122457,버덩길,14529,2020-07-27
35.60628739,129.3123199,버덩길,14530,2020-07-27
35.59756752,129.320662,주연동,14531,2020-07-27
35.5976253,129.3206403,주연동,14532,2020-07-27
35.58759622,129.3272592,황방산생태야영장,14533,2020-07-27
35.58767083,129.3275219,황방산생태야영장,14534,2020-07-27
35.62160774,129.3376247,상안마을,14602,2020-07-27
35.58089253,129.3655059,상방마을,14701,2020-07-27
35.58111242,129.3658904,상방마을,14702,2020-07-27
35.58024981,129.3691482,연암,14703,2020-07-27
35.5808479,129.3682912,연암,14704,2020-07-27
35.55744816,129.3567733,명촌동,14805,2020-07-27
35.55775563,129.3570042,명촌동,14806,2020-07-27
35.55348101,129.3545087,평창리비에르3차,14807,2020-07-27
35.55325482,129.3546716,평창리비에르3차,14808,2020-07-27
35.55970223,129.3571846,우정교회,14809,2020-07-27
35.57571761,129.3562639,롯데마트진장점,14816,2020-07-27
35.57581516,129.3565834,롯데마트진장점,14817,2020-07-27
35.57824319,129.3563955,농수산물유통센터정문,14818,2020-07-27
35.57365978,129.356652,울산우편집중국앞,14819,2020-07-27
35.57338828,129.3563813,울산우편집중국앞,14820,2020-07-27
35.57101162,129.3568318,차량등록사업소입구,14821,2020-07-27
35.57037734,129.3558079,차량등록사업소입구,14822,2020-07-27
35.57859742,129.3561134,농수산물유통센터정문,14824,2020-07-27
35.57023876,129.3576226,차량등록사업소입구,14826,2020-07-27
35.63967344,129.1175696,상차리,15101,2020-07-27
35.63976587,129.1178536,상차리,15102,2020-07-27
35.6364956,129.1223783,중차리,15103,2020-07-27
35.6365741,129.1223923,중차리,15104,2020-07-27
35.63228295,129.1269465,하차리,15105,2020-07-27
35.63234685,129.1270095,하차리,15106,2020-07-27
35.62393492,129.1367109,중리,15108,2020-07-27
35.6219681,129.1382449,중리마을,15109,2020-07-27
35.63557191,129.124461,중하차리,15110,2020-07-27
35.63555941,129.1243486,중하차리,15111,2020-07-27
35.61636069,129.1485111,송정,15113,2020-07-27
35.61640643,129.1486576,송정,15114,2020-07-27
35.61751223,129.1246514,갈전,15115,2020-07-27
35.61743272,129.1247786,갈전,15116,2020-07-27
35.61285562,129.1229273,다개,15117,2020-07-27
35.61341066,129.1229158,다개,15118,2020-07-27
35.6090689,129.1275173,평리,15119,2020-07-27
35.60907981,129.1276651,평리,15120,2020-07-27
35.60293181,129.1354473,개말,15121,2020-07-27
35.60300538,129.135557,개말,15122,2020-07-27
35.61105029,129.1239493,새말,15123,2020-07-27
35.61116549,129.1241203,새말,15124,2020-07-27
35.62112177,129.1243141,보림마을,15126,2020-07-27
35.62111862,129.1242288,보림마을,15127,2020-07-27
35.7138569,129.197825,봉계시장,15200,2020-07-27
35.71368677,129.1977218,봉계시장,15201,2020-07-27
35.71379903,129.1974782,봉계시장,15202,2020-07-27
35.70728651,129.2043749,계당,15203,2020-07-27
35.70756739,129.2044431,계당,15204,2020-07-27
35.70439859,129.2065097,두동농공단지,15205,2020-07-27
35.70443199,129.206599,두동농공단지,15206,2020-07-27
35.70135068,129.2076583,봉월초등학교,15207,2020-07-27
35.70136291,129.2077503,봉월초등학교,15208,2020-07-27
35.69862706,129.2089769,하월평,15209,2020-07-27
35.69855562,129.2091136,하월평,15210,2020-07-27
35.69531929,129.2121417,월평회관,15211,2020-07-27
35.69547384,129.2121407,월평회관,15212,2020-07-27
35.69363203,129.2140676,하월평입구,15213,2020-07-27
35.69351244,129.2143846,하월평입구,15214,2020-07-27
35.6887815,129.2218406,상월평입구,15215,2020-07-27
35.68893952,129.2216275,상월평입구,15216,2020-07-27
35.68846261,129.2246861,상월평,15217,2020-07-27
35.68853929,129.2246813,상월평,15218,2020-07-27
35.68700771,129.2273038,유지터,15219,2020-07-27
35.68706654,129.2274118,유지터,15220,2020-07-27
35.68351163,129.2260616,못안,15221,2020-07-27
35.6834866,129.226159,못안,15222,2020-07-27
35.66732424,129.2227968,당산,15223,2020-07-27
35.66731289,129.2229091,당산,15224,2020-07-27
35.66876848,129.2057839,당산중리,15225,2020-07-27
35.66868394,129.2056552,당산중리,15226,2020-07-27
35.66400015,129.1997844,주원마을,15227,2020-07-27
35.66406156,129.1998758,주원마을,15228,2020-07-27
35.66017769,129.2013376,두동대밀,15229,2020-07-27
35.66015856,129.2015632,두동대밀,15230,2020-07-27
35.65139078,129.2203198,두동양지,15231,2020-07-27
35.65142525,129.2202155,두동양지,15232,2020-07-27
35.6515549,129.2227857,당지,15233,2020-07-27
35.65164919,129.2230857,당지,15234,2020-07-27
35.65360687,129.2263288,화전교회,15235,2020-07-27
35.65366345,129.2267896,화전교회,15236,2020-07-27
35.65386016,129.2300257,박제상유적지,15237,2020-07-27
35.6539314,129.2302215,박제상유적지,15238,2020-07-27
35.65482297,129.23408,옷밭,15239,2020-07-27
35.65488847,129.2340948,옷밭,15240,2020-07-27
35.64692199,129.2329467,비조,15241,2020-07-27
35.64675665,129.2322103,비조,15242,2020-07-27
35.6449662,129.2282924,중비조,15243,2020-07-27
35.64514765,129.2288244,중비조,15244,2020-07-27
35.64813157,129.235478,칠조회관,15245,2020-07-27
35.64821331,129.2358074,칠조회관,15246,2020-07-27
35.6586107,129.0726808,옥천당,15248,2020-07-27
35.65859252,129.0724614,옥천당,15249,2020-07-27
35.62113844,129.2685401,반용회관,15251,2020-07-27
35.62106227,129.2686948,반용회관,15252,2020-07-27
35.61835947,129.2706273,홍상골,15253,2020-07-27
35.61820389,129.2708808,홍상골,15254,2020-07-27
35.61469594,129.2746509,척과초등학교,15255,2020-07-27
35.61477362,129.2746765,척과초등학교,15256,2020-07-27
35.61314856,129.2762326,농협척과지점,15257,2020-07-27
35.61313742,129.2763809,농협척과지점,15258,2020-07-27
35.63310063,129.2575082,반용종점,15260,2020-07-27
35.63299661,129.2575895,반용종점,15262,2020-07-27
35.62264595,129.2674098,붉은밭골,15264,2020-07-27
35.62398272,129.2659232,상동,15266,2020-07-27
35.66659938,129.0889745,대곡입구,15267,2020-07-27
35.66663936,129.0890571,대곡입구,15268,2020-07-27
35.62659621,129.2638097,뒷농골,15271,2020-07-27
35.62672519,129.2638172,뒷농골,15272,2020-07-27
35.62409841,129.2657609,상동,15273,2020-07-27
35.62256848,129.2673966,붉은밭골,15275,2020-07-27
35.63062088,129.2582367,약불암,15277,2020-07-27
35.63063903,129.2582896,약불암,15278,2020-07-27
35.69540318,129.0805263,태종,15281,2020-07-27
35.69551539,129.0805215,태종,15282,2020-07-27
35.677143,129.0853209,태종교,15283,2020-07-27
35.67718631,129.0854214,태종교,15284,2020-07-27
35.66991565,129.0858319,소호,15285,2020-07-27
35.66981258,129.0860992,소호,15286,2020-07-27
35.66408762,129.0903901,대곡,15288,2020-07-27
35.6690992,129.0789345,와리,15289,2020-07-27
35.66910734,129.079002,와리,15290,2020-07-27
35.64351513,129.2281087,이전마을,15292,2020-07-27
35.65169703,129.1652979,두동입구,15293,2020-07-27
35.65197132,129.1657594,두동입구,15294,2020-07-27
35.65348349,129.0650595,외양,15295,2020-07-27
35.65347197,129.0651617,외양,15296,2020-07-27
35.64749405,129.2092602,박제상유적지입구,15297,2020-07-27
35.64758815,129.2093712,박제상유적지입구,15298,2020-07-27
35.65287994,129.2248299,당지마을,15299,2020-07-27
35.65301909,129.224863,당지마을,15300,2020-07-27
35.69045993,129.0845716,청석들,15301,2020-07-27
35.6904739,129.0846106,청석들,15302,2020-07-27
35.6863707,129.0859394,큰못골,15303,2020-07-27
35.68637348,129.0860389,큰못골,15304,2020-07-27
35.59002839,129.0763573,거리동회관,15305,2020-07-27
35.59001719,129.0764502,거리동회관,15306,2020-07-27
35.58537368,129.0834113,오산회관,15307,2020-07-27
35.58544839,129.0833898,오산회관,15308,2020-07-27
35.5843855,129.0848141,꿈자람놀이터,15309,2020-07-27
35.58446589,129.084649,꿈자람놀이터,15310,2020-07-27
35.57969046,129.0850452,후리,15311,2020-07-27
35.5798119,129.0853508,후리,15312,2020-07-27
35.57382409,129.0842428,사광,15313,2020-07-27
35.57376763,129.0843684,사광,15314,2020-07-27
35.6433084,129.2280554,이전마을,15315,2020-07-27
35.57116587,129.0843578,명촌마을,15316,2020-07-27
35.56379197,129.0846603,모래골,15317,2020-07-27
35.56516639,129.0852582,모래골,15318,2020-07-27
35.55642479,129.0837871,등억삼거리,15319,2020-07-27
35.55634936,129.0837852,등억삼거리,15320,2020-07-27
35.55716742,129.0725844,간월입구,15321,2020-07-27
35.55715192,129.0728269,간월입구,15322,2020-07-27
35.56147463,129.0835912,광대고개,15323,2020-07-27
35.55485151,129.0747782,언양온천,15324,2020-07-27
35.56101209,129.0835011,광대고개,15325,2020-07-27
35.5548089,129.0766128,신불산온천,15326,2020-07-27
35.5524808,129.0940378,자수정동굴입구,15327,2020-07-27
35.55245144,129.0939643,자수정동굴입구,15328,2020-07-27
35.55604983,129.0866726,등억,15329,2020-07-27
35.5558406,129.0870004,등억,15330,2020-07-27
35.55073865,129.1024954,작천정,15331,2020-07-27
35.55084322,129.1023035,작천정,15332,2020-07-27
35.54887434,129.1155708,작천교,15333,2020-07-27
35.54902073,129.1146099,작천교,15334,2020-07-27
35.55701607,129.0782135,오리밭들길,15335,2020-07-27
35.55699285,129.0778457,오리밭들길,15336,2020-07-27
35.64058499,129.2279301,밤골마을,15337,2020-07-27
35.64059338,129.2280398,밤골마을,15338,2020-07-27
35.63825699,129.2243894,율림,15339,2020-07-27
35.57960076,129.0919937,지화,15341,2020-07-27
35.57988648,129.0917825,지화,15342,2020-07-27
35.57535627,129.0976616,용전사,15343,2020-07-27
35.57520835,129.0979282,용전사,15344,2020-07-27
35.57021793,129.1007524,천전회관,15345,2020-07-27
35.57039653,129.1006128,천전회관,15346,2020-07-27
35.56915183,129.1028109,천전,15347,2020-07-27
35.56925195,129.1029473,천전,15348,2020-07-27
35.58500522,129.0854628,꿈자람놀이터,15349,2020-07-27
35.58507627,129.0853146,꿈자람놀이터,15350,2020-07-27
35.58250288,129.0992127,향산초등학교,15351,2020-07-27
35.59073361,129.1063247,명동,15353,2020-07-27
35.59067093,129.1062039,명동,15354,2020-07-27
35.59280603,129.1086338,대리,15355,2020-07-27
35.59287693,129.108606,대리,15356,2020-07-27
35.5977211,129.1103295,신리,15357,2020-07-27
35.59788727,129.110303,신리,15358,2020-07-27
35.57115072,129.0844681,명촌마을,15359,2020-07-27
35.63757841,129.2242567,율림,15360,2020-07-27
35.59730235,129.0750889,텃걸마을입구,15361,2020-07-27
35.59737137,129.0752673,텃걸마을입구,15362,2020-07-27
35.60110681,129.0795114,찬물내기,15363,2020-07-27
35.60115802,129.0795775,찬물내기,15364,2020-07-27
35.67045408,129.2276984,문화촌입구,15365,2020-07-27
35.67054771,129.2278314,문화촌입구,15366,2020-07-27
35.60074141,129.0761443,양등마을,15367,2020-07-27
35.60066585,129.0765415,양등마을,15368,2020-07-27
35.55557242,129.069802,복합웰컴센터,15372,2020-07-27
35.55540854,129.0697315,복합웰컴센터,15373,2020-07-27
35.66594338,129.0778667,와리입구,15374,2020-07-27
35.66602885,129.0778548,와리입구,15375,2020-07-27
35.66849695,129.082645,새창골,15376,2020-07-27
35.66862554,129.0826266,새창골,15377,2020-07-27
35.69320194,129.0831125,태종잿골,15378,2020-07-27
35.69320767,129.0830368,태종잿골,15379,2020-07-27
35.59700772,129.1000803,울산과학고,15381,2020-07-27
35.59207985,129.0947747,도동마을,15383,2020-07-27
35.59058288,129.0919888,상북면주민센터,15385,2020-07-27
35.70991753,129.2028176,계당마을회관,15386,2020-07-27
35.70983662,129.2026966,계당마을회관,15387,2020-07-27
35.54919531,129.1053025,작천정다목정광장,15391,2020-07-27
35.54925997,129.1053655,작천정다목적광장,15392,2020-07-27
35.54059606,129.1326423,쌍수마을,15403,2020-07-27
35.5405392,129.132763,쌍수마을,15404,2020-07-27
35.5385406,129.1188834,웃마산,15405,2020-07-27
35.53386169,129.1142509,신복,15407,2020-07-27
35.53394005,129.114433,신복,15408,2020-07-27
35.53192756,129.1168109,신복회관,15409,2020-07-27
35.53192577,129.1169384,신복회관,15410,2020-07-27
35.54689784,129.1399579,금아드림팰리스,15411,2020-07-27
35.54705004,129.1403524,금아드림팰리스,15412,2020-07-27
35.55161809,129.1389054,울산역,15414,2020-07-27
35.55119682,129.1388802,울산역,15415,2020-07-27
35.55114524,129.138875,울산역,15416,2020-07-27
35.53835851,129.1259148,삼남신화,15417,2020-07-27
35.53828348,129.1259542,삼남신화,15418,2020-07-27
35.5605598,129.1259092,언양병원,15421,2020-07-27
35.55376983,129.1180324,울산산업고등학교,15425,2020-07-27
35.55380091,129.1182611,울산산업고등학교,15426,2020-07-27
35.55172615,129.1389094,울산역,15429,2020-07-27
35.56001592,129.1138043,교동주공아파트,15431,2020-07-27
35.55985076,129.1138782,교동주공아파트,15432,2020-07-27
35.56208642,129.1144591,계룡리슈빌,15434,2020-07-27
35.56053617,129.1159214,"교동주공,계룡리슈빌입구",15435,2020-07-27
35.56100505,129.1163194,"교동주공,계룡리슈빌입구",15436,2020-07-27
35.55649901,129.1128768,서부노인복지관,15437,2020-07-27
35.55659088,129.1130262,서부노인복지관,15438,2020-07-27
35.5573402,129.1151179,향교마을,15440,2020-07-27
35.55575185,129.1152134,향교마을,15441,2020-07-27
35.5633179,129.1169202,언삼교,15444,2020-07-27
35.56316815,129.1165964,언삼교,15445,2020-07-27
35.57582415,129.2486303,중촌경로당,15501,2020-07-27
35.57585274,129.2487113,중촌경로당,15502,2020-07-27
35.56978737,129.2279253,천상,15505,2020-07-27
35.56993772,129.2280746,천상,15506,2020-07-27
35.56765213,129.2315186,천상1교사거리,15513,2020-07-27
35.5675614,129.2316701,천상1교사거리,15514,2020-07-27
35.56379958,129.2218507,천상청구그린타운,15515,2020-07-27
35.56398426,129.2222197,천상청구그린타운,15516,2020-07-27
35.56214734,129.2219677,천상중학교,15517,2020-07-27
35.56211285,129.2221749,천상중학교,15518,2020-07-27
35.56595469,129.2226997,천상고등학교,15519,2020-07-27
35.56588502,129.2229111,천상고등학교,15520,2020-07-27
35.57048242,129.1206084,금성종합상사,15601,2020-07-27
35.57149508,129.1249378,경남아너스빌,15602,2020-07-27
35.57168646,129.1222371,동부주공아파트,15603,2020-07-27
35.57161472,129.1242646,경남아너스빌,15604,2020-07-27
35.57117221,129.1252005,경남아너스빌,15605,2020-07-27
35.57126825,129.1253753,경남아너스빌,15606,2020-07-27
35.58014297,129.1250608,직동교차로,15607,2020-07-27
35.58004097,129.1251115,직동교차로,15608,2020-07-27
35.56940857,129.125062,언양읍행정복지센터,15609,2020-07-27
35.56922233,129.1252205,언양읍행정복지센터,15610,2020-07-27
35.5664357,129.1248425,언양우체국,15611,2020-07-27
35.56551214,129.1249435,언양우체국,15612,2020-07-27
35.57022467,129.1224069,주공입구,15613,2020-07-27
35.57007133,129.1223994,주공입구,15614,2020-07-27
35.57182557,129.1223202,동부주공아파트,15616,2020-07-27
35.57048537,129.1204409,금성종합상사,15618,2020-07-27
35.58066222,129.1221519,양우내안애,15619,2020-07-27
35.58043045,129.1221728,양우내안에,15621,2020-07-27
35.46287972,129.2026385,서중회관,15701,2020-07-27
35.4628198,129.2027199,서중회관,15702,2020-07-27
35.45924906,129.1955556,춘해보건대학교,15703,2020-07-27
35.4591791,129.1956858,춘해보건대학교,15704,2020-07-27
35.45618123,129.1849126,검단마을,15705,2020-07-27
35.45612175,129.1848187,검단마을,15706,2020-07-27
35.45342488,129.1797625,괴천삼거리,15707,2020-07-27
35.45336178,129.1797978,괴천삼거리,15708,2020-07-27
35.45819878,129.1772738,검단초등학교앞,15709,2020-07-27
35.45824963,129.1771954,검단초등학교앞,15710,2020-07-27
35.46324301,129.1748088,암곡마을,15711,2020-07-27
35.4630138,129.1748395,암곡마을,15712,2020-07-27
35.4689486,129.1725273,신암마을회관앞,15713,2020-07-27
35.46892125,129.1724442,신암마을회관앞,15714,2020-07-27
35.45083599,129.1755567,괴천,15715,2020-07-27
35.45076805,129.1757267,괴천,15716,2020-07-27
35.44374816,129.1733183,관동,15717,2020-07-27
35.44394597,129.1733947,관동,15718,2020-07-27
35.44240193,129.1729424,연답,15719,2020-07-27
35.44245862,129.1730592,연답,15720,2020-07-27
35.43931335,129.1759064,한일금속,15721,2020-07-27
35.43906835,129.1759254,한일금속,15722,2020-07-27
35.43725371,129.1758033,와지,15723,2020-07-27
35.4734554,129.2215367,오복회관,15725,2020-07-27
35.47358076,129.2215798,오복회관,15726,2020-07-27
35.47049281,129.2347966,석천마을,15727,2020-07-27
35.47057543,129.2348121,석천마을,15728,2020-07-27
35.4697467,129.2396101,통천교앞,15729,2020-07-27
35.46981998,129.2396578,통천교앞,15730,2020-07-27
35.47379901,129.1754313,신암공단,15731,2020-07-27
35.47383698,129.1753624,신암공단,15732,2020-07-27
35.456108,129.1893385,새검단,15734,2020-07-27
35.46663,129.1729925,덕현마을,15735,2020-07-27
35.46713147,129.1727959,덕현마을,15736,2020-07-27
35.43473766,129.1767848,케이엠씨,15737,2020-07-27
35.43475876,129.1768638,케이엠씨,15738,2020-07-27
35.4822001,129.1764911,여래원,15740,2020-07-27
35.48226018,129.1765946,여래원,15741,2020-07-27
35.48926927,129.1781511,산현,15742,2020-07-27
35.48918573,129.1782198,산현,15743,2020-07-27
35.45758858,129.1926448,웅촌LH아파트,15744,2020-07-27
35.4576119,129.1925395,웅촌LH아파트,15745,2020-07-27
35.52839805,129.2591818,울산구치소,15803,2020-07-27
35.5283871,129.2599147,울산구치소,15804,2020-07-27
35.52693443,129.2601157,두현회관앞,15805,2020-07-27
35.52633031,129.2603771,두현회관앞,15806,2020-07-27
35.52298216,129.2624517,두현교앞,15807,2020-07-27
35.52299244,129.2625881,두현교앞,15808,2020-07-27
35.52248636,129.2662073,농업기술센터,15809,2020-07-27
35.52241701,129.2657498,농업기술센터,15810,2020-07-27
35.51657164,129.2713712,죽전마을,15811,2020-07-27
35.51641331,129.2716206,죽전마을,15812,2020-07-27
35.51372517,129.2721908,죽전교,15813,2020-07-27
35.51395704,129.2723549,죽전교,15814,2020-07-27
35.50996749,129.2757413,만주곡,15815,2020-07-27
35.51033439,129.2749894,만주곡,15816,2020-07-27
35.50861564,129.2791633,진곡윗동네,15817,2020-07-27
35.5088303,129.2787227,진곡윗동네,15818,2020-07-27
35.50600316,129.282795,진곡마을,15819,2020-07-27
35.50654624,129.2823718,진곡마을,15820,2020-07-27
35.50422992,129.2851606,진곡회관앞,15821,2020-07-27
35.50426001,129.2852964,진곡회관앞,15822,2020-07-27
35.50165669,129.286476,진곡교앞,15823,2020-07-27
35.5014022,129.286663,진곡교앞,15824,2020-07-27
35.49533706,129.2917908,개산교앞,15825,2020-07-27
35.49567708,129.2917981,개산교앞,15826,2020-07-27
35.49383691,129.293231,개산,15827,2020-07-27
35.49385232,129.2933565,개산,15828,2020-07-27
35.48987502,129.3018803,개산입구,15829,2020-07-27
35.48996336,129.3018878,개산입구,15830,2020-07-27
35.45013277,129.3458341,S-oil정문,15831,2020-07-27
35.45011306,129.3461066,S-oil정문,15832,2020-07-27
35.50908324,129.2649763,수문마을회관,15840,2020-07-27
35.50929388,129.2647356,수문마을회관,15841,2020-07-27
35.4323129,129.3512224,KG케미칼,15851,2020-07-27
35.4327474,129.3514905,KG케미칼,15852,2020-07-27
35.42881687,129.3512176,이진마을,15853,2020-07-27
35.42837454,129.335572,LG온산공장,15859,2020-07-27
35.42819354,129.3354258,LG온산공장,15860,2020-07-27
35.42841214,129.3288088,산성마을,15861,2020-07-27
35.42822824,129.3292804,산성마을,15862,2020-07-27
35.46107247,129.3438791,포스코플랜텍,15863,2020-07-27
35.46182073,129.3426993,포스코플랜텍,15864,2020-07-27
35.44257172,129.3503702,S-oil동문입구,15865,2020-07-27
35.44259239,129.3506392,S-oil동문입구,15866,2020-07-27
35.43764726,129.351219,이영산업기계,15867,2020-07-27
35.43742221,129.3514855,이영산업기계,15868,2020-07-27
35.42795534,129.3512234,이진마을입구,15869,2020-07-27
35.42850785,129.3514903,이진마을입구,15870,2020-07-27
35.42337408,129.351231,세진중공업,15871,2020-07-27
35.42299037,129.3515017,세진중공업,15872,2020-07-27
35.40482882,129.3472133,신한중공업,15873,2020-07-27
35.40593634,129.3489164,신한중공업,15874,2020-07-27
35.41076678,129.3468663,한국제지,15875,2020-07-27
35.41054227,129.3467737,한국제지,15876,2020-07-27
35.41785231,129.3382342,코스모화학,15877,2020-07-27
35.41743873,129.3380125,코스모화학,15878,2020-07-27
35.42247289,129.3382505,(주)일성,15879,2020-07-27
35.42262518,129.3380171,(주)일성,15880,2020-07-27
35.42836527,129.3373552,제일물산입구,15881,2020-07-27
35.42818209,129.3375085,제일물산입구,15882,2020-07-27
35.41110117,129.3512403,온산수질개선사업소,15883,2020-07-27
35.41108889,129.3515124,온산수질개선사업소,15884,2020-07-27
35.4110373,129.3417415,(주)티씨티,15885,2020-07-27
35.41088471,129.3416182,(주)티씨티,15886,2020-07-27
35.46165023,129.3347763,외황로입구,15887,2020-07-27
35.46187751,129.3347653,외황로입구,15888,2020-07-27
35.4346619,129.3273908,변전소삼거리,15889,2020-07-27
35.43482539,129.3275808,변전소삼거리,15890,2020-07-27
35.41785239,129.3512325,현대중공업온산공장,15891,2020-07-27
35.41752018,129.3515029,현대중공업온산공장,15892,2020-07-27
35.41400354,129.3512375,온산수질개선사업소정문,15893,2020-07-27
35.41416396,129.3515022,온산수질개선사업소정문,15894,2020-07-27
35.46660106,129.3380434,볼보트럭울산사업소,15895,2020-07-27
35.46184357,129.3389131,신일반산업단지입구,15896,2020-07-27
35.46162532,129.3389088,신일반산업단지입구,15897,2020-07-27
35.46669304,129.3381545,볼보트럭울산사업소,15898,2020-07-27
35.42389135,129.1966785,신화목재,15899,2020-07-27
35.42405239,129.1962106,신화목재,15900,2020-07-27
35.42836959,129.2092969,내광종점,15901,2020-07-27
35.42849496,129.20934,내광종점,15902,2020-07-27
35.43871232,129.2272178,내광마을,15903,2020-07-27
35.4386563,129.2263671,내광마을,15904,2020-07-27
35.43949861,129.2320408,중광마을입구,15905,2020-07-27
35.43960607,129.231858,중광마을입구,15906,2020-07-27
35.4379085,129.2369872,외광마을,15907,2020-07-27
35.43800127,129.2370382,외광마을,15908,2020-07-27
35.43658835,129.2444719,교동입구보건소앞,15909,2020-07-27
35.43646058,129.2460592,교동입구보건소앞,15910,2020-07-27
35.43239716,129.2536619,신기마을앞,15911,2020-07-27
35.43250498,129.2536737,신기마을앞,15912,2020-07-27
35.4269155,129.2653769,귀지마을회관,15913,2020-07-27
35.42696755,129.265484,귀지마을회관,15914,2020-07-27
35.42373574,129.2665691,귀지마을앞,15915,2020-07-27
35.42368346,129.2667141,귀지마을앞,15916,2020-07-27
35.41922323,129.2708884,아랫귀지,15917,2020-07-27
35.41899671,129.2711944,아랫귀지,15918,2020-07-27
35.42645503,129.2655354,중귀지,15919,2020-07-27
35.42648786,129.2656464,중귀지,15920,2020-07-27
35.42707516,129.1887814,용당마을,15921,2020-07-27
35.4271623,129.1888209,용당마을,15922,2020-07-27
35.4633477,129.339754,지후,15923,2020-07-27
35.46332813,129.3398675,지후,15924,2020-07-27
35.34810553,129.3233082,서생농협,15949,2020-07-27
35.34803314,129.3233643,서생농협,15950,2020-07-27
35.34706744,129.320664,신암입구,15951,2020-07-27
35.3469406,129.3205121,신암입구,15952,2020-07-27
35.3457554,129.3153859,신리,15953,2020-07-27
35.34563908,129.3166273,신리,15954,2020-07-27
35.34393212,129.3081072,신리입구,15955,2020-07-27
35.34371624,129.3076749,신리입구,15956,2020-07-27
35.34429921,129.3039619,서생교량,15957,2020-07-27
35.34423785,129.3039313,서생교량,15958,2020-07-27
35.34382442,129.2998284,연산마을,15959,2020-07-27
35.34375059,129.2997288,연산마을,15960,2020-07-27
35.34613944,129.2948533,서생역,15961,2020-07-27
35.34609414,129.29479,서생역,15962,2020-07-27
35.34360147,129.2917832,온곡2구,15963,2020-07-27
35.34347771,129.2918256,온곡2구,15964,2020-07-27
35.33929406,129.2855696,개천마을,15965,2020-07-27
35.33927526,129.2856706,개천마을,15966,2020-07-27
35.33235506,129.2829858,한빛1차아파트,15967,2020-07-27
35.33219992,129.2830231,한빛1차아파트,15968,2020-07-27
35.32943713,129.2817965,길천,15969,2020-07-27
35.32915858,129.2819935,길천,15970,2020-07-27
35.3452962,129.2965866,연산게이트볼장,15971,2020-07-27
35.34533508,129.2963509,연산게이트볼장,15972,2020-07-27
35.34712914,129.3195815,서생체육공원,15980,2020-07-27
35.34716041,129.319713,서생체육공원,15981,2020-07-27
35.58047781,129.3691833,연암,19007,2020-07-27
35.47811738,129.409749,꽃바위,19014,2020-07-27
35.47883279,129.4102792,꽃바위,19016,2020-07-27
35.56784244,129.1124403,삼성아파트,20101,2020-07-27
35.56783294,129.112633,삼성아파트,20102,2020-07-27
35.56693951,129.1118607,삼성아파트,20104,2020-07-27
35.56653372,129.1102435,혜원어린이집,20105,2020-07-27
35.56641273,129.1100627,혜원어린이집,20106,2020-07-27
35.63072708,129.3358948,쌍용아진그린타운3차,20201,2020-07-27
35.630266,129.3399863,쌍용아진그린타운2차,20203,2020-07-27
35.63086994,129.3386166,쌍용아진그린타운2차,20204,2020-07-27
35.62864594,129.342756,쌍용아진 그린타운1차,20205,2020-07-27
35.62933436,129.3412249,쌍용아진 그린타운1차,20206,2020-07-27
35.62911332,129.3452664,홈플러스북구점,20207,2020-07-27
35.62929389,129.3446262,홈플러스북구점,20208,2020-07-27
35.63451977,129.3349658,상안초등학교앞,20210,2020-07-27
35.63631397,129.3335919,가재골,20211,2020-07-27
35.63652979,129.3337006,가재골입구,20212,2020-07-27
35.63286237,129.3351251,상안초등학교,20213,2020-07-27
35.63334889,129.3346175,상안초등학교,20214,2020-07-27
35.63144274,129.3353226,쌍용아진그린타운4차,20216,2020-07-27
35.56994681,129.1276836,언양중학교,20301,2020-07-27
35.56984978,129.1265815,언양복지회관,20303,2020-07-27
35.56607663,129.1176028,울산축산회관,20310,2020-07-27
35.56612257,129.1174497,울산축산회관,20311,2020-07-27
35.57075446,129.2359632,현대2차아파트,20401,2020-07-27
35.57108,129.23301,구영리입구,20402,2020-07-27
35.57115246,129.2358729,현대2차아파트,20403,2020-07-27
35.57013663,129.2387002,일신아파트앞,20405,2020-07-27
35.57044659,129.2391031,일신아파트앞,20406,2020-07-27
35.56983856,129.241215,현대3차아파트,20407,2020-07-27
35.57030127,129.2407949,현대3차아파트앞,20408,2020-07-27
35.57256198,129.2410967,한신아파트앞,20410,2020-07-27
35.5683983,129.2438043,범서중학교앞,20411,2020-07-27
35.56871955,129.2438518,범서중학교앞,20412,2020-07-27
35.5667267,129.2494255,대리,20413,2020-07-27
35.5659312,129.2494419,대리,20414,2020-07-27
35.57314942,129.2419171,우미린2차 푸르지오2차,20415,2020-07-27
35.57426757,129.2416312,우미린2차 푸르지오2차,20416,2020-07-27
35.5716826,129.2439284,범서파출소,20417,2020-07-27
35.57182112,129.2439295,범서파출소,20418,2020-07-27
35.56974077,129.2482122,주공1단지,20419,2020-07-27
35.57003363,129.2477889,주공1단지,20420,2020-07-27
35.57528453,129.2410323,우미린1차아파트,20421,2020-07-27
35.57624471,129.2408219,우미린1차아파트,20422,2020-07-27
35.57748329,129.239977,굿모닝힐,20423,2020-07-27
35.57777825,129.2398033,굿모닝힐,20424,2020-07-27
35.56596644,129.2482264,대리,20425,2020-07-27
35.56613907,129.2482106,대리,20426,2020-07-27
35.57433945,129.2437623,울주군국민체육센터,20428,2020-07-27
35.56699864,129.2334391,구 점촌교입구,20430,2020-07-27
35.567178,129.2335672,구 점촌교입구,20431,2020-07-27
35.56857178,129.1148976,언양성당,20605,2020-07-27
35.56879564,129.1147344,언양성당,20606,2020-07-27
35.56717439,129.1173871,언양맨션,20607,2020-07-27
35.56729448,129.1173476,언양맨션,20608,2020-07-27
35.56399734,129.124818,언양알프스시장입구,20610,2020-07-27
35.56620873,129.1189952,언양전화국,20611,2020-07-27
35.56635806,129.1190226,언양전화국,20612,2020-07-27
35.56445339,129.1264318,시장입구,20614,2020-07-27
35.56500377,129.1220432,영화루사거리,20615,2020-07-27
35.56505149,129.1221989,영화루사거리,20616,2020-07-27
35.56510674,129.1239952,농협중앙회앞,20618,2020-07-27
35.56466006,129.1257446,시장입구,20619,2020-07-27
35.56380656,129.1272604,언양터미널,20623,2020-07-27
35.5637605,129.1269838,언양터미널,20624,2020-07-27
35.65292751,129.1686255,고속지하도,20701,2020-07-27
35.65303465,129.168768,고속지하도,20702,2020-07-27
35.6504737,129.1789548,망향동산앞,20703,2020-07-27
35.65073483,129.1786643,망향동산앞,20704,2020-07-27
35.65574627,129.1991745,대밀사거리,20709,2020-07-27
35.65587293,129.1991913,대밀사거리,20710,2020-07-27
35.65451898,129.2012752,두동면주민센터,20711,2020-07-27
35.6546527,129.2012456,두동면주민센터,20712,2020-07-27
35.65088639,129.2057726,홍골,20713,2020-07-27
35.65098828,129.2057883,홍골,20714,2020-07-27
35.64554998,129.2108558,아래하리,20715,2020-07-27
35.6457925,129.2107982,아래하리,20716,2020-07-27
35.64320862,129.2127166,하리,20717,2020-07-27
35.64338603,129.2127194,하리,20718,2020-07-27
35.64135375,129.2141477,장성,20719,2020-07-27
35.64138138,129.2142989,장성,20720,2020-07-27
35.63888707,129.2162632,상리,20721,2020-07-27
35.638875,129.2163854,상리,20722,2020-07-27
35.63629969,129.2175277,은편중리,20723,2020-07-27
35.63605316,129.2177651,은편중리,20724,2020-07-27
35.63406975,129.2188338,은편삼거리,20725,2020-07-27
35.63399262,129.2189484,은편삼거리,20726,2020-07-27
35.6313124,129.2194826,신기,20727,2020-07-27
35.63116843,129.2197061,신기,20728,2020-07-27
35.61799167,129.2264041,지지,20729,2020-07-27
35.61799133,129.2266286,지지,20730,2020-07-27
35.6006921,129.2333227,중리회관,20731,2020-07-27
35.60065991,129.2334183,중리회관,20732,2020-07-27
35.59771456,129.2334423,범서중리,20733,2020-07-27
35.59756263,129.2335934,범서중리,20734,2020-07-27
35.58921836,129.2309678,망성,20735,2020-07-27
35.58984918,129.2310914,망성,20736,2020-07-27
35.58631947,129.2309361,망성교,20737,2020-07-27
35.58624282,129.231071,망성교,20738,2020-07-27
35.58118537,129.2351153,선바위,20739,2020-07-27
35.58096213,129.2352852,선바위,20740,2020-07-27
35.57921805,129.234664,선바위입구,20741,2020-07-27
35.58548131,129.2254986,욱실,20742,2020-07-27
35.58522162,129.224628,욱실,20743,2020-07-27
35.5706788,129.232776,구영리입구,20744,2020-07-27
35.57738779,129.2155363,사일,20745,2020-07-27
35.57757623,129.2153255,사일,20746,2020-07-27
35.62595608,129.2208102,지지마을허고개,20747,2020-07-27
35.62596682,129.2209376,지지마을허고개,20748,2020-07-27
35.56174775,129.2224049,천상중학교,20801,2020-07-27
35.56181819,129.2223723,천상중학교,20802,2020-07-27
35.56204545,129.2237871,천상청구제네스아파트,20803,2020-07-27
35.5621231,129.2237904,천상청구제네스아파트,20804,2020-07-27
35.56251583,129.2260804,한라아파트,20805,2020-07-27
35.56260055,129.2259582,한라아파트,20806,2020-07-27
35.56320383,129.2293056,천상,20807,2020-07-27
35.56329577,129.2292242,천상,20808,2020-07-27
35.56376465,129.2318952,범서초등학교앞,20809,2020-07-27
35.56394679,129.2320455,범서초등학교앞,20810,2020-07-27
35.54891767,129.2778876,옥현초등학교앞,20901,2020-07-27
35.54955501,129.2785591,옥현초등학교앞,20902,2020-07-27
35.55570989,129.3110546,우정동행정복지센터입구,21001,2020-07-27
35.55586922,129.3114468,우정동행정복지센터입구,21002,2020-07-27
35.55579433,129.3160377,목살골목입구,21003,2020-07-27
35.55603119,129.3162788,목살골목입구,21004,2020-07-27
35.5568001,129.3195913,양사초등학교앞,21005,2020-07-27
35.55649962,129.3187468,양사초등학교앞,21006,2020-07-27
35.55744577,129.3228782,구울산초등학교앞,21007,2020-07-27
35.55744874,129.3223197,구울산초등학교앞,21008,2020-07-27
35.55870597,129.3258954,정림탑스빌,21009,2020-07-27
35.55893555,129.3264642,정림탑스빌,21010,2020-07-27
35.57929439,129.2652104,다운교,21101,2020-07-27
35.57922933,129.2652803,다운교,21102,2020-07-27
35.57595708,129.2658936,말미,21103,2020-07-27
35.57567824,129.2660584,말미,21104,2020-07-27
35.56792795,129.2662112,다운동아아파트앞,21105,2020-07-27
35.56852266,129.2665107,다운동아 아파트앞,21106,2020-07-27
35.56627214,129.265977,다운중고등학교,21107,2020-07-27
35.56572381,129.2661465,다운중고등학교,21108,2020-07-27
35.56280781,129.2671614,다운아파트,21109,2020-07-27
35.56307139,129.2671608,다운아파트,21110,2020-07-27
35.5605313,129.2699574,다운파출소,21111,2020-07-27
35.55817284,129.2724414,다운농협,21113,2020-07-27
35.5589774,129.2717,다운농협,21114,2020-07-27
35.5568252,129.2742151,다운동행정복지센터앞,21115,2020-07-27
35.55695855,129.2743589,다운동행정복지센터앞,21116,2020-07-27
35.56797656,129.266431,다운동아아파트앞,21118,2020-07-27
35.5612609,129.2775416,테크노파크,21119,2020-07-27
35.5613833,129.2775532,테크노파크,21120,2020-07-27
35.56834679,129.26939,다운중학교,21121,2020-07-27
35.5681669,129.2694924,다운중학교,21122,2020-07-27
35.56934851,129.2663165,다운동아 아파트,21124,2020-07-27
35.56863393,129.2707045,다운중학교,21125,2020-07-27
35.56857083,129.2704206,다운중학교,21126,2020-07-27
35.55504884,129.2781917,삼호교,21201,2020-07-27
35.55532503,129.2778451,삼호교,21202,2020-07-27
35.55356597,129.2844245,제일중학교앞,21203,2020-07-27
35.5536945,129.2846769,제일중학교앞,21204,2020-07-27
35.55320237,129.2903918,학성여중앞,21205,2020-07-27
35.55341041,129.2911625,학성여중앞,21206,2020-07-27
35.55224472,129.2954346,태화동,21207,2020-07-27
35.55213148,129.2963542,태화동,21208,2020-07-27
35.5524047,129.3009966,태화강국가정원 동강병원,21209,2020-07-27
35.55252253,129.3007777,태화강국가정원 동강병원,21210,2020-07-27
35.55393657,129.3071811,태화루,21211,2020-07-27
35.55403531,129.3074447,태화루,21212,2020-07-27
35.55503528,129.2860931,중앙고등학교,21213,2020-07-27
35.55105781,129.2997793,태화강국가정원 로터리,21214,2020-07-27
35.54953828,129.3073981,남구둔치주차장,21220,2020-07-27
35.55025649,129.2981565,만남의광장,21221,2020-07-27
35.55047678,129.2981006,만남의광장,21222,2020-07-27
35.54957433,129.2927734,전원타운,21223,2020-07-27
35.5497248,129.2928377,전원타운,21224,2020-07-27
35.55096257,129.2888438,둔치임시주차장,21225,2020-07-27
35.55108977,129.2889506,둔치임시주차장,21226,2020-07-27
35.55316092,129.2827972,먹거리단지,21227,2020-07-27
35.5532998,129.2828686,먹거리단지,21228,2020-07-27
35.55469715,129.2773436,중구둔치주차장,21229,2020-07-27
35.55488235,129.2774293,중구둔치주차장,21230,2020-07-27
35.64904879,129.2872529,"대신,녹동",21301,2020-07-27
35.6490732,129.2872801,"대신,녹동",21302,2020-07-27
35.6464775,129.2867626,천룡사,21303,2020-07-27
35.64650785,129.2867955,천룡사,21304,2020-07-27
35.64308871,129.2872234,대신회관,21305,2020-07-27
35.64241928,129.287986,대신회관,21306,2020-07-27
35.63722704,129.2878165,큰마을,21307,2020-07-27
35.63743388,129.2878613,큰마을,21308,2020-07-27
35.63443118,129.2875023,성산주유소,21309,2020-07-27
35.63459456,129.2875824,성산주유소,21310,2020-07-27
35.63014867,129.2881688,왕걸,21311,2020-07-27
35.63004646,129.2882605,왕걸,21312,2020-07-27
35.62539837,129.2863012,먹골,21313,2020-07-27
35.62562645,129.2864447,먹골,21314,2020-07-27
35.62054969,129.2858097,방아다리마을,21315,2020-07-27
35.62059514,129.286193,방아다리마을,21316,2020-07-27
35.61136956,129.2797328,구룡회관,21317,2020-07-27
35.61216883,129.2798349,구룡회관,21318,2020-07-27
35.60897744,129.2794763,구룡삼거리,21319,2020-07-27
35.60855955,129.2798082,구룡삼거리,21320,2020-07-27
35.60680414,129.2798022,새각단,21321,2020-07-27
35.60667016,129.280121,새각단,21322,2020-07-27
35.60439895,129.2801912,연동,21323,2020-07-27
35.60397547,129.2804309,연동,21324,2020-07-27
35.59869813,129.275121,신척과,21325,2020-07-27
35.59857583,129.2754043,신척과,21326,2020-07-27
35.59585771,129.27326,범동골,21327,2020-07-27
35.59663654,129.2747239,범동골,21328,2020-07-27
35.59110503,129.2708034,들꽃학습원,21329,2020-07-27
35.59110749,129.2708954,들꽃학습원,21330,2020-07-27
35.58746996,129.270144,개안사입구,21331,2020-07-27
35.58693848,129.2668378,내사,21333,2020-07-27
35.5868953,129.2669239,내사,21334,2020-07-27
35.58874769,129.2703227,들꽃학습원,21337,2020-07-27
35.58704279,129.2654414,내사회관,21339,2020-07-27
35.58697091,129.2654043,내사회관,21340,2020-07-27
35.55562965,129.323634,옥교동,21403,2020-07-27
35.55641723,129.3278355,구역전시장앞,21406,2020-07-27
35.55682544,129.3316537,"학성새벽시장, 세민병원",21407,2020-07-27
35.55417521,129.3177796,성남프라자,21409,2020-07-27
35.5530315,129.3097969,태화루사거리,21601,2020-07-27
35.55306557,129.3104246,태화루사거리,21602,2020-07-27
35.5529201,129.310314,태화루사거리,21603,2020-07-27
35.55299612,129.3103981,태화루사거리,21604,2020-07-27
35.55283827,129.3182264,성남동,21605,2020-07-27
35.55302175,129.3190518,성남동,21606,2020-07-27
35.552359,129.3207467,강변공영주차장,21609,2020-07-27
35.55202006,129.3276672,풍적맨션,21611,2020-07-27
35.5521621,129.3281411,풍적맨션,21612,2020-07-27
35.55154857,129.333128,학성배수장앞,21613,2020-07-27
35.55179813,129.3324074,학성배수장,21614,2020-07-27
35.5359811,129.295941,남산초등학교,21705,2020-07-27
35.53338667,129.294004,군청,21901,2020-07-27
35.53204786,129.2931887,울산대공원 정문 로터리,21902,2020-07-27
35.53187417,129.2937314,대공원,21903,2020-07-27
35.52940214,129.2994519,올림푸스아파트4동,21907,2020-07-27
35.53037969,129.303495,올림푸스아파트1동,21909,2020-07-27
35.53200629,129.3056977,중앙병원,21911,2020-07-27
35.55136639,129.2766546,무거복개천,22003,2020-07-27
35.55102444,129.2779282,무거복개천,22006,2020-07-27
35.5489616,129.2822044,정광사입구,22007,2020-07-27
35.54850235,129.2837508,정광사입구,22008,2020-07-27
35.54398802,129.2953754,태화강전망대,22009,2020-07-27
35.54414856,129.295363,태화강전망대,22010,2020-07-27
35.54634853,129.3035797,크로바아파트앞,22011,2020-07-27
35.54538746,129.3018532,크로바아파트앞,22012,2020-07-27
35.54908429,129.3061922,십리대밭교,22013,2020-07-27
35.54924984,129.3062409,십리대밭교,22014,2020-07-27
35.49458474,129.3057567,덕하역앞,22101,2020-07-27
35.49469111,129.3058788,덕하역앞,22102,2020-07-27
35.49210568,129.3050791,덕하시장앞,22103,2020-07-27
35.49164503,129.3050191,덕하시장앞,22104,2020-07-27
35.48497321,129.298396,덕정마을,22105,2020-07-27
35.48560223,129.2986164,덕정마을,22106,2020-07-27
35.47524915,129.2949463,"남구예비군훈련장,청량농협",22107,2020-07-27
35.47544979,129.2952571,"남구예비군훈련장,청량농협",22108,2020-07-27
35.44033,129.30767,동원아파트앞,22301,2020-07-27
35.44042876,129.3077682,동백아파트앞,22302,2020-07-27
35.43767876,129.3066327,울산기술공업고등학교앞,22303,2020-07-27
35.43778255,129.3068482,울산기술공업고등학교앞,22304,2020-07-27
35.4347568,129.3059132,덕신초등학교앞,22305,2020-07-27
35.43510442,129.3060657,덕신초등학교앞,22306,2020-07-27
35.43052009,129.3064681,장수나무,22307,2020-07-27
35.43060084,129.3066033,장수나무,22308,2020-07-27
35.42759138,129.3119323,무궁화아파트,22311,2020-07-27
35.42740555,129.311803,무궁화아파트,22312,2020-07-27
35.45402275,129.2913788,LG하우시스,22318,2020-07-27
35.45413033,129.2914899,LG하우시스,22319,2020-07-27
35.44345952,129.300966,오산마을입구,22320,2020-07-27
35.44387545,129.3003555,오산마을입구,22321,2020-07-27
35.44990717,129.29523,망양마을,22322,2020-07-27
35.45018507,129.2953089,망양마을,22323,2020-07-27
35.54587096,129.2639122,옥현주공아파트앞,22401,2020-07-27
35.54509843,129.2644145,옥현주공아파트앞,22402,2020-07-27
35.54168482,129.2643855,성광여고앞,22403,2020-07-27
35.54147023,129.2652976,성광여고앞,22404,2020-07-27
35.53043069,129.2686977,문수국제양궁장,22406,2020-07-27
35.52674316,129.2745088,갈티마을입구,22407,2020-07-27
35.52721395,129.2734349,갈티마을입구,22408,2020-07-27
35.52610387,129.2857897,울산대공원남문,22409,2020-07-27
35.52673188,129.2839984,울산대공원남문,22410,2020-07-27
35.52352858,129.2890292,갈현마을회관,22411,2020-07-27
35.52462487,129.288066,갈현마을회관,22412,2020-07-27
35.52032795,129.2953566,중간갈티마을입구,22413,2020-07-27
35.52044431,129.2956341,중간갈티마을입구,22414,2020-07-27
35.51811816,129.3011249,시립문수궁도장입구,22415,2020-07-27
35.51874678,129.3001746,시립문수궁도장입구,22416,2020-07-27
35.51348369,129.297415,산학융합지구캠퍼스,22417,2020-07-27
35.51300041,129.2958818,산학융합지구캠퍼스,22418,2020-07-27
35.51495243,129.2938637,대공원호반베르디움,22419,2020-07-27
35.51507377,129.2940681,대공원호반베르디움,22420,2020-07-27
35.5182004,129.3004848,시립문수궁도장입구,22421,2020-07-27
35.54653637,129.3072783,태화로터리,22501,2020-07-27
35.54626786,129.3074784,태화로터리,22502,2020-07-27
35.54176146,129.3059693,신정1동행정복지센터,22503,2020-07-27
35.54186292,129.3062712,신정1동행정복지센터,22504,2020-07-27
35.53742382,129.3055491,산업은행앞,22505,2020-07-27
35.53745386,129.3058205,산업은행앞,22506,2020-07-27
35.53388128,129.3067875,신정2동주민센터입구,22507,2020-07-27
35.53350664,129.3071968,신정2동주민센터입구,22508,2020-07-27
35.5496373,129.2674491,삼호중학교앞,22601,2020-07-27
35.54984576,129.266066,삼호중학교앞,22602,2020-07-27
35.54947942,129.2718357,삼호시영아파트,22603,2020-07-27
35.54977364,129.2698993,삼호시영아파트,22604,2020-07-27
35.54892,129.2745897,삼호주공아파트후문,22605,2020-07-27
35.54926616,129.2737355,삼호주공아파트후문,22606,2020-07-27
35.54738939,129.2788762,정광사약수터앞,22607,2020-07-27
35.54776982,129.2783815,정광사약수터앞,22608,2020-07-27
35.54621743,129.282855,정광사,22609,2020-07-27
35.54634455,129.2831604,정광사,22610,2020-07-27
35.54736634,129.2824426,정광사입구,22611,2020-07-27
35.5474633,129.2826871,정광사입구,22612,2020-07-27
35.56006288,129.315795,향교앞,22701,2020-07-27
35.55988435,129.3158251,향교앞,22702,2020-07-27
35.55741959,129.3103131,우정선경아파트앞,22703,2020-07-27
35.55817021,129.3123538,우정선경아파트,22704,2020-07-27
35.55437783,129.3089158,"태화시장,우정시장",22705,2020-07-27
35.55540387,129.3094828,"태화시장,우정시장",22706,2020-07-27
35.55571989,129.3092783,우정시장,22707,2020-07-27
35.54272899,129.3150271,울산공고,22801,2020-07-27
35.54289767,129.314945,울산공고,22802,2020-07-27
35.54397377,129.319752,신정5동주민센터앞,22805,2020-07-27
35.5448986,129.3233035,극동스타클래스,22807,2020-07-27
35.54590931,129.326888,남구문화원앞,22809,2020-07-27
35.5470559,129.3314586,삼산현대아파트앞,22811,2020-07-27
35.54720742,129.3318139,삼산현대아파트앞,22812,2020-07-27
35.54668877,129.3350642,남부소방서앞,22813,2020-07-27
35.54699536,129.3342234,남부소방서앞,22814,2020-07-27
35.54643782,129.3288091,남울산우체국,22815,2020-07-27
35.52670355,129.317224,중앙중학교앞,22901,2020-07-27
35.52654035,129.3174498,중앙중학교앞,22902,2020-07-27
35.52233555,129.3189483,롯데캐슬 삼거리,22903,2020-07-27
35.52222981,129.3191547,롯데캐슬 삼거리,22904,2020-07-27
35.52413373,129.3182439,수암동주민센터,22905,2020-07-27
35.52417714,129.3183973,수암동주민센터,22906,2020-07-27
35.53563352,129.3312661,달동사거리,23002,2020-07-27
35.53621412,129.3353795,숭의빌딩,23003,2020-07-27
35.53634222,129.3350577,숭의빌딩,23004,2020-07-27
35.54803814,129.3149065,센트럴하이츠,23102,2020-07-27
35.54789168,129.3149671,센트럴하이츠,23104,2020-07-27
35.54725725,129.313046,중앙공원,23107,2020-07-27
35.54728904,129.3131503,중앙공원,23108,2020-07-27
35.53601769,129.3421599,공구월드앞,23201,2020-07-27
35.53627558,129.3423681,공구월드앞,23202,2020-07-27
35.53603451,129.3463707,울산세무서,23203,2020-07-27
35.53628736,129.3463422,울산세무서,23204,2020-07-27
35.39245805,129.3322315,서생교,23301,2020-07-27
35.39208036,129.3330607,서생교,23302,2020-07-27
35.38953017,129.3342999,화정마을,23303,2020-07-27
35.38911136,129.3345112,화정마을,23304,2020-07-27
35.38661902,129.3380565,서생포왜성앞,23305,2020-07-27
35.38670788,129.3380604,서생포왜성앞,23306,2020-07-27
35.38391206,129.3411802,진하,23307,2020-07-27
35.38389175,129.3414492,진하,23308,2020-07-27
35.37319931,129.3464459,솔개마을,23309,2020-07-27
35.37326521,129.3465066,솔개마을,23310,2020-07-27
35.36572817,129.3529089,송정마을,23311,2020-07-27
35.3662719,129.3532385,송정마을,23312,2020-07-27
35.35942982,129.3552934,간절곶,23313,2020-07-27
35.35978238,129.3552696,간절곶,23314,2020-07-27
35.35792031,129.3531818,평동,23315,2020-07-27
35.35774135,129.3526378,평동,23316,2020-07-27
35.3562291,129.3471035,산자골,23317,2020-07-27
35.35603789,129.3462989,산자골,23318,2020-07-27
35.35764073,129.3411634,나사리,23319,2020-07-27
35.35728815,129.33968,나사마을,23320,2020-07-27
35.35697631,129.3347281,나사리입구,23321,2020-07-27
35.35705252,129.3355635,나사리입구,23322,2020-07-27
35.35073682,129.3294578,서생중학교,23323,2020-07-27
35.35129617,129.3304156,서생중학교,23324,2020-07-27
35.34957828,129.3250381,서생면주민센터입구,23325,2020-07-27
35.34964964,129.3251978,서생면주민센터입구,23326,2020-07-27
35.370464,129.3529604,대성농수산,23327,2020-07-27
35.37050877,129.3530332,대성농수산,23328,2020-07-27
35.35653918,129.3445097,해연사,23329,2020-07-27
35.3637595,129.3565165,간절곶공영주차장,23331,2020-07-27
35.36390421,129.3565595,간절곶공영주차장,23332,2020-07-27
35.35677422,129.343207,나사리,23334,2020-07-27
35.45311227,129.2971109,망양이편한세상,23335,2020-07-27
35.45330365,129.2970337,망양이편한세상,23336,2020-07-27
35.53238641,129.3178298,이진빌라,23401,2020-07-27
35.53246924,129.3167149,이진빌라,23402,2020-07-27
35.53204653,129.3231276,신정현대홈타운앞,23405,2020-07-27
35.53179001,129.323721,신정현대홈타운앞,23406,2020-07-27
35.53049428,129.3274478,동평교회,23407,2020-07-27
35.51789051,129.3407513,변전소,23501,2020-07-27
35.51790484,129.3410298,변전소,23502,2020-07-27
35.51004845,129.344225,SK정문앞,23503,2020-07-27
35.50995668,129.344484,SK정문앞,23504,2020-07-27
35.50258697,129.3410071,SK후문앞,23505,2020-07-27
35.50501005,129.3422837,SK후문앞,23506,2020-07-27
35.50055151,129.3406399,부곡동,23508,2020-07-27
35.49981159,129.340019,석유화학단지입구,23509,2020-07-27
35.4984662,129.3395036,석유화학단지입구,23510,2020-07-27
35.4860675,129.3504928,포스코플랜텍앞,23511,2020-07-27
35.4860415,129.3507867,포스코플랜텍앞,23512,2020-07-27
35.4814809,129.3472848,신한비료앞,23513,2020-07-27
35.4821165,129.3479616,신한비료앞,23514,2020-07-27
35.47673561,129.346362,개운포성지입구,23515,2020-07-27
35.4772596,129.3464653,개운포성지입구,23516,2020-07-27
35.46841177,129.3520095,처용암입구,23517,2020-07-27
35.46935545,129.350236,처용암입구,23518,2020-07-27
35.46909067,129.3595761,SK케미칼앞,23519,2020-07-27
35.4692567,129.3582879,SK케미칼앞,23520,2020-07-27
35.46941517,129.3634585,황암마을,23521,2020-07-27
35.46982272,129.3723766,용연,23523,2020-07-27
35.46869188,129.3555249,이지정문,23525,2020-07-27
35.46898544,129.3559567,이지정문,23526,2020-07-27
35.47328088,129.3776,용연한국가스공사,23527,2020-07-27
35.47313423,129.3775428,용연한국가스공사,23528,2020-07-27
35.48014592,129.379296,울산화력본부앞,23529,2020-07-27
35.48018896,129.3792152,울산화력본부앞,23530,2020-07-27
35.49368153,129.381035,SK에너지앞,23531,2020-07-27
35.49363609,129.3809632,SK에너지앞,23532,2020-07-27
35.495433,129.376111,듀퐁앞,23533,2020-07-27
35.49533109,129.376196,듀퐁앞,23534,2020-07-27
35.49247846,129.3712549,한진중공업앞,23535,2020-07-27
35.49230101,129.371321,한진중공업앞,23536,2020-07-27
35.4922641,129.36184,SKC앞,23537,2020-07-27
35.49218554,129.3618025,SKC앞,23538,2020-07-27
35.50061805,129.3446609,외국인투자기업단지입구,23539,2020-07-27
35.50058373,129.3444561,외국인투자기업단지입구,23540,2020-07-27
35.46411367,129.3693479,울산국제물류센터,23542,2020-07-27
35.49047836,129.3576849,FCC삼거리,23543,2020-07-27
35.49048849,129.3575354,FCC삼거리,23544,2020-07-27
35.50260505,129.3423344,SK후문앞,23546,2020-07-27
35.46970664,129.3667246,현대중공업용연공장,23547,2020-07-27
35.53347655,129.3345506,우방아파트앞,23601,2020-07-27
35.53375335,129.3346132,우방아파트앞,23602,2020-07-27
35.53323204,129.339971,태화중학교,23603,2020-07-27
35.53350384,129.3400164,태화중학교,23604,2020-07-27
35.53363541,129.3440488,현대문화아파트1차,23605,2020-07-27
35.53245338,129.3311786,광로교,23607,2020-07-27
35.53270982,129.3310151,광로교,23608,2020-07-27
35.49957683,129.0887876,세광병원,23609,2020-07-27
35.50064907,129.0886875,신흥마을입구,23610,2020-07-27
35.54554122,129.3356015,남구보건소앞,23701,2020-07-27
35.54569243,129.3358404,남구보건소앞,23702,2020-07-27
35.54049386,129.3355676,현대백화점정문,23704,2020-07-27
35.54058394,129.3353271,현대백화점,23705,2020-07-27
35.52092163,129.3151065,해양경비안전서,23805,2020-07-27
35.52109549,129.3147158,울산해양경찰서,23806,2020-07-27
35.52126434,129.3171733,롯데캐슬,23807,2020-07-27
35.52145585,129.3170651,롯데캐슬,23808,2020-07-27
35.52099142,129.3153019,울산해양경찰서,23809,2020-07-27
35.57674,129.3173095,백양초등학교,23901,2020-07-27
35.5764893,129.3173436,백양초등학교,23902,2020-07-27
35.57322206,129.314893,경찰청,23903,2020-07-27
35.57322712,129.3150986,경찰청,23904,2020-07-27
35.56817504,129.3153019,궁도장,23905,2020-07-27
35.56832223,129.3154964,궁도장,23906,2020-07-27
35.56266495,129.3187052,성안입구,23907,2020-07-27
35.56235027,129.3191372,성안입구,23908,2020-07-27
35.57410088,129.3154642,경찰청,23909,2020-07-27
35.57450362,129.3159583,경찰청,23910,2020-07-27
35.56498695,129.3177934,성안고가하부도로,23911,2020-07-27
35.56573086,129.3177652,성안고가하부도로,23912,2020-07-27
35.52339446,129.3376949,남구국민체육센터,24001,2020-07-27
35.52351381,129.3372338,남구국민체육센터,24002,2020-07-27
35.52405313,129.3412858,신화마을,24003,2020-07-27
35.52419497,129.3409394,신화마을,24004,2020-07-27
35.52544795,129.3507824,주식회사조비앞,24005,2020-07-27
35.52560252,129.3508663,주식회사조비앞,24006,2020-07-27
35.52847813,129.3557549,롯데정밀화학,24007,2020-07-27
35.52864404,129.3556798,롯데정밀화학,24008,2020-07-27
35.52409458,129.370572,쌍용양회앞,24009,2020-07-27
35.52403982,129.3707909,쌍용양회앞,24010,2020-07-27
35.52072645,129.3734688,"제3,4부두입구",24011,2020-07-27
35.52094645,129.3734067,"제3,4부두입구",24012,2020-07-27
35.51912655,129.3728461,제5부두,24013,2020-07-27
35.51921787,129.3731346,제5부두,24014,2020-07-27
35.52490682,129.4010898,성내,24201,2020-07-27
35.52391917,129.3992633,성내,24202,2020-07-27
35.53002072,129.4092194,정수장,24203,2020-07-27
35.53038114,129.4093103,정수장,24204,2020-07-27
35.53757524,129.4191831,남목고등학교,24205,2020-07-27
35.53730278,129.418572,남목고등학교.비석골,24206,2020-07-27
35.5391062,129.4207982,남목1동행정복지센터,24208,2020-07-27
35.53932548,129.4255749,남목1동,24209,2020-07-27
35.53952615,129.4257231,남목1동,24210,2020-07-27
35.53561906,129.4300818,현대청운고앞,24211,2020-07-27
35.53585991,129.4302157,현대청운고앞,24212,2020-07-27
35.53315765,129.4321277,현대중공업미포문앞,24213,2020-07-27
35.53294973,129.432637,현대중공업미포문앞,24214,2020-07-27
35.52884851,129.4329805,서부패밀리 아파트,24215,2020-07-27
35.52793333,129.433302,서부패밀리 아파트,24216,2020-07-27
35.52446545,129.4328884,남목2동,24217,2020-07-27
35.52436731,129.4331544,남목2동,24218,2020-07-27
35.52259503,129.4326158,현대중공업 울산대학병원,24219,2020-07-27
35.52107585,129.4321038,현대중공업 울산대학병원,24220,2020-07-27
35.51730092,129.4319,전하1동주민센터,24221,2020-07-27
35.51785655,129.4319377,전하1동주민센터,24222,2020-07-27
35.51511153,129.4322545,전하시장앞,24223,2020-07-27
35.51593469,129.432486,전하시장앞,24224,2020-07-27
35.51162475,129.43055,동울산우체국,24225,2020-07-27
35.51160565,129.4307712,동울산우체국,24226,2020-07-27
35.50781424,129.4299606,동부경찰서,24227,2020-07-27
35.50797166,129.4302088,동부경찰서,24228,2020-07-27
35.5029945,129.4291149,현대중공업일산문,24229,2020-07-27
35.50518078,129.4297793,현대중공업일산문,24230,2020-07-27
35.50000017,129.4283629,번덕마을,24231,2020-07-27
35.50149907,129.4289678,번덕마을,24232,2020-07-27
35.49622157,129.4273823,일산해수욕장,24233,2020-07-27
35.49774379,129.4280135,일산해수욕장,24234,2020-07-27
35.49193024,129.4262814,대왕암공원입구,24235,2020-07-27
35.4915373,129.4264076,대왕암공원입구,24236,2020-07-27
35.48900444,129.4239894,화진맨션,24237,2020-07-27
35.48962981,129.4250188,화진맨션,24238,2020-07-27
35.4878159,129.4216152,서남구수협,24239,2020-07-27
35.48756363,129.4214167,서남구수협,24240,2020-07-27
35.48727077,129.418311,문재사거리,24241,2020-07-27
35.48709528,129.4186056,문재사거리,24242,2020-07-27
35.53942251,129.4248293,남목1동,24243,2020-07-27
35.48739125,129.4167156,문현관앞,24244,2020-07-27
35.49598441,129.4078595,미포해양개발앞,24245,2020-07-27
35.49410882,129.4086386,현대미포조선동문,24246,2020-07-27
35.50749703,129.4025172,현대미포조선,24247,2020-07-27
35.50731807,129.4020556,현대미포조선,24248,2020-07-27
35.51882729,129.3979877,KCC울산공장,24249,2020-07-27
35.51872328,129.3977711,KCC울산공장,24250,2020-07-27
35.52446106,129.3910883,자동차선적장2,24253,2020-07-27
35.52358671,129.3914777,자동차선적장1,24254,2020-07-27
35.53324961,129.4132377,동구노인요양원,24255,2020-07-27
35.52114442,129.4318309,현대중공업 울산대학병원,24256,2020-07-27
35.53339686,129.4130297,동구노인요양원,24258,2020-07-27
35.55645653,129.3378584,학성공원,24301,2020-07-27
35.55599389,129.3375541,학성공원,24302,2020-07-27
35.55250827,129.3360308,옥성초등학교앞,24303,2020-07-27
35.55361134,129.3363509,옥성초등학교앞,24304,2020-07-27
35.4845872,129.1228051,교육원입구,24380,2020-07-27
35.48437576,129.1218906,교육원입구,24381,2020-07-27
35.4794489,129.1318859,보삼마을,24382,2020-07-27
35.4794621,129.1317761,보삼마을,24383,2020-07-27
35.46972223,129.1359163,하늘공원,24385,2020-07-27
35.46965159,129.136059,하늘공원,24386,2020-07-27
35.49738431,129.0967721,현대자동차출고장앞,24401,2020-07-27
35.49716441,129.0955282,현대자동차출고장앞,24402,2020-07-27
35.49886905,129.1040645,암리,24403,2020-07-27
35.4989424,129.1041437,암리,24404,2020-07-27
35.49869454,129.1130791,조일,24405,2020-07-27
35.49853111,129.1128131,조일,24406,2020-07-27
35.50032149,129.1145691,조일입구,24407,2020-07-27
35.50044206,129.1146306,조일입구,24408,2020-07-27
35.49827155,129.1231906,지랑,24409,2020-07-27
35.49848893,129.1242409,지랑,24410,2020-07-27
35.50355737,129.1316649,삼동면민운동장,24411,2020-07-27
35.50365509,129.1317096,삼동면민운동장,24412,2020-07-27
35.50655146,129.1377247,내외양,24413,2020-07-27
35.50659002,129.1375954,내외양,24414,2020-07-27
35.50929352,129.1434688,보은,24415,2020-07-27
35.5093709,129.1434682,보은,24416,2020-07-27
35.51183408,129.1495747,금곡,24417,2020-07-27
35.51185436,129.1494105,금곡,24418,2020-07-27
35.51418939,129.1556951,왕방,24419,2020-07-27
35.51423824,129.1556343,왕방,24420,2020-07-27
35.5207877,129.1568265,사촌,24421,2020-07-27
35.52080825,129.1567485,사촌,24422,2020-07-27
35.52106833,129.1563886,삼동면주민센터,24423,2020-07-27
35.52101899,129.1563509,삼동면주민센터,24424,2020-07-27
35.52371102,129.1584664,삼동초등학교,24425,2020-07-27
35.52342098,129.1581321,삼동초등학교,24426,2020-07-27
35.52354511,129.1622424,하잠,24427,2020-07-27
35.52360842,129.1622794,하잠,24428,2020-07-27
35.51502954,129.1661921,출강,24429,2020-07-27
35.51508655,129.1662378,출강,24430,2020-07-27
35.52042051,129.1791735,하작,24431,2020-07-27
35.5205119,129.1793774,하작,24432,2020-07-27
35.51618572,129.1848229,상작,24433,2020-07-27
35.51624562,129.1848741,상작,24434,2020-07-27
35.51246007,129.1859684,작동마을,24435,2020-07-27
35.51251241,129.1860387,작동마을,24436,2020-07-27
35.50055979,129.2033861,부탕골,24437,2020-07-27
35.50072334,129.2032973,부탕골,24438,2020-07-27
35.49241946,129.2112678,신토불이,24439,2020-07-27
35.49245255,129.2113403,신토불이,24440,2020-07-27
35.4901382,129.2124195,한솔그린빌,24441,2020-07-27
35.49050731,129.2123461,한솔그린빌,24442,2020-07-27
35.48779244,129.2139388,대복구판장,24443,2020-07-27
35.48792347,129.2139184,대복구판장,24444,2020-07-27
35.48477674,129.2168227,대복입구,24445,2020-07-27
35.48495338,129.216555,대복입구,24446,2020-07-27
35.49786377,129.1111435,하늘공원입구,24447,2020-07-27
35.49793855,129.1112474,하늘공원입구,24448,2020-07-27
35.50783726,129.1974331,당고개,24449,2020-07-27
35.50801511,129.1972922,당고개,24450,2020-07-27
35.50768109,129.1684463,출강마을회관,24451,2020-07-27
35.50773847,129.1683849,출강마을회관,24452,2020-07-27
35.50814759,129.1494843,금곡마을회관,24461,2020-07-27
35.50801066,129.1495761,금곡마을회관,24462,2020-07-27
35.50263329,129.140813,금곡경로당,24463,2020-07-27
35.50226917,129.1408295,금곡경로당,24464,2020-07-27
35.50041371,129.1405135,중금곡,24465,2020-07-27
35.50039211,129.1405975,중금곡,24466,2020-07-27
35.54138576,129.3443414,한국산업단지공단,24504,2020-07-27
35.49559591,129.238008,쌍용하나빌리지,24601,2020-07-27
35.49585923,129.2377635,쌍용하나빌리지,24602,2020-07-27
35.49285563,129.2383752,쌍용하나빌리지,24604,2020-07-27
35.49426343,129.2392216,쌍용하나빌리지206,24605,2020-07-27
35.49988543,129.2417377,반정마을,24607,2020-07-27
35.49997372,129.2417745,반정마을,24608,2020-07-27
35.49562695,129.258091,상정마을,24609,2020-07-27
35.49571129,129.2580382,상정마을,24610,2020-07-27
35.49418778,129.2664371,상정마을회관앞,24611,2020-07-27
35.49427333,129.2662605,상정마을회관앞,24612,2020-07-27
35.48871752,129.281674,화정마을회관앞,24613,2020-07-27
35.48931575,129.2810712,화정마을회관앞,24614,2020-07-27
35.48724144,129.2835604,동지마을,24615,2020-07-27
35.48729962,129.2836508,동지마을,24616,2020-07-27
35.48576255,129.2890899,중리입구,24617,2020-07-27
35.48592716,129.2891462,중리입구,24618,2020-07-27
35.48752977,129.2929158,화정마을입구,24619,2020-07-27
35.4876114,129.2928879,화정마을입구,24620,2020-07-27
35.4877693,129.2952198,유림아파트앞,24621,2020-07-27
35.4877041,129.2961723,유림아파트앞,24622,2020-07-27
35.48744784,129.2983332,청량초등학교앞,24623,2020-07-27
35.48756951,129.2981948,청량초등학교앞,24624,2020-07-27
35.48717086,129.3001959,덕하종점,24625,2020-07-27
35.4871345,129.3000463,덕하종점,24626,2020-07-27
35.49206878,129.2329554,삼정초등학교,24627,2020-07-27
35.49218095,129.2338683,삼정초등학교,24628,2020-07-27
35.49199464,129.229288,쌍용하나빌리지,24629,2020-07-27
35.49058281,129.229377,쌍용하나빌리지,24630,2020-07-27
35.49294698,129.2281217,쌍용하나빌리지,24632,2020-07-27
35.4890193,129.3016827,덕하한양수자인,24633,2020-07-27
35.48892387,129.3013715,덕하한양수자인,24634,2020-07-27
35.56385053,129.3420843,북울산전화국앞,24701,2020-07-27
35.56542034,129.3424448,북울산전화국앞,24702,2020-07-27
35.56030912,129.3405449,학성초등학교후문,24703,2020-07-27
35.56041526,129.3407896,학성초등학교후문,24704,2020-07-27
35.55658155,129.3380908,학성공원,24705,2020-07-27
35.55631234,129.3382237,학성공원,24706,2020-07-27
35.55554906,129.3322295,선거관리위원회,24707,2020-07-27
35.55530208,129.3320757,선거관리위원회,24708,2020-07-27
35.55534572,129.3284925,신중앙시장,24709,2020-07-27
35.55518241,129.328481,신중앙시장,24710,2020-07-27
35.55529926,129.3258299,중앙전통시장,24713,2020-07-27
35.55473203,129.3248651,중앙전통시장,24714,2020-07-27
35.56258568,129.3418547,중구노인복지관,24716,2020-07-27
35.5095599,129.3668473,직업전문학교,24801,2020-07-27
35.50951374,129.3669958,직업전문학교,24802,2020-07-27
35.50210868,129.3685634,장생포,24803,2020-07-27
35.50218525,129.3687023,장생포,24804,2020-07-27
35.50110395,129.3716861,울산해양경찰서부두,24805,2020-07-27
35.50117789,129.371441,울산해양경찰서부두,24806,2020-07-27
35.50171864,129.3754133,장생포파출소앞,24807,2020-07-27
35.50185511,129.3750074,장생포파출소앞,24808,2020-07-27
35.50243651,129.3774571,장생포복지문화센터,24809,2020-07-27
35.50284683,129.3777849,장생포복지문화센터,24810,2020-07-27
35.50326114,129.38055,장생포고래박물관,24811,2020-07-27
35.50375513,129.3821318,장생포고래박물관,24812,2020-07-27
35.50486859,129.3845213,해양수산청,24813,2020-07-27
35.5056176,129.384713,해양수산청,24814,2020-07-27
35.57672612,129.3461134,병영성,24901,2020-07-27
35.57680175,129.3462861,병영성,24902,2020-07-27
35.57448842,129.345914,병영초등학교입구,24903,2020-07-27
35.57421946,129.3460183,병영초등학교입구,24904,2020-07-27
35.47789887,129.4120744,화암,25001,2020-07-27
35.47767108,129.4114121,화암,25002,2020-07-27
35.48141082,129.4158409,현대비치타운,25003,2020-07-27
35.48052758,129.4148395,비치타운앞,25004,2020-07-27
35.48350086,129.4188516,우성현대아파트,25005,2020-07-27
35.48352048,129.4185696,우성현대아파트,25006,2020-07-27
35.48584101,129.4243298,방어동 행정복지센터,25007,2020-07-27
35.48559473,129.4231908,방어동 행정복지센터,25008,2020-07-27
35.48786879,129.425855,방어진초등학교,25009,2020-07-27
35.48739516,129.4254578,방어진초등학교,25010,2020-07-27
35.48530999,129.4228531,해피랜드아파트앞,25011,2020-07-27
35.48516997,129.4221371,해피랜드아파트앞,25012,2020-07-27
35.48599208,129.424244,방어동행정복지센터,25014,2020-07-27
35.54525903,129.3481878,세양청구아파트,25101,2020-07-27
35.54594851,129.3485833,세양청구아파트,25102,2020-07-27
35.53775796,129.3473803,이마트앞,25105,2020-07-27
35.54246448,129.3478592,삼산본동사거리,25107,2020-07-27
35.54241237,129.3481636,삼산본동사거리,25108,2020-07-27
35.63796895,129.3468652,농소2동주민센터,25301,2020-07-27
35.63859833,129.3468096,농소2동주민센터,25302,2020-07-27
35.63472189,129.3483395,한라신천지타운앞,25303,2020-07-27
35.63465647,129.3486913,한라신천지타운,25304,2020-07-27
35.6316587,129.3506787,신천,25305,2020-07-27
35.63224431,129.3505896,신천,25306,2020-07-27
35.62738901,129.3510609,시장2리,25307,2020-07-27
35.62775361,129.3511929,시장2리,25308,2020-07-27
35.62412204,129.3541542,농소중학교,25309,2020-07-27
35.62492011,129.3537521,농소중학교,25310,2020-07-27
35.6221163,129.3553959,농소1동행정복지센터,25311,2020-07-27
35.62230986,129.3554502,농소1동행정복지센터,25312,2020-07-27
35.6206537,129.3560521,농소운동장,25313,2020-07-27
35.62054768,129.3562325,농소운동장,25314,2020-07-27
35.61649853,129.3573779,차일마을,25315,2020-07-27
35.6163437,129.3574928,차일마을,25316,2020-07-27
35.61149479,129.3572029,농소공영차고지,25317,2020-07-27
35.61162941,129.3574864,농소공영차고지,25318,2020-07-27
35.60882976,129.3549827,원지마을입구,25319,2020-07-27
35.60827415,129.3547651,원지마을입구,25320,2020-07-27
35.63054907,129.3566423,호계주공아파트,25323,2020-07-27
35.63076823,129.3567453,호계주공아파트,25324,2020-07-27
35.62836788,129.3578203,호계초등학교입구.유황사우나,25325,2020-07-27
35.6285842,129.3577276,유황사우나,25326,2020-07-27
35.62933376,129.3547638,농소1동도서관,25327,2020-07-27
35.62930405,129.3546567,농소1동도서관,25328,2020-07-27
35.61139996,129.3574763,농소공영차고지,25331,2020-07-27
35.61132141,129.3574036,농소공영차고지,25332,2020-07-27
35.62298686,129.3586675,한양수자인2차정문앞,25334,2020-07-27
35.6227164,129.3599944,호계한양수자인,25336,2020-07-27
35.62997527,129.362829,홈골,25337,2020-07-27
35.63024813,129.3626386,홈골,25338,2020-07-27
35.63192954,129.3594677,호계중학교,25341,2020-07-27
35.63210953,129.3593336,호계중학교,25342,2020-07-27
35.4103474,129.2813495,럭키아파트앞,25401,2020-07-27
35.41043808,129.2816315,럭키아파트앞,25402,2020-07-27
35.40975678,129.283918,온양농협앞,25403,2020-07-27
35.40988926,129.2841415,온양농협앞,25404,2020-07-27
35.40870734,129.2880912,솔밭마을,25405,2020-07-27
35.40869279,129.288479,솔밭마을,25406,2020-07-27
35.40799143,129.2946823,울산온천,25407,2020-07-27
35.40803735,129.2948593,울산온천,25408,2020-07-27
35.40757767,129.2980563,남부노인복지관,25409,2020-07-27
35.40770513,129.2980568,남부노인복지관,25410,2020-07-27
35.40296291,129.3108617,술마교,25411,2020-07-27
35.40300874,129.3110671,술마교,25412,2020-07-27
35.4004639,129.3127003,내회,25413,2020-07-27
35.40000209,129.313539,내회,25414,2020-07-27
35.3965272,129.3211206,술마,25415,2020-07-27
35.39650786,129.3213073,술마,25416,2020-07-27
35.40884025,129.2910408,온양하나로마트,25419,2020-07-27
35.40899653,129.291105,온양하나로마트,25420,2020-07-27
35.40975153,129.2932568,온양서희스타힐스,25421,2020-07-27
35.40990605,129.2932501,온양서희스타힐스,25422,2020-07-27
35.65000495,129.3635095,자동차부품혁신센터,25501,2020-07-27
35.64986522,129.36327,자동차부품혁신센터,25502,2020-07-27
35.64832822,129.3653133,평해사입구,25503,2020-07-27
35.64800761,129.3652925,평해사입구,25504,2020-07-27
35.64366796,129.3652962,리한,25509,2020-07-27
35.64381689,129.365343,리한,25510,2020-07-27
35.64585846,129.3634139,일신정밀,25511,2020-07-27
35.6459639,129.3635381,일신정밀,25512,2020-07-27
35.64240985,129.3653259,연지암입구,25513,2020-07-27
35.6423084,129.3655511,연지암입구,25514,2020-07-27
35.65006419,129.360672,기백교,25515,2020-07-27
35.64992702,129.3608666,기백교,25516,2020-07-27
35.64269834,129.3548475,매곡현대아파트,25519,2020-07-27
35.64261259,129.3545096,매곡현대아파트,25520,2020-07-27
35.64393142,129.3524965,매곡푸르지오아파트,25525,2020-07-27
35.64344991,129.3527902,매곡푸르지오아파트,25526,2020-07-27
35.64017932,129.3483162,극동스타클래스,25527,2020-07-27
35.64075944,129.3484405,극동스타클래스,25528,2020-07-27
35.64345618,129.3506223,매곡휴먼시아,25529,2020-07-27
35.64335454,129.3508445,매곡휴먼시아,25530,2020-07-27
35.5856997,129.3658864,LG진로아파트,25701,2020-07-27
35.5858688,129.3660891,LG진로아파트,25702,2020-07-27
35.58234155,129.3639938,벽산아파트앞,25703,2020-07-27
35.58260672,129.3648307,벽산아파트앞,25704,2020-07-27
35.58041583,129.3627635,덕양산업,25901,2020-07-27
35.57964711,129.3630329,덕양산업,25902,2020-07-27
35.57606883,129.3629731,연암사거리,25903,2020-07-27
35.57607233,129.3631965,연암사거리,25904,2020-07-27
35.57387749,129.363486,원연암마을,25907,2020-07-27
35.57398024,129.3637027,원연암마을,25908,2020-07-27
35.57131173,129.3650687,대신강업,25909,2020-07-27
35.5713875,129.3653755,대신강업,25910,2020-07-27
35.56943639,129.3673599,세종공업,25911,2020-07-27
35.56945026,129.3675712,세종공업,25912,2020-07-27
35.56520166,129.3705804,효문초등학교,25913,2020-07-27
35.56520674,129.3708144,효문초등학교,25914,2020-07-27
35.56191892,129.371318,효문입구,25915,2020-07-27
35.56194285,129.3713816,효문입구,25916,2020-07-27
35.56533217,129.3676668,시민의 발 서비스,25918,2020-07-27
35.56623399,129.3674324,시민의 발 서비스,25919,2020-07-27
35.58817591,129.3599332,화봉중학교앞,26101,2020-07-27
35.58838484,129.3598946,화봉중학교앞,26102,2020-07-27
35.58821156,129.3654584,화봉시장,26103,2020-07-27
35.58844353,129.3653814,화봉시장,26104,2020-07-27
35.58714542,129.3699683,연암초등학교앞,26105,2020-07-27
35.58600031,129.3702034,연암초등학교앞,26106,2020-07-27
35.58219868,129.3679297,연암동,26107,2020-07-27
35.58280045,129.3691743,연암동,26108,2020-07-27
35.60836702,129.4265162,달곡마을회관,26229,2020-07-27
35.60835743,129.4268249,달곡마을회관,26230,2020-07-27
35.6088417,129.4218662,달곡당수나무,26231,2020-07-27
35.60882902,129.4217983,달곡당수나무,26232,2020-07-27
35.64558193,129.4414278,공암입구,26301,2020-07-27
35.6455208,129.4415543,공암입구,26302,2020-07-27
35.64285482,129.4401735,서강해수탕,26303,2020-07-27
35.64266738,129.4403085,서강해수탕,26304,2020-07-27
35.63998794,129.4401566,대안입구,26305,2020-07-27
35.64001511,129.4403161,대안입구,26306,2020-07-27
35.63568356,129.4415872,화암,26307,2020-07-27
35.63561328,129.4418872,화암,26308,2020-07-27
35.63199132,129.4402032,화암입구,26309,2020-07-27
35.63136885,129.4406298,화암입구,26310,2020-07-27
35.62466622,129.4428211,산음,26311,2020-07-27
35.62474358,129.4430273,산음,26312,2020-07-27
35.62129367,129.446096,북정자,26313,2020-07-27
35.62100824,129.4464545,북정자,26314,2020-07-27
35.61948186,129.4473512,아진비치아파트,26315,2020-07-27
35.61966557,129.4473783,아진비치아파트,26316,2020-07-27
35.61536685,129.4477752,정자,26318,2020-07-27
35.61346985,129.4455696,강동동주민센터,26319,2020-07-27
35.6132449,129.4455169,강동동주민센터,26320,2020-07-27
35.60827846,129.4370022,주렴,26321,2020-07-27
35.60823757,129.4371079,주렴,26322,2020-07-27
35.60467399,129.4327885,달곡마을,26323,2020-07-27
35.60460734,129.4328541,달곡마을,26324,2020-07-27
35.59812962,129.4307889,신전마을,26325,2020-07-27
35.5984854,129.4309073,신전마을,26326,2020-07-27
35.59224175,129.4296296,구남마을,26327,2020-07-27
35.59218537,129.4297445,구남마을,26328,2020-07-27
35.58061907,129.3998997,무룡고개,26329,2020-07-27
35.58082484,129.4003126,무룡고개,26330,2020-07-27
35.57842505,129.3831165,옥천암입구,26331,2020-07-27
35.57826154,129.3835818,옥천암입구,26332,2020-07-27
35.5781734,129.3764941,상연암,26333,2020-07-27
35.57799355,129.3769436,상연암,26334,2020-07-27
35.57795201,129.3742822,모듈화산업단지입구,26335,2020-07-27
35.57773908,129.3742686,모듈화산업단지입구,26336,2020-07-27
35.57670333,129.3663998,삼주기업앞,26337,2020-07-27
35.57655502,129.3661045,삼주기업앞,26338,2020-07-27
35.57763014,129.3699732,연암자동차학원,26339,2020-07-27
35.57752496,129.3699453,연암자동차학원,26340,2020-07-27
35.58087701,129.3613571,북구청남문,26341,2020-07-27
35.58065879,129.3613424,북구청남문,26342,2020-07-27
35.6282028,129.4411336,산하,26343,2020-07-27
35.6287587,129.4411575,산하,26344,2020-07-27
35.61521308,129.4477601,정자,26345,2020-07-27
35.64982469,129.4476203,신명휴게소,26346,2020-07-27
35.64948582,129.4471743,신명휴게소,26347,2020-07-27
35.60995393,129.4314246,주렴마을,26348,2020-07-27
35.61004002,129.4314561,주렴마을,26349,2020-07-27
35.63705674,129.4357695,푸르지오1차,26350,2020-07-27
35.63695358,129.4348572,푸르지오1차,26351,2020-07-27
35.63734453,129.4403243,군부대앞,26353,2020-07-27
35.63773018,129.4403015,군부대앞,26354,2020-07-27
35.62896219,129.4373625,강동중학교,26355,2020-07-27
35.6285873,129.437665,강동중학교,26356,2020-07-27
35.6247522,129.438882,푸르지오2차,26357,2020-07-27
35.62495535,129.4390403,푸르지오2차,26358,2020-07-27
35.62382121,129.4401393,산하사거리,26359,2020-07-27
35.62348899,129.4387563,산하사거리,26360,2020-07-27
35.62469107,129.4330428,스포츠과학중고교,26361,2020-07-27
35.62474806,129.4335149,스포츠과학중고교,26362,2020-07-27
35.58652797,129.4112286,물먹는골,26364,2020-07-27
35.58661169,129.4111539,물먹는골,26365,2020-07-27
35.63174523,129.4372445,강동초등학교,26366,2020-07-27
35.63190882,129.437008,강동초등학교,26367,2020-07-27
35.5896673,129.4188472,신현동,26368,2020-07-27
35.58965784,129.418425,신현동,26369,2020-07-27
35.63635185,129.4376272,강동서희스타힐스,26371,2020-07-27
35.63643275,129.4377484,강동서희스타힐스,26372,2020-07-27
35.62048004,129.44371,시민안전체험교육센터입구,26373,2020-07-27
35.61964338,129.4440662,시민안전체험교육센터입구,26374,2020-07-27
35.61469825,129.4472175,정자사거리,26375,2020-07-27
35.58995979,129.424651,웰빙숲체험마을,26376,2020-07-27
35.59011121,129.4244248,웰빙숲체험마을,26377,2020-07-27
35.58105408,129.3754146,에프유,26400,2020-07-27
35.58286982,129.3744935,오에스,26401,2020-07-27
35.58017509,129.3748028,중앙공업,26402,2020-07-27
35.57546296,129.3754621,현대글로비스,26403,2020-07-27
35.5724568,129.3763768,센트랄,26404,2020-07-27
35.57162821,129.3769865,진우,26405,2020-07-27
35.56667308,129.3788352,윤영테크,26406,2020-07-27
35.56429202,129.3770629,금강기계공업,26407,2020-07-27
35.4841011,129.412725,일산새마을금고앞,26501,2020-07-27
35.48494482,129.413645,일산새마을금고앞,26502,2020-07-27
35.48159553,129.4113419,꽃바위아파트,26503,2020-07-27
35.48190726,129.4116928,꽃바위아파트,26504,2020-07-27
35.48607428,129.4141514,화암중학교,26505,2020-07-27
35.4859945,129.4143562,화암중학교,26506,2020-07-27
35.48983661,129.4167679,송정타워,26701,2020-07-27
35.49004315,129.4170055,송정타워,26702,2020-07-27
35.48509873,129.4210645,제일교회앞,26703,2020-07-27
35.48526122,129.4210851,제일교회앞,26704,2020-07-27
35.48657628,129.4184946,문재사거리,26705,2020-07-27
35.50276924,129.4246916,명덕여중앞,26901,2020-07-27
35.50286686,129.4248777,명덕여중앞,26902,2020-07-27
35.49800669,129.4235124,월정사입구,26903,2020-07-27
35.49774196,129.4235444,월정사입구,26904,2020-07-27
35.49570399,129.422889,화진중학교,26905,2020-07-27
35.4959172,129.4230469,화진중학교,26906,2020-07-27
35.52999939,129.4296404,녹수초등학교,27101,2020-07-27
35.53056872,129.4307883,녹수초등학교,27102,2020-07-27
35.52835277,129.4270002,동부도서관앞,27103,2020-07-27
35.52818962,129.4270482,동부도서관앞,27104,2020-07-27
35.52507417,129.4241943,"현대중,고등학교앞",27105,2020-07-27
35.52504428,129.4244564,"현대중,고등학교앞",27106,2020-07-27
35.51894303,129.426444,"한마음회관,울산대학병원앞",27107,2020-07-27
35.51912366,129.4267663,"한마음회관,울산대학병원앞",27108,2020-07-27
35.51559881,129.4242227,대경넥스빌앞,27109,2020-07-27
35.51711673,129.424633,대경넥스빌앞,27110,2020-07-27
35.51383448,129.4235326,남호그린아파트앞,27111,2020-07-27
35.5134188,129.4235137,남호그린아파트앞,27112,2020-07-27
35.51012403,129.4213768,전하아이파크,27113,2020-07-27
35.51041174,129.4217787,전하아이파크,27114,2020-07-27
35.50807588,129.419821,한라타워앞,27115,2020-07-27
35.5079267,129.4199121,한라타워앞,27116,2020-07-27
35.50485618,129.4173627,동구청,27117,2020-07-27
35.50530606,129.4179357,동구청,27118,2020-07-27
35.50249166,129.4166527,금강아파트앞,27119,2020-07-27
35.50239789,129.4168243,금강아파트앞,27120,2020-07-27
35.49934164,129.4172472,울산과학대학앞,27121,2020-07-27
35.49901266,129.4175737,울산과학대학앞,27122,2020-07-27
35.49442885,129.4181833,화정주공아파트앞,27123,2020-07-27
35.49425239,129.4183337,화정주공아파트앞,27124,2020-07-27
35.49008072,129.4164004,송정타워,27125,2020-07-27
35.48971459,129.4162808,송정타워,27126,2020-07-27
35.50534668,129.4176437,동구청,27127,2020-07-27
35.54636839,129.4251471,벽산유토피아,27301,2020-07-27
35.54663432,129.4253242,벽산유토피아,27302,2020-07-27
35.54446207,129.42581,목화맨션앞,27303,2020-07-27
35.54448331,129.4259747,목화맨션앞,27304,2020-07-27
35.54147145,129.4292771,남목파출소,27501,2020-07-27
35.54154139,129.4294571,남목파출소,27502,2020-07-27
35.53926013,129.4283752,한국프렌지앞,27503,2020-07-27
35.53896762,129.4280232,한국프렌지앞,27504,2020-07-27
35.5062982,129.087172,알바위기념물,27505,2020-07-27
35.50462935,129.0884427,동광카,27506,2020-07-27
35.50432009,129.0884127,동광카,27507,2020-07-27
35.56696273,129.4543303,주전해수욕장,27701,2020-07-27
35.56690867,129.4544411,주전해수욕장,27702,2020-07-27
35.56446233,129.4558693,주전새마을,27703,2020-07-27
35.56492248,129.4556173,주전새마을,27704,2020-07-27
35.56097605,129.4557598,어린이자연학습원입구,27705,2020-07-27
35.56081819,129.455875,어린이자연학습원입구,27706,2020-07-27
35.55858341,129.4569917,주전초등학교,27707,2020-07-27
35.55863654,129.4570375,주전초등학교,27708,2020-07-27
35.55563267,129.4569642,주전큰마을,27709,2020-07-27
35.55509603,129.4570343,주전큰마을,27710,2020-07-27
35.55343824,129.4546739,봉대산공원입구,27711,2020-07-27
35.55347652,129.4550066,봉대산공원입구,27712,2020-07-27
35.54501063,129.4310382,남목3동주민센터앞,27715,2020-07-27
35.54538585,129.4312085,남목3동주민센터앞,27716,2020-07-27
35.54251134,129.4297482,남목파출소,27717,2020-07-27
35.54246823,129.4298714,남목파출소,27718,2020-07-27
35.54206669,129.4267898,남목농협,27719,2020-07-27
35.54201815,129.4269069,남목농협,27720,2020-07-27
35.54099621,129.4254401,남목입구,27721,2020-07-27
35.54086199,129.4257158,남목입구,27722,2020-07-27
35.54468434,129.430081,남목청구아파트,27723,2020-07-27
35.54457796,129.4299885,남목청구아파트,27724,2020-07-27
35.54547535,129.4299156,남목한신아파트,27725,2020-07-27
35.54566752,129.4298808,남목한신아파트,27726,2020-07-27
35.54242596,129.4257949,남목초등학교,27727,2020-07-27
35.54286467,129.4262509,남목초등학교,27728,2020-07-27
35.54022994,129.4225582,서부노인회관,27730,2020-07-27
35.5403236,129.4222822,서부노인회관,27731,2020-07-27
35.54132822,129.4232728,남목우주아파트,27732,2020-07-27
35.54143337,129.4230252,남목우주아파트,27733,2020-07-27
35.61333456,129.4509135,강동해수탕앞,27901,2020-07-27
35.61351858,129.450456,강동해수탕앞,27902,2020-07-27
35.61225182,129.4559601,판지마을,27903,2020-07-27
35.61235799,129.4559119,판지마을,27904,2020-07-27
35.60820981,129.4557984,복성마을,27905,2020-07-27
35.60820679,129.4560195,복성마을,27906,2020-07-27
35.60685606,129.4571406,제전입구,27907,2020-07-27
35.60660067,129.4570498,제전입구,27908,2020-07-27
35.60516078,129.457705,제전마을,27909,2020-07-27
35.60499759,129.4579857,제전마을,27910,2020-07-27
35.60229943,129.4621773,우가축양장앞,27911,2020-07-27
35.6020384,129.4623293,우가축양장앞,27912,2020-07-27
35.59755231,129.4628661,윗우가마을,27913,2020-07-27
35.59755391,129.4629417,윗우가마을,27914,2020-07-27
35.59397571,129.462304,우가마을,27915,2020-07-27
35.59394054,129.4623606,우가마을,27916,2020-07-27
35.5853245,129.455916,당사마을,27917,2020-07-27
35.58524123,129.4559991,당사마을,27918,2020-07-27
35.58180681,129.4552447,동해초등학교앞,27919,2020-07-27
35.58176574,129.4553036,동해초등학교앞,27920,2020-07-27
35.58028898,129.452315,금천마을,27921,2020-07-27
35.58045051,129.4526571,금천마을,27922,2020-07-27
35.57517923,129.4524054,구암마을,27923,2020-07-27
35.57539097,129.4525718,구암마을,27924,2020-07-27
35.57216018,129.4518049,성골마을,27925,2020-07-27
35.57223503,129.4518904,성골마을,27926,2020-07-27
35.58595726,129.4620281,당사군부대,27927,2020-07-27
35.58596812,129.4621029,당사군부대,27928,2020-07-27
35.56214136,129.1216589,상평마을,30101,2020-07-27
35.56224782,129.1218053,상평마을,30102,2020-07-27
35.55928466,129.1209842,서울산보람병원,30103,2020-07-27
35.5599357,129.1217097,서울산보람병원,30104,2020-07-27
35.55374823,129.1176843,울산산업고등학교,30105,2020-07-27
35.55378867,129.1177804,울산산업고등학교,30106,2020-07-27
35.55034523,129.1164788,작천정입구,30107,2020-07-27
35.55052093,129.1167873,작천정입구,30108,2020-07-27
35.54771107,129.1152159,메가마트,30109,2020-07-27
35.54798054,129.1155854,메가마트,30110,2020-07-27
35.54140664,129.1262571,후평마을,30111,2020-07-27
35.54130521,129.1261966,후평마을,30112,2020-07-27
35.54598488,129.1141635,벌장,30113,2020-07-27
35.54591062,129.1143458,벌장,30114,2020-07-27
35.54281969,129.1122652,메가마트,30116,2020-07-27
35.53978575,129.1098157,마산입구,30117,2020-07-27
35.54011261,129.1101517,마산입구,30118,2020-07-27
35.53956261,129.1098085,마산입구,30120,2020-07-27
35.53717259,129.1083714,중남초등학교,30121,2020-07-27
35.53693028,129.108418,중남초등학교,30122,2020-07-27
35.53259197,129.1049069,대원그린아파트,30123,2020-07-27
35.53237488,129.1048769,대원그린아파트,30124,2020-07-27
35.53035442,129.1024332,공암,30125,2020-07-27
35.53054116,129.1030025,공암,30126,2020-07-27
35.52776002,129.1005317,언양정비,30127,2020-07-27
35.52748723,129.1006467,언양정비,30128,2020-07-27
35.52549975,129.0993844,신안입구,30129,2020-07-27
35.52527216,129.0994137,신안입구,30130,2020-07-27
35.52404388,129.0975107,삼남중학교,30131,2020-07-27
35.52395502,129.0976489,삼남중학교,30132,2020-07-27
35.51851801,129.0959077,지내,30133,2020-07-27
35.51855336,129.096012,지내,30134,2020-07-27
35.51196848,129.0954566,삼성SDI,30135,2020-07-27
35.51228998,129.0957661,삼성SDI,30136,2020-07-27
35.50698788,129.0921933,방기초등학교,30137,2020-07-27
35.50686071,129.0922415,방기초등학교,30138,2020-07-27
35.50559909,129.0903554,방기,30139,2020-07-27
35.50545487,129.0894909,방기,30140,2020-07-27
35.49158,129.08698,통도사,30141,2020-07-27
35.49152,129.08698,통도사삼거리,30142,2020-07-27
35.56086296,129.1213506,서울산보람병원,30143,2020-07-27
35.56103563,129.1210034,서울산보람병원,30144,2020-07-27
35.53883093,129.1056829,부일맨션,30145,2020-07-27
35.53879398,129.1057348,부일맨션,30146,2020-07-27
35.52454646,129.0826445,장제회관,30147,2020-07-27
35.53164906,129.0906121,가천회관,30148,2020-07-27
35.53184403,129.0906008,가천회관,30149,2020-07-27
35.5245567,129.0825731,장제회관,30150,2020-07-27
35.59066009,129.0864541,니프코,30151,2020-07-27
35.59128838,129.0857322,니프코,30152,2020-07-27
35.59517313,129.0832201,에코캡,30153,2020-07-27
35.59537957,129.0827961,에코캡,30154,2020-07-27
35.5996845,129.078637,신영공업,30155,2020-07-27
35.59911603,129.0790331,신영공업,30156,2020-07-27
35.52273934,129.0957724,가천,30157,2020-07-27
35.52284318,129.0960355,가천,30158,2020-07-27
35.54525128,129.1169849,벌장마을회관,30160,2020-07-27
35.54548874,129.1170703,벌장마을회관,30161,2020-07-27
35.61790422,129.03941,석남사,30201,2020-07-27
35.61774519,129.0393944,석남사,30202,2020-07-27
35.61640245,129.0463359,행정,30203,2020-07-27
35.61649701,129.0462683,행정,30204,2020-07-27
35.61722891,129.0561633,소야정,30205,2020-07-27
35.61733969,129.0560475,소야정,30206,2020-07-27
35.61612275,129.0672323,궁근정,30207,2020-07-27
35.61621258,129.067275,궁근정,30208,2020-07-27
35.61395638,129.0707914,신기,30209,2020-07-27
35.61398449,129.0709381,신기,30210,2020-07-27
35.61214898,129.0735292,장성,30211,2020-07-27
35.61233438,129.0734923,장성,30212,2020-07-27
35.61093114,129.0748495,상북농공단지,30213,2020-07-27
35.61122985,129.0747583,상북농공단지,30214,2020-07-27
35.60081781,129.0814496,양등입구,30215,2020-07-27
35.6007074,129.0816076,양등입구,30216,2020-07-27
35.59696156,129.085629,궁평,30217,2020-07-27
35.59710202,129.0856743,궁평,30218,2020-07-27
35.59103213,129.0892525,상북면주민센터,30219,2020-07-27
35.5911235,129.0893238,상북면주민센터,30220,2020-07-27
35.58784004,129.0931419,경의고등학교,30221,2020-07-27
35.58821754,129.0928735,경의고등학교,30222,2020-07-27
35.58571395,129.0962647,향산,30223,2020-07-27
35.58581823,129.0964444,향산,30224,2020-07-27
35.58212255,129.0989063,향산초등학교,30225,2020-07-27
35.58274613,129.098866,향산초등학교,30226,2020-07-27
35.57759664,129.1008882,면허시험장,30227,2020-07-27
35.57806251,129.1002767,면허시험장,30228,2020-07-27
35.57562265,129.1041007,능산,30229,2020-07-27
35.57581903,129.1040259,능산,30230,2020-07-27
35.57217085,129.1072409,청구골든,30231,2020-07-27
35.57209659,129.1073984,청구골든,30232,2020-07-27
35.57084352,129.10768,천전입구,30233,2020-07-27
35.57082821,129.1078856,천전입구,30234,2020-07-27
35.62092516,129.0490925,가지산온천,30235,2020-07-27
35.5687902,129.1085788,경동청구,30237,2020-07-27
35.56952832,129.1083787,경동청구,30238,2020-07-27
35.56336227,129.1225718,남천교,30239,2020-07-27
35.56342966,129.1230047,남천교,30240,2020-07-27
35.56288638,129.1242815,언양알프스시장,30241,2020-07-27
35.56295136,129.1247858,축협,30242,2020-07-27
35.63216748,129.0550487,삽재,30243,2020-07-27
35.632183,129.055152,삽재,30244,2020-07-27
35.61844529,129.0715922,동호그린코아,30246,2020-07-27
35.61835516,129.0717899,동호그린코아,30247,2020-07-27
35.61817608,129.068561,궁근정새동네,30248,2020-07-27
35.61801583,129.0684359,궁근정새동네,30249,2020-07-27
35.6121024,129.0409018,살티,30251,2020-07-27
35.61223877,129.0408965,살티,30252,2020-07-27
35.59524705,129.0314326,배내입구,30253,2020-07-27
35.5956069,129.0316165,배내입구,30254,2020-07-27
35.54369004,129.0133297,이천마을입구,30256,2020-07-27
35.56665368,129.0227503,주암마을입구,30257,2020-07-27
35.56641714,129.0224146,주암마을입구,30258,2020-07-27
35.54430416,129.0133298,이천마을입구,30259,2020-07-27
35.54678966,129.0125645,철구소,30260,2020-07-27
35.54047139,129.0127953,이천분교,30261,2020-07-27
35.54154647,129.0127482,이천분교,30262,2020-07-27
35.55076385,129.0147555,신불산자연휴양림앞,30263,2020-07-27
35.55103062,129.0148641,신불산자연휴양림앞,30264,2020-07-27
35.52332577,129.0084412,백련마을,30265,2020-07-27
35.52338227,129.0083626,백련마을,30266,2020-07-27
35.53607168,129.0109613,당산,30267,2020-07-27
35.53616215,129.0108965,당산,30268,2020-07-27
35.54572944,129.012614,철구소,30269,2020-07-27
35.56073538,129.0207476,내리정마을,30270,2020-07-27
35.56074912,129.0209893,내리정마을,30271,2020-07-27
35.53137861,129.010027,죽전마을,30272,2020-07-27
35.53136734,129.0101883,죽전마을,30273,2020-07-27
35.57921954,129.0280281,배내정상,30274,2020-07-27
35.57922629,129.0281312,배내정상,30275,2020-07-27
35.70971379,129.1955573,활천입구,30301,2020-07-27
35.70968338,129.1956808,활천입구,30302,2020-07-27
35.69415072,129.1939363,가정마을,30303,2020-07-27
35.69190254,129.1938139,가정마을,30304,2020-07-27
35.67415462,129.1768057,미호,30305,2020-07-27
35.6743803,129.1769908,미호입구(하동),30306,2020-07-27
35.66809851,129.1741373,두서농공단지,30307,2020-07-27
35.66819067,129.1745138,두서농공단지,30308,2020-07-27
35.66517404,129.1732792,유촌입구,30309,2020-07-27
35.66502875,129.1735983,유촌입구,30310,2020-07-27
35.66247574,129.1722583,전읍,30311,2020-07-27
35.66276203,129.1727247,전읍,30312,2020-07-27
35.65625881,129.1686507,두광중학교,30313,2020-07-27
35.65639347,129.1690079,두광중학교,30314,2020-07-27
35.64336137,129.1592178,인보,30315,2020-07-27
35.64292062,129.1605444,인보,30316,2020-07-27
35.63864457,129.1580513,서하,30317,2020-07-27
35.63872259,129.1582143,서하,30318,2020-07-27
35.63502572,129.1582962,대정,30319,2020-07-27
35.63510134,129.1583915,대정,30320,2020-07-27
35.63075562,129.1576867,방말,30321,2020-07-27
35.63129949,129.158126,방말,30322,2020-07-27
35.61690732,129.1492874,구량천전,30323,2020-07-27
35.61688605,129.1495324,구량천전,30324,2020-07-27
35.61392052,129.1472984,반구대입구,30325,2020-07-27
35.61405701,129.1476028,반구대입구,30326,2020-07-27
35.61020783,129.1458965,진현,30327,2020-07-27
35.61082576,129.1465908,진현,30328,2020-07-27
35.60695837,129.1442076,옥동,30329,2020-07-27
35.60805581,129.1449458,옥동,30330,2020-07-27
35.6049992,129.1418893,고하,30331,2020-07-27
35.60497572,129.1421962,고하입구,30332,2020-07-27
35.60275323,129.1399626,반곡초등학교,30333,2020-07-27
35.60298257,129.140402,반곡초등학교,30334,2020-07-27
35.59955436,129.1375152,다개입구,30335,2020-07-27
35.60041246,129.1384611,다개입구,30336,2020-07-27
35.59639017,129.1353693,고속도휴게소,30337,2020-07-27
35.59712384,129.1360452,고속도휴게소,30338,2020-07-27
35.5936503,129.1343201,정거리,30339,2020-07-27
35.59412602,129.1346789,정거리,30340,2020-07-27
35.58767849,129.1333563,신화(태기)입구,30341,2020-07-27
35.58852268,129.133718,신화(태기)입구,30342,2020-07-27
35.58047812,129.132137,고동골,30343,2020-07-27
35.58177534,129.1326284,고동골,30344,2020-07-27
35.57576338,129.1310231,신흥마을,30345,2020-07-27
35.57550252,129.1311646,신흥마을,30346,2020-07-27
35.56302983,129.127018,구언양버스터미널,30347,2020-07-27
35.56318761,129.1273734,구언양버스터미널,30348,2020-07-27
35.62279199,129.1525472,고사골입구,30349,2020-07-27
35.62270828,129.152756,고사골입구,30350,2020-07-27
35.71236267,129.1962847,계명마을,30351,2020-07-27
35.71229562,129.1963522,계명마을,30352,2020-07-27
35.61741272,129.1501577,대곡박물관입구,30353,2020-07-27
35.61730727,129.1501006,대곡박물관입구,30354,2020-07-27
35.61701896,129.1542206,대현마을회관,30355,2020-07-27
35.61696667,129.1542507,대현마을회관,30356,2020-07-27
35.61880606,129.168435,대곡박물관,30357,2020-07-27
35.61870669,129.1684489,대곡박물관,30358,2020-07-27
35.61273609,129.1500804,진현마을,30360,2020-07-27
35.61280002,129.1500959,진현마을,30361,2020-07-27
35.60859985,129.1700785,울산암각화박물관,30362,2020-07-27
35.70346117,129.1952984,KCC산업단지입구,30363,2020-07-27
35.700663,129.1953033,도성암,30364,2020-07-27
35.64656418,129.1615072,두서면주민센터,30365,2020-07-27
35.64543851,129.1609069,두서면주민센터,30366,2020-07-27
35.61840063,129.1643337,장천마을,30367,2020-07-27
35.61835167,129.1644169,장천마을,30368,2020-07-27
35.59547355,129.1331541,정거리마을,30370,2020-07-27
35.59559327,129.1333035,정거리마을,30371,2020-07-27
35.60260367,129.1292995,고중마을,30372,2020-07-27
35.6027157,129.1295363,고중마을,30373,2020-07-27
35.58842153,129.1312068,관정마을,30374,2020-07-27
35.58850057,129.1311092,관정마을,30375,2020-07-27
35.58833285,129.1271874,신화마을,30376,2020-07-27
35.58845535,129.1271036,신화마을,30377,2020-07-27
35.59808141,129.1317468,평리마을,30378,2020-07-27
35.59805526,129.1319351,평리마을,30379,2020-07-27
35.61263147,129.1572897,암각화입구주차장,30380,2020-07-27
35.61250896,129.1579493,암각화입구주차장,30381,2020-07-27
35.64300415,129.153297,노서마을,30383,2020-07-27
35.64309828,129.1532609,노서마을,30384,2020-07-27
35.65047336,129.1367141,하선필,30385,2020-07-27
35.65054485,129.1367478,하선필,30386,2020-07-27
35.65118024,129.1329297,중선필,30387,2020-07-27
35.65126066,129.1329042,중선필,30388,2020-07-27
35.65859282,129.1245838,선필삼거리,30389,2020-07-27
35.65862005,129.1246601,선필삼거리,30390,2020-07-27
35.66389849,129.1245533,상선필,30391,2020-07-27
35.66384838,129.1246486,상선필,30392,2020-07-27
35.60577687,129.1262235,다개사입구,30393,2020-07-27
35.56260369,129.130319,언양임시시외터미널앞,30401,2020-07-27
35.56269614,129.1303999,언양임시시외터미널앞,30402,2020-07-27
35.5624683,129.1299952,언양임시시외터미널,30403,2020-07-27
35.56234675,129.1298886,언양임시시외터미널,30404,2020-07-27
35.56099925,129.1327004,언양고등학교,30405,2020-07-27
35.56088633,129.1330172,언양고등학교,30406,2020-07-27
35.55920315,129.1331663,어음하리,30407,2020-07-27
35.55953929,129.1330605,어음하리,30408,2020-07-27
35.55806197,129.1372864,울주도서관,30409,2020-07-27
35.55818294,129.1372412,울주도서관,30410,2020-07-27
35.55631399,129.1405209,언양자동차학원,30411,2020-07-27
35.55690811,129.139635,언양자동차학원,30412,2020-07-27
35.5498089,129.1488595,장촌상리,30413,2020-07-27
35.54991595,129.1486843,장촌상리,30414,2020-07-27
35.54906503,129.1517433,장촌,30415,2020-07-27
35.54909473,129.1522251,장촌,30416,2020-07-27
35.54966837,129.1627777,공촌,30417,2020-07-27
35.54981326,129.1628891,공촌,30418,2020-07-27
35.54943591,129.1671048,대방아파트,30419,2020-07-27
35.54947836,129.1668189,대방아파트,30420,2020-07-27
35.55017819,129.1701166,반송,30421,2020-07-27
35.5502914,129.1700852,반송,30422,2020-07-27
35.55275391,129.1760039,효성앞,30423,2020-07-27
35.55252331,129.1752382,효성앞,30424,2020-07-27
35.55426414,129.1784586,반천,30425,2020-07-27
35.55414267,129.1781369,반천,30426,2020-07-27
35.5567091,129.1819434,반천초등학교,30427,2020-07-27
35.5563506,129.1813385,반천초등학교,30428,2020-07-27
35.558953,129.1839233,미연,30429,2020-07-27
35.55944369,129.1842939,미연,30430,2020-07-27
35.56265612,129.1869001,반천현대아파트입구,30431,2020-07-27
35.56290849,129.1876169,반천현대아파트입구,30432,2020-07-27
35.56448562,129.1940838,무동,30433,2020-07-27
35.56342137,129.1900024,무동,30434,2020-07-27
35.55892478,129.1899969,반천현대아파트,30435,2020-07-27
35.55896478,129.1284936,우성스마트시티뷰,30436,2020-07-27
35.66347703,129.1720079,대리마을,30437,2020-07-27
35.66342908,129.1719427,대리마을,30438,2020-07-27
35.66748978,129.1682221,관음사입구,30439,2020-07-27
35.66730021,129.1682213,관음사입구,30440,2020-07-27
35.67039513,129.1687671,제실입구,30441,2020-07-27
35.67038683,129.1686676,제실입구,30442,2020-07-27
35.67577595,129.1659208,상동고개,30443,2020-07-27
35.67574184,129.1658411,상동고개,30444,2020-07-27
35.68587283,129.1631903,상동회관,30445,2020-07-27
35.68598605,129.1632581,상동회관,30446,2020-07-27
35.67920387,129.1721301,미호중동,30447,2020-07-27
35.67931371,129.1720942,미호중동,30448,2020-07-27
35.5493495,129.1604744,반천산업단지입구,30449,2020-07-27
35.54929282,129.1609228,반천산업단지입구,30450,2020-07-27
35.55704908,129.151063,(주)로파,30451,2020-07-27
35.56120824,129.1446301,(주)동영코엘스,30453,2020-07-27
35.56558494,129.1450311,(주)SLT,30455,2020-07-27
35.56223368,129.1535568,(주)탑아이엔디,30457,2020-07-27
35.55920009,129.1896481,반천현대아파트,30458,2020-07-27
35.5533488,129.1786778,반천마을,30461,2020-07-27
35.55332004,129.17893,반천마을,30462,2020-07-27
35.55091664,129.1816793,예비군훈련장입구,30463,2020-07-27
35.55101179,129.1817663,예비군훈련장입구,30464,2020-07-27
35.55816212,129.1314772,동문굿모닝힐,30465,2020-07-27
35.55744448,129.1307671,동문굿모닝힐,30466,2020-07-27
35.55945624,129.1294374,우성스마트시티뷰,30467,2020-07-27
35.53551013,129.2538728,무거실버복지관,30490,2020-07-27
35.36942133,129.1480967,덕계시장앞,30500,2020-07-27
35.53272503,129.2494523,울산구치소입구,30501,2020-07-27
35.52961471,129.246955,율리공영차고지종점,30503,2020-07-27
35.52952037,129.2468634,율리공영차고지,30504,2020-07-27
35.52555348,129.2448777,영해마을,30507,2020-07-27
35.5255588,129.2451332,영해마을,30508,2020-07-27
35.51987754,129.2422714,문수초등학교앞,30509,2020-07-27
35.51981177,129.2424851,문수초등학교앞,30510,2020-07-27
35.50957585,129.236593,율현마을,30511,2020-07-27
35.50919311,129.2367832,율현마을,30512,2020-07-27
35.48410884,129.217036,대복입구울산예고,30513,2020-07-27
35.48420333,129.2173677,대복입구울산예고,30514,2020-07-27
35.48124738,129.2185595,신진자동차학원앞,30515,2020-07-27
35.48077583,129.2192745,신진자동차학원앞,30516,2020-07-27
35.47500669,129.2195041,오복마을,30517,2020-07-27
35.47418177,129.2194499,오복마을,30518,2020-07-27
35.46422266,129.2086445,웅촌,30519,2020-07-27
35.46405392,129.2087556,웅촌,30520,2020-07-27
35.45631487,129.2055141,대진,30521,2020-07-27
35.45587463,129.2057094,대진,30522,2020-07-27
35.45019676,129.2011749,하대마을,30523,2020-07-27
35.44940972,129.2010394,하대마을,30524,2020-07-27
35.4445001,129.1973961,중대마을,30525,2020-07-27
35.44449523,129.1976564,중대마을,30526,2020-07-27
35.43917218,129.1920494,상대마을,30527,2020-07-27
35.43868361,129.1919924,상대마을,30528,2020-07-27
35.43671569,129.1904834,울산컨트리클럽앞,30529,2020-07-27
35.43651219,129.1906486,울산컨트리클럽앞,30530,2020-07-27
35.43350458,129.1899219,웅비공업지구,30531,2020-07-27
35.43429955,129.1903285,웅비공업지구,30532,2020-07-27
35.43046849,129.1867724,한창제지 앞,30533,2020-07-27
35.43068259,129.187636,한창제지 앞,30534,2020-07-27
35.4273076,129.1832399,용당마을,30535,2020-07-27
35.42734062,129.1835393,용당마을,30536,2020-07-27
35.42496813,129.1812987,편들마을,30537,2020-07-27
35.4249914,129.1815923,편들마을,30538,2020-07-27
35.41948343,129.1758315,북부마을,30539,2020-07-27
35.41995342,129.1764926,북부마을,30540,2020-07-27
35.41545646,129.171662,서창동행정복지센터,30541,2020-07-27
35.4169777,129.1734346,서창동행정복지센터,30542,2020-07-27
35.41480244,129.1711794,농협은행웅상지점,30544,2020-07-27
35.41323523,129.1691025,개운중.효암고,30545,2020-07-27
35.41282995,129.1689035,개운중.효암고,30546,2020-07-27
35.41071824,129.1667124,새웅상요양병원,30547,2020-07-27
35.41089746,129.1669959,새웅상요양병원,30548,2020-07-27
35.40794552,129.1652987,그랜드볼링장,30549,2020-07-27
35.4080157,129.1654964,그랜드볼링장,30550,2020-07-27
35.40619015,129.1648067,웅상중앙병원,30551,2020-07-27
35.40535015,129.1647414,웅상중앙병원,30552,2020-07-27
35.39981582,129.1628237,명동마을,30553,2020-07-27
35.39878442,129.1626788,명동마을,30554,2020-07-27
35.39758885,129.1612575,웅상문화체육센터입구,30555,2020-07-27
35.39245679,129.1584434,주진마을,30557,2020-07-27
35.39243238,129.1586749,주진마을,30558,2020-07-27
35.38997712,129.1571591,웅상도서관,30559,2020-07-27
35.38959441,129.1571948,웅상도서관,30560,2020-07-27
35.38521257,129.1553373,혜인병원,30561,2020-07-27
35.38489725,129.1555102,혜인병원,30562,2020-07-27
35.38264945,129.1548772,신명마을,30563,2020-07-27
35.38256383,129.155093,신명마을,30564,2020-07-27
35.37747304,129.1540958,덕계마을(덕계다리),30565,2020-07-27
35.37707325,129.1541163,덕계마을(덕계다리),30566,2020-07-27
35.37524519,129.1518988,덕계사거리,30567,2020-07-27
35.37452693,129.1517701,덕계사거리,30568,2020-07-27
35.37308099,129.1497302,덕계메가마트,30569,2020-07-27
35.3731036,129.1501971,덕계메가마트,30570,2020-07-27
35.37116482,129.1484465,덕계상설시장,30571,2020-07-27
35.37016248,129.148473,덕계상설시장,30572,2020-07-27
35.39407142,129.1591292,양산롯데캐슬입구,30573,2020-07-27
35.39501492,129.1598032,양산롯데캐슬입구,30574,2020-07-27
35.35834618,129.141047,월평삼거리,30577,2020-07-27
35.35843274,129.1413512,월평삼거리,30578,2020-07-27
35.33413399,129.1224281,창기마을,30583,2020-07-27
35.3342726,129.1228666,창기마을,30584,2020-07-27
35.52178932,129.2432278,울주군청,30585,2020-07-27
35.52214116,129.2435683,울주군청,30586,2020-07-27
35.52330096,129.2423636,울주군청정문,30587,2020-07-27
35.52320676,129.2423417,울주군청정문,30588,2020-07-27
35.29765,129.10301,두구동입구,30591,2020-07-27
35.29170851,129.0986469,"금정체육공원,경륜장입구",30593,2020-07-27
35.29154024,129.0988406,"금정체육공원,경륜장입구",30594,2020-07-27
35.28350977,129.0943299,노포동역,30595,2020-07-27
35.28340565,129.094672,노포동역,30596,2020-07-27
35.53490015,129.2515703,문수실버복지관,30597,2020-07-27
35.39660143,129.1606368,웅상문화체육센터앞,30599,2020-07-27
35.55963307,129.3444963,학성초등학교,30601,2020-07-27
35.55923405,129.3431562,학성초등학교,30602,2020-07-27
35.56061049,129.3502081,종합운동장앞,30603,2020-07-27
35.56085549,129.3491417,종합운동장앞,30604,2020-07-27
35.56063818,129.3559454,농심메가마트앞,30605,2020-07-27
35.56090474,129.3559253,농심메가마트앞,30606,2020-07-27
35.56130862,129.3635697,효문사거리,30609,2020-07-27
35.56126039,129.3591032,효문사거리,30610,2020-07-27
35.56061719,129.3692691,동신공업사앞,30611,2020-07-27
35.56100659,129.3680976,합동공업사,30612,2020-07-27
35.56003431,129.3734066,효정고등학교입구,30613,2020-07-27
35.56041833,129.3726582,효정고등학교입구,30614,2020-07-27
